     3.02           OBSERVATION DATA    M                   RINEX VERSION / TYPE
HIVE                geosystems.aero     18-JAN-22 05:28     PGM / RUN BY / DATE 
AKSH                                                        MARKER NAME         
834                                                         MARKER NUMBER       
                                                            MARKER TYPE         
geosystems.aero     Industrial Geodetic Systems             OBSERVER / AGENCY   
unknown             GEODETIKA GRC220    unknown             REC # / TYPE / VERS 
                    HXCCSX601A      NONE                    ANT # / TYPE        
  3202690.5884  3477599.6295  4269082.6240                  APPROX POSITION XYZ 
        0.0000        0.0000        0.0000                  ANTENNA: DELTA H/E/N
G  9   C1C L1C S1C C2W L2W S2W C5Q L5Q S5Q                  SYS / # / OBS TYPES 
R  6   C1C L1C S1C C2P L2P S2P                              SYS / # / OBS TYPES 
C  6   C1I L1I S1I C7I L7I S7I                              SYS / # / OBS TYPES 
    60.000                                                  INTERVAL            
  2021    11    07    15    42   00.0000000     GPS         TIME OF FIRST OBS   
  2021    11    07    23    59   00.0000000     GPS         TIME OF LAST OBS    
 C1C    0.000 C1P    0.000 C2C    0.000 C2P    0.000        GLONASS COD/PHS/BIS 
    18                                                      LEAP SECONDS        
    53                                                      # OF SATELLITES     
   G01   111   111   111   109   109   109   111   111   111PRN / # OF OBS      
   G02   351   351   351   349   349   349     0     0     0PRN / # OF OBS      
   G05   191   191   191   191   191   191     0     0     0PRN / # OF OBS      
   G06   282   282   282   282   282   282   282   282   282PRN / # OF OBS      
   G07    49    49    49    49    49    49     0     0     0PRN / # OF OBS      
   G11   330   330   330   330   330   330   330   330   330PRN / # OF OBS      
   G12   394   394   394   394   394   394     0     0     0PRN / # OF OBS      
   G13   195   195   195   192   192   192     0     0     0PRN / # OF OBS      
   G14   192   192   192   191   191   191   192   192   192PRN / # OF OBS      
   G15   205   205   205   205   205   205     0     0     0PRN / # OF OBS      
   G17   259   259   259   259   259   259     0     0     0PRN / # OF OBS      
   G18   123   123   123   123   123   123   123   123   123PRN / # OF OBS      
   G19   314   314   314   313   313   313     0     0     0PRN / # OF OBS      
   G20   218   218   218   218   218   218     0     0     0PRN / # OF OBS      
   G21    70    70    70    65    65    65     0     0     0PRN / # OF OBS      
   G23    34    34    34    34    34    34    34    34    34PRN / # OF OBS      
   G24   342   342   342   342   342   342   342   342   342PRN / # OF OBS      
   G25   303   303   303   303   303   303   303   303   303PRN / # OF OBS      
   G26    86    86    86    86    86    86    86    86    86PRN / # OF OBS      
   G28   250   250   250   250   250   250     0     0     0PRN / # OF OBS      
   G29   250   250   250   250   250   250     0     0     0PRN / # OF OBS      
   G30   134   134   134   134   134   134   134   134   134PRN / # OF OBS      
   G31   181   181   181   181   181   181     0     0     0PRN / # OF OBS      
   G32    89    89    89    89    89    89    89    89    89PRN / # OF OBS      
   R01   190   190   190   190   190   190                  PRN / # OF OBS      
   R02   114   114   114   114   114   114                  PRN / # OF OBS      
   R06   102   102   102     0     0     0                  PRN / # OF OBS      
   R07   179   179   179   179   179   179                  PRN / # OF OBS      
   R08   194   194   194   194   194   194                  PRN / # OF OBS      
   R09   161   161   161   161   161   161                  PRN / # OF OBS      
   R10   277   277   277     0     0     0                  PRN / # OF OBS      
   R12   311   311   311   311   311   311                  PRN / # OF OBS      
   R13   206   206   206   206   206   206                  PRN / # OF OBS      
   R14   113   113   113   113   113   113                  PRN / # OF OBS      
   R15    15    15    15    15    15    15                  PRN / # OF OBS      
   R16    38    38    38    36    36    36                  PRN / # OF OBS      
   R18    66    66    66    66    66    66                  PRN / # OF OBS      
   R19   151   151   151   151   151   151                  PRN / # OF OBS      
   R20   252   252   252   252   252   252                  PRN / # OF OBS      
   R21   310   310   310   310   310   310                  PRN / # OF OBS      
   R22   305   305   305   305   305   305                  PRN / # OF OBS      
   R23   206   206   206     0     0     0                  PRN / # OF OBS      
   R24   112   112   112   112   112   112                  PRN / # OF OBS      
   C02   495   495   495   495   495   495                  PRN / # OF OBS      
   C05   495   495   495   495   495   495                  PRN / # OF OBS      
   C07   314   314   314   314   314   314                  PRN / # OF OBS      
   C08   384   384   384   384   384   384                  PRN / # OF OBS      
   C09    38    38    38    38    38    38                  PRN / # OF OBS      
   C10   484   484   484   484   484   484                  PRN / # OF OBS      
   C11   111   111   111   111   111   111                  PRN / # OF OBS      
   C12   246   246   246   246   246   246                  PRN / # OF OBS      
   C13   385   385   385   385   385   385                  PRN / # OF OBS      
   C14    72    72    72    72    72    72                  PRN / # OF OBS      
                                                            END OF HEADER       
> 2021 11 07 15 42  0.0000000  0 23                     
G05  24499582.430 6 128746194.284 6        39.000    24499575.801 6 100321690.231 6        40.000                                                  
G07  22556553.423 7 118535564.062 7        46.000    22556544.810 7  92365373.936 7        44.000                                                  
G13  20804795.545 8 109329973.777 8        50.000    20804787.254 7  85192161.845 7        47.000                                                  
G14  20244950.568 8 106388013.896 8        51.000    20244942.491 8  82899760.072 8        48.000    20244946.226 9  79445628.477 9        56.000  
G15  22601676.030 7 118772627.246 7        47.000    22601667.131 7  92550078.180 7        45.000                                                  
G17  21818040.963 8 114654602.281 8        48.000    21818033.012 7  89341231.525 7        46.000                                                  
G19  23906650.812 7 125630309.871 7        42.000    23906641.306 6  97893711.588 6        41.000                                                  
G28  20562418.957 8 108056320.891 8        49.000    20562409.933 7  84199725.696 7        46.000                                                  
G30  20895898.901 8 109808776.569 8        50.000    20895892.593 7  85565296.911 7        47.000    20895892.843 8  82000080.927 8        53.000  
R01  23841081.308 6 127444243.325 6        41.000    23841079.968 6  99123298.882 6        40.000  
R06  23687524.932 6 126401209.243 6        36.000                                                  
R07  20647177.933 8 110525998.128 8        53.000    20647173.305 8  85964663.982 8        49.000  
R08  20948767.890 8 112179725.686 8        48.000    20948762.297 8  87250887.121 8        49.000  
R09  19769355.890 9 105567359.829 9        57.000    19769352.709 9  82107972.436 9        54.000  
R10  21010890.352 8 111999909.089 8        53.000                                                  
R16  22255340.127 7 118884175.523 7        43.000    22255334.642 5  92465451.780 5        35.000  
R18  22110066.079 8 118025040.727 8        48.000    22110064.756 8  91797286.036 8        48.000  
R19  21834114.525 6 116797791.523 6        39.000    21834111.630 7  90842728.800 7        44.000  
C02                                                  38724649.395 7 155928164.199 7        47.000  
C05                                                  37838445.118 8 152359747.548 8        48.000  
C07                                                  37982728.401 8 152940808.197 8        48.000  
C09                                                  39847836.121 7 160450722.374 7        44.000  
C10                                                  37064942.181 8 149245275.202 8        51.000  
> 2021 11 07 15 43  0.0000000  0 23                     
G05  24528821.620 6 128899850.663 6        39.000    24528815.419 6 100441422.349 6        40.000                                                  
G07  22582891.023 7 118673969.758 7        45.000    22582881.981 7  92473222.522 7        43.000                                                  
G13  20791166.538 8 109258354.373 8        50.000    20791158.354 7  85136354.524 7        47.000                                                  
G14  20247313.443 8 106400432.241 8        50.000    20247306.009 7  82909436.688 7        47.000    20247309.654 9  79454901.908 9        56.000  
G15  22576161.942 8 118638550.845 8        48.000    22576154.562 7  92445603.067 7        45.000                                                  
G17  21788669.186 8 114500253.108 8        49.000    21788662.181 7  89220959.493 7        46.000                                                  
G19  23862946.738 7 125400641.985 7        42.000    23862937.035 6  97714749.614 6        40.000                                                  
G28  20555176.213 8 108018260.373 8        49.000    20555167.510 7  84170068.170 7        46.000                                                  
G30  20909105.377 8 109878177.838 8        50.000    20909099.141 7  85619375.818 7        47.000    20909099.802 8  82051906.543 8        53.000  
R01  23800740.738 6 127228600.559 6        41.000    23800739.452 6  98955576.798 6        40.000  
R06  23738431.866 6 126672858.406 6        36.000                                                  
R07  20677985.862 8 110690915.395 8        52.000    20677981.698 8  86092932.951 8        49.000  
R08  20936699.938 8 112115101.565 8        48.000    20936694.095 8  87200623.940 8        50.000  
R09  19775990.033 9 105602785.599 9        57.000    19775986.763 8  82135525.834 8        53.000  
R10  20988781.957 8 111882058.994 8        52.000                                                  
R16  22286668.831 7 119051528.333 7        45.000    22286663.435 6  92595615.042 6        36.000  
R18  22119030.682 8 118072894.037 8        49.000    22119029.395 8  91834505.312 8        48.000  
R19  21805587.040 6 116645188.826 6        40.000    21805583.860 7  90724037.830 7        46.000  
C02                                                  38724567.590 7 155927834.971 7        47.000  
C05                                                  37838424.533 8 152359665.071 8        48.000  
C07                                                  37990597.436 8 152972491.989 8        49.000  
C09                                                  39860599.910 7 160502117.425 7        43.000  
C10                                                  37069539.916 8 149263785.660 8        51.000  
> 2021 11 07 15 44  0.0000000  0 23                     
G05  24558214.411 7 129054307.912 7        43.000    24558208.032 7 100561778.623 7        42.000                                                  
G07  22609404.114 7 118813297.152 7        45.000    22609395.841 7  92581789.291 7        43.000                                                  
G13  20777954.129 8 109188922.574 8        50.000    20777946.159 7  85082251.828 7        47.000                                                  
G14  20249985.058 8 106414471.790 8        51.000    20249977.357 8  82920376.608 8        48.000    20249981.288 9  79465385.991 9        56.000  
G15  22551011.471 7 118506384.491 7        47.000    22551002.447 7  92342616.293 7        45.000                                                  
G17  21759594.105 7 114347461.168 7        47.000    21759586.636 7  89101900.898 7        45.000                                                  
G19  23819301.953 7 125171287.198 7        42.000    23819291.625 6  97536031.601 6        40.000                                                  
G28  20548227.057 8 107981741.233 8        49.000    20548217.979 7  84141611.718 7        46.000                                                  
G30  20922558.268 8 109948872.017 8        50.000    20922552.139 7  85674462.186 7        47.000    20922552.264 8  82104697.642 8        53.000  
R01  23760701.547 7 127014568.467 7        42.000    23760700.332 6  98789107.439 6        39.000  
R06  23789332.296 6 126944472.529 6        37.000                                                  
R07  20709259.833 8 110858327.646 8        52.000    20709255.616 8  86223142.415 8        49.000  
R08  20925227.257 8 112053665.720 8        48.000    20925221.521 8  87152840.516 8        49.000  
R09  19782837.228 9 105639348.217 9        57.000    19782833.332 8  82163963.447 8        53.000  
R10  20966847.803 8 111765137.744 8        52.000                                                  
R16  22318051.982 7 119219171.598 7        45.000    22318046.550 6  92726004.208 6        36.000  
R18  22128591.163 8 118123928.172 8        50.000    22128589.823 7  91874198.539 7        47.000  
R19  21777514.144 6 116495017.686 6        41.000    21777510.981 7  90607238.087 7        46.000  
C02                                                  38724483.999 7 155927498.872 7        47.000  
C05                                                  37838401.071 8 152359570.123 8        48.000  
C07                                                  37998481.035 8 153004234.805 8        48.000  
C09                                                  39873423.329 7 160553754.264 7        43.000  
C10                                                  37074161.167 8 149282396.916 8        49.000  
> 2021 11 07 15 45  0.0000000  0 23                     
G05  24587754.801 6 129209541.832 6        41.000    24587748.064 6 100682740.106 6        41.000                                                  
G07  22636092.322 7 118953543.201 7        45.000    22636083.762 7  92691071.911 7        44.000                                                  
G13  20765160.391 8 109121691.423 8        50.000    20765152.350 7  85029863.918 7        47.000                                                  
G14  20252963.860 8 106430123.961 8        51.000    20252955.658 8  82932573.121 8        48.000    20252959.947 9  79477074.316 9        56.000  
G15  22526227.547 8 118376145.480 8        48.000    22526219.970 7  92241131.384 7        46.000                                                  
G17  21730818.706 7 114196245.916 7        46.000    21730810.987 7  88984070.856 7        45.000                                                  
G19  23775720.604 7 124942267.220 7        42.000    23775710.347 7  97357574.537 7        42.000                                                  
G28  20541569.523 8 107946757.173 8        49.000    20541560.696 7  84114351.435 7        46.000                                                  
G30  20936256.732 8 110020859.583 8        50.000    20936250.907 7  85730556.377 7        47.000    20936250.961 8  82158454.566 8        53.000  
R01  23720969.721 7 126802178.811 7        43.000    23720968.452 6  98623915.501 6        40.000  
R06  23840220.468 5 127216020.731 5        35.000                                                  
R07  20740994.074 8 111028203.458 8        52.000    20740989.732 8  86355268.004 8        49.000  
R08  20914352.098 8 111995429.786 8        49.000    20914346.326 8  87107545.878 8        49.000  
R09  19789896.153 9 105677042.141 9        57.000    19789892.258 8  82193280.941 8        53.000  
R10  20945087.943 8 111649145.021 8        52.000                                                  
R16  22349488.543 7 119387100.411 7        45.000    22349483.343 6  92856615.479 6        36.000  
R18  22138746.236 8 118178135.514 8        49.000    22138744.663 7  91916359.838 7        47.000  
R19  21749901.483 6 116347308.521 6        40.000    21749898.427 7  90492353.245 7        47.000  
C02                                                  38724398.817 7 155927155.480 7        47.000  
C05                                                  37838374.303 8 152359462.378 8        48.000  
C07                                                  38006377.463 7 153036034.299 7        47.000  
C09                                                  39886307.162 7 160605631.729 7        44.000  
C10                                                  37078807.524 8 149301106.248 8        50.000  
> 2021 11 07 15 46  0.0000000  0 24                     
G05  24617438.393 6 129365531.101 6        40.000    24617431.907 6 100804290.103 6        40.000                                                  
G07  22662955.574 7 119094710.661 7        45.000    22662946.836 7  92801072.506 7        44.000                                                  
G13  20752788.558 8 109056677.301 8        49.000    20752780.660 7  84979203.561 7        47.000                                                  
G14  20256248.347 8 106447384.763 8        50.000    20256240.163 7  82946023.114 7        47.000    20256244.488 9  79489963.895 9        56.000  
G15  22501815.102 8 118247855.075 8        48.000    22501807.400 7  92141164.848 7        46.000                                                  
G17  21702347.456 8 114046630.492 8        48.000    21702339.593 7  88867487.428 7        46.000                                                  
G19  23732208.603 7 124713609.080 7        42.000    23732198.186 6  97179399.373 6        41.000                                                  
G21  24956135.556 6 131145368.431 6        37.000    24956126.246 5 102191170.060 5        35.000                                                  
G28  20535203.898 8 107913306.844 8        49.000    20535195.143 7  84088286.266 7        46.000                                                  
G30  20950202.593 8 110094145.616 8        50.000    20950196.679 7  85787662.352 7        47.000    20950196.875 8  82213181.118 8        52.000  
R01  23681551.639 6 126591466.737 6        41.000    23681550.442 6  98460028.337 6        40.000  
R06  23891091.253 6 127487476.328 6        36.000                                                  
R07  20773183.600 8 111200516.433 8        53.000    20773179.151 8  86489289.189 8        49.000  
R08  20904077.374 8 111940408.780 8        49.000    20904071.513 8  87064751.739 8        49.000  
R09  19797166.773 9 105715866.828 9        57.000    19797162.859 8  82223477.901 8        52.000  
R10  20923503.039 8 111534085.312 8        52.000                                                  
R16  22380978.693 7 119555314.712 7        46.000    22380973.547 5  92987448.785 5        35.000  
R18  22149495.293 8 118235512.538 8        49.000    22149493.434 7  91960986.394 7        47.000  
R19  21722755.738 6 116202096.912 6        39.000    21722752.951 7  90379410.922 7        45.000  
C02                                                  38724312.439 7 155926808.060 7        47.000  
C05                                                  37838344.998 8 152359344.902 8        48.000  
C07                                                  38014289.331 7 153067891.730 7        47.000  
C09                                                  39899252.304 7 160657752.208 7        45.000  
C10                                                  37083479.112 8 149319914.825 8        50.000  
> 2021 11 07 15 48  0.0000000  1 24                     
G05  24677217.279 7 129679668.162 7        42.000    24677210.025 6 101049072.096 6        41.000                                                  
G07  22717204.606 7 119379791.982 7        45.000    22717196.547 7  93023213.736 7        43.000                                                  
G13  20729318.401 8 108933340.793 8        49.000    20729310.378 7  84883097.203 7        47.000                                                  
G14  20263728.017 8 106486691.024 8        50.000    20263720.244 7  82976651.368 7        47.000    20263724.103 9  79519315.974 9        56.000  
G15  22454113.763 7 117997181.641 7        47.000    22454105.883 7  91945834.950 7        45.000                                                  
G17  21646331.893 8 113752265.357 8        48.000    21646323.637 7  88638112.066 7        46.000                                                  
G19  23645405.697 7 124257459.846 7        43.000    23645396.226 7  96823958.484 7        42.000                                                  
G21  24944434.812 6 131083883.203 6        39.000    24944425.896 6 102143250.569 6        37.000                                                  
G28  20523342.727 8 107850975.163 8        49.000    20523334.239 7  84039716.145 7        46.000                                                  
G30  20978835.076 8 110244608.293 8        50.000    20978828.840 7  85904905.972 7        47.000    20978828.554 8  82325539.594 8        52.000  
R01  23603679.312 7 126175194.836 7        42.000    23603678.401 6  98136261.401 6        39.000  
R06  23992756.952 6 128029981.577 6        36.000                                                  
R07  20838903.615 8 111552319.886 8        52.000    20838898.897 8  86762913.973 8        50.000  
R08  20885334.859 8 111840042.737 8        48.000    20885328.855 8  86986689.267 8        49.000  
R09  19812338.073 9 105796880.821 9        57.000    19812334.303 8  82286488.798 8        53.000  
R10  20880856.918 8 111306758.082 8        53.000                                                  
R16  22444114.794 7 119892574.395 7        44.000    22444109.665 6  93249761.788 6        36.000  
R18  22172765.389 8 118359730.517 8        50.000    22172763.459 7  92057600.396 7        46.000  
R19  21669886.785 6 115919284.695 6        40.000    21669884.016 7  90159445.942 7        45.000  
C02                                                  38724135.267 7 155926094.318 7        47.000  
C05                                                  37838277.846 8 152359074.598 8        48.000  
C07                                                  38030153.682 8 153131766.200 8        48.000  
C09                                                  39925319.045 7 160762712.653 7        45.000  
C10                                                  37092890.709 8 149357815.476 8        49.000  
> 2021 11 07 15 49  0.0000000  0 24                     
G05  24707302.138 6 129837766.274 6        39.000    24707295.062 6 101172265.399 6        40.000                                                  
G07  22744589.598 7 119523701.966 7        45.000    22744581.611 7  93135351.342 7        44.000                                                  
G13  20718224.436 8 108875041.825 8        50.000    20718216.895 7  84837669.429 7        47.000                                                  
G14  20267920.018 8 106508719.198 8        50.000    20267912.030 7  82993816.188 7        47.000    20267916.015 9  79535765.599 9        56.000  
G15  22430830.229 7 117874832.009 7        47.000    22430823.135 7  91850497.620 7        45.000                                                  
G17  21618794.084 8 113607553.089 8        48.000    21618786.061 7  88525349.269 7        46.000                                                  
G19  23602124.529 7 124030014.085 7        43.000    23602114.665 7  96646728.055 7        42.000                                                  
G21  24939080.199 6 131055743.043 6        39.000    24939071.086 6 102121323.123 6        37.000                                                  
G28  20517844.679 8 107822081.193 8        49.000    20517836.173 7  84017201.373 7        46.000                                                  
G30  20993521.555 8 110321786.006 8        50.000    20993515.229 7  85965044.433 7        47.000    20993515.425 8  82383172.289 8        52.000  
R01  23565236.683 7 125969697.468 7        43.000    23565236.218 6  97976430.144 6        38.000  
R06  24043540.287 5 128300970.941 5        33.000                                                  
R07  20872421.953 8 111731746.329 8        52.000    20872417.361 8  86902467.820 8        49.000  
R08  20876870.321 8 111794716.051 8        48.000    20876864.532 8  86951435.197 8        49.000  
R09  19820237.057 9 105839060.920 9        57.000    19820233.233 8  82319295.545 8        52.000  
R10  20859795.558 8 111194490.300 8        53.000                                                  
R16  22475758.779 7 120061611.156 7        45.000    22475753.757 6  93381234.785 6        36.000  
R18  22185283.318 8 118426551.649 8        49.000    22185280.995 7  92109572.397 7        47.000  
R19  21644175.173 6 115781744.693 6        40.000    21644172.332 7  90052470.426 7        45.000  
C02                                                  38724044.117 7 155925727.697 7        47.000  
C05                                                  37838239.928 8 152358921.375 8        48.000  
C07                                                  38038103.646 8 153163779.095 8        48.000  
C09                                                  39938441.698 7 160815550.617 7        45.000  
C10                                                  37097631.307 8 149376903.282 8        50.000  
> 2021 11 07 15 50  0.0000000  0 23                     
G05  24737512.759 6 129996524.793 6        38.000    24737505.916 6 101295973.244 6        39.000                                                  
G07  22772149.636 7 119668528.701 7        44.000    22772141.130 7  93248203.337 7        43.000                                                  
G13  20707562.490 8 108819011.502 8        51.000    20707554.056 8  84794009.432 8        48.000                                                  
G14  20272412.040 8 106532326.554 8        50.000    20272404.428 7  83012211.535 7        47.000    20272408.198 9  79553394.475 9        56.000  
G15  22407933.060 7 117754503.396 7        47.000    22407925.501 7  91756735.078 7        45.000                                                  
G17  21591575.774 8 113464519.660 8        48.000    21591567.733 7  88413894.658 7        46.000                                                  
G19  23558930.061 7 123803025.916 7        44.000    23558920.555 7  96469854.169 7        43.000                                                  
G21  24934059.396 6 131029358.387 6        37.000    24934049.908 6 102100763.633 6        36.000                                                  
G28  20512634.518 8 107794700.943 8        49.000    20512625.620 7  83995866.127 7        46.000                                                  
G30  21008456.538 8 110400269.364 8        49.000    21008450.033 7  86026200.281 7        47.000    21008450.248 8  82441779.978 8        52.000  
R01  23527132.385 7 125766008.237 7        43.000    23527131.706 6  97818005.212 6        38.000  
R07  20906372.793 8 111913486.817 8        52.000    20906368.451 8  87043821.491 8        49.000  
R08  20869013.705 8 111752645.155 8        49.000    20869008.183 8  86918713.363 8        48.000  
R09  19828345.126 9 105882357.596 9        56.000    19828341.052 8  82352970.716 8        52.000  
R10  20838910.727 8 111083161.698 8        53.000                                                  
R16  22507454.190 7 120230921.736 7        45.000    22507449.044 6  93512920.713 6        37.000  
R18  22198388.478 8 118496507.730 8        48.000    22198386.173 7  92163982.689 7        45.000  
R19  21618953.976 6 115646829.250 6        40.000    21618951.028 7  89947536.207 7        45.000  
C02                                                  38723952.825 7 155925360.178 7        47.000  
C05                                                  37838200.009 8 152358761.603 8        48.000  
C07                                                  38046066.779 8 153195845.241 8        48.000  
C09                                                  39951624.070 7 160868631.470 7        43.000  
C10                                                  37102395.635 8 149396085.432 8        50.000  
> 2021 11 07 15 51  0.0000000  0 23                     
G05  24767841.620 6 130155905.744 6        41.000    24767835.455 6 101420166.156 6        41.000                                                  
G07  22799880.876 7 119814257.647 7        44.000    22799872.942 7  93361758.353 7        43.000                                                  
G13  20697331.831 8 108765248.258 8        50.000    20697323.039 7  84752116.006 7        47.000                                                  
G14  20277200.724 8 106557491.926 8        50.000    20277193.469 7  83031820.936 7        47.000    20277196.882 9  79572186.809 9        56.000  
G15  22385420.932 8 117636200.149 8        49.000    22385413.606 7  91664550.753 7        46.000                                                  
G17  21564677.480 8 113323169.883 8        48.000    21564669.600 7  88303752.045 7        45.000                                                  
G19  23515824.492 7 123576504.155 7        44.000    23515814.628 7  96293343.747 7        43.000                                                  
G21  24929371.798 5 131004725.600 5        34.000    24929362.077 5 102081569.441 5        33.000                                                  
G28  20507708.511 8 107768815.543 8        48.000    20507699.612 7  83975695.710 7        46.000                                                  
G30  21023637.291 8 110480046.429 8        50.000    21023631.412 7  86088364.227 7        47.000    21023631.180 8  82501353.749 8        52.000  
R01  23489369.779 7 125564145.286 7        43.000    23489368.849 6  97661000.704 6        40.000  
R07  20940747.343 8 112097496.236 8        52.000    20940742.947 8  87186939.870 8        48.000  
R08  20861764.242 8 111713824.492 8        49.000    20861758.578 8  86888519.528 8        48.000  
R09  19836659.047 9 105926754.004 9        56.000    19836654.794 8  82387501.262 8        53.000  
R10  20818199.493 8 110972759.065 8        53.000                                                  
R16  22539197.777 7 120400489.139 7        45.000    22539192.381 6  93644806.392 6        36.000  
R18  22212076.257 8 118569574.297 8        48.000    22212073.844 7  92220812.269 7        45.000  
R19  21594226.769 6 115514555.223 6        41.000    21594223.695 7  89844656.468 7        45.000  
C02                                                  38723858.869 7 155924982.072 7        47.000  
C05                                                  37838156.337 8 152358585.707 8        48.000  
C07                                                  38054041.009 8 153227953.229 8        49.000  
C09                                                  39964864.230 7 160921944.633 7        45.000  
C10                                                  37107179.905 8 149415350.546 8        49.000  
> 2021 11 07 15 52  0.0000000  0 23                     
G05  24798286.915 6 130315893.099 6        40.000    24798280.267 6 101544831.517 6        40.000                                                  
G07  22827784.499 7 119960894.626 7        44.000    22827776.583 7  93476020.904 7        43.000                                                  
G13  20687535.818 8 108713771.421 8        50.000    20687527.402 7  84712004.176 7        47.000                                                  
G14  20282285.801 8 106584214.935 8        50.000    20282278.761 7  83052644.060 7        47.000    20282281.906 9  79592142.308 9        56.000  
G15  22363299.100 7 117519946.109 7        47.000    22363291.202 7  91573963.177 7        45.000                                                  
G17  21538105.350 7 113183530.601 7        47.000    21538097.362 7  88194942.227 7        45.000                                                  
G19  23472813.807 7 123350480.898 7        44.000    23472803.872 7  96117221.751 7        42.000                                                  
G21  24925020.637 5 130981861.572 5        32.000                                                                                                  
G28  20503067.104 8 107744426.503 8        48.000    20503058.348 7  83956691.273 7        46.000                                                  
G30  21039066.299 8 110561126.058 8        50.000    21039060.402 7  86151543.145 7        47.000    21039060.188 8  82561900.216 8        52.000  
R01  23451956.279 7 125364148.631 7        43.000    23451955.332 6  97505447.776 6        40.000  
R07  20975541.136 8 112283750.275 8        52.000    20975536.687 8  87331804.078 8        49.000  
R08  20855124.882 8 111678270.443 8        50.000    20855118.931 8  86860866.349 8        49.000  
R09  19845179.729 9 105972254.258 9        57.000    19845175.637 8  82422890.332 8        53.000  
R10  20797663.733 8 110863291.401 8        53.000                                                  
R16  22570990.343 7 120570318.915 7        44.000    22570984.875 5  93776896.186 5        34.000  
R18  22226346.280 8 118645747.916 8        48.000    22226343.492 7  92280058.457 7        46.000  
R19  21570000.376 6 115384960.278 6        40.000    21569997.178 7  89743860.428 7        45.000  
C02                                                  38723763.878 7 155924599.805 7        47.000  
C05                                                  37838110.378 8 152358400.082 8        48.000  
C07                                                  38062027.569 8 153260107.517 8        49.000  
C09                                                  39978163.661 7 160975495.660 7        44.000  
C10                                                  37111985.779 8 149434702.935 8        50.000  
> 2021 11 07 15 53  0.0000000  0 23                     
G05  24828841.336 6 130476459.123 6        40.000    24828834.867 6 101669947.850 6        40.000                                                  
G07  22855860.415 7 120108434.033 7        44.000    22855852.928 7  93590986.664 7        43.000                                                  
G13  20678176.417 8 108664587.589 8        50.000    20678168.001 7  84673679.122 7        47.000                                                  
G14  20287664.877 8 106612483.336 8        50.000    20287658.016 7  83074671.390 7        47.000    20287660.785 9  79613251.837 9        55.000  
G15  22341567.991 7 117405754.346 7        47.000    22341561.433 7  91484982.620 7        45.000                                                  
G17  21511860.419 8 113045615.824 8        49.000    21511852.753 7  88087476.206 7        46.000                                                  
G19  23429901.813 7 123124976.195 7        44.000    23429891.842 7  95941503.826 7        43.000                                                  
G21  24921007.058 6 130960772.807 6        38.000    24920999.607 5 102047328.594 5        32.000                                                  
G28  20498708.831 8 107721524.204 8        49.000    20498699.700 7  83938845.339 7        46.000                                                  
G30  21054742.435 8 110643505.233 8        49.000    21054736.146 7  86215734.676 7        47.000    21054736.503 8  82623417.100 8        52.000  
R01  23414897.141 7 125166045.673 7        44.000    23414895.551 6  97351367.742 6        37.000  
R07  21010747.614 8 112472212.482 8        52.000    21010742.968 8  87478385.767 8        49.000  
R08  20849095.998 8 111645984.836 8        49.000    20849089.458 8  86835755.319 8        49.000  
R09  19853905.745 9 106018850.501 9        56.000    19853901.725 8  82459131.853 8        53.000  
R10  20777302.892 8 110754756.302 8        53.000                                                  
R16  22602830.565 7 120740403.012 7        44.000    22602824.954 5  93909183.816 5        32.000  
R18  22241195.152 7 118725012.726 7        47.000    22241192.507 8  92341708.862 8        48.000  
R19  21546279.445 6 115258069.505 6        40.000    21546275.961 7  89645167.674 7        46.000  
C02                                                  38723667.313 7 155924210.720 7        47.000  
C05                                                  37838061.274 8 152358202.086 8        48.000  
C07                                                  38070023.331 8 153292303.671 8        48.000  
C09                                                  39991521.256 7 161029281.136 7        43.000  
C10                                                  37116813.453 8 149454137.948 8        51.000  
> 2021 11 07 15 54  0.0000000  0 23                     
G05  24859501.559 6 130637580.839 6        41.000    24859495.645 6 101795497.122 6        40.000                                                  
G07  22884107.803 7 120256874.359 7        44.000    22884100.155 7  93706654.409 7        43.000                                                  
G13  20669255.575 8 108617709.124 8        50.000    20669247.534 7  84637150.434 7        47.000                                                  
G14  20293336.880 8 106642289.729 8        50.000    20293329.679 7  83097897.149 7        47.000    20293332.592 9  79635509.862 9        55.000  
G15  22320232.807 7 117293642.127 7        47.000    22320226.338 7  91397622.454 7        45.000                                                  
G17  21485948.656 8 112909444.732 8        48.000    21485940.668 7  87981368.898 7        46.000                                                  
G19  23387092.763 7 122900013.668 7        44.000    23387083.238 7  95766208.416 7        43.000                                                  
G21  24917333.562 6 130941467.024 6        37.000    24917323.859 5 102032276.191 5        33.000                                                  
G28  20494632.621 8 107700103.276 8        49.000    20494623.597 7  83922153.719 7        46.000                                                  
G30  21070666.254 8 110727185.875 8        50.000    21070659.679 7  86280940.359 7        47.000    21070660.358 8  82685905.876 8        52.000  
R01  23378198.278 7 124969868.855 7        42.000    23378196.544 6  97198785.789 6        39.000  
R07  21046360.470 8 112662850.790 8        51.000    21046355.949 8  87626659.953 8        49.000  
R08  20843678.611 8 111616975.167 8        50.000    20843672.357 8  86813192.257 8        49.000  
R09  19862836.397 9 106066540.432 9        56.000    19862832.609 8  82496223.998 8        53.000  
R10  20757117.365 8 110647156.210 8        53.000                                                  
R16  22634718.230 7 120910741.082 7        44.000    22634712.529 6  94041669.031 6        36.000  
R18  22256620.836 8 118807357.396 8        49.000    22256618.602 7  92405754.694 7        47.000  
R19  21523069.728 6 115133912.823 6        40.000    21523066.280 7  89548601.391 7        47.000  
C02                                                  38723569.302 7 155923816.167 7        47.000  
C05                                                  37838009.382 8 152357992.967 8        48.000  
C07                                                  38078028.421 8 153324541.108 8        48.000  
C09                                                  40004937.211 7 161083301.086 7        45.000  
C10                                                  37121660.193 8 149473655.143 8        49.000  
> 2021 11 07 15 55  0.0000000  0 23                     
G05  24890263.047 6 130799230.526 6        41.000    24890255.863 6 101921457.945 6        41.000                                                  
G07  22912526.321 7 120406211.646 7        44.000    22912518.084 7  93823021.104 7        43.000                                                  
G13  20660775.169 8 108573144.568 8        50.000    20660766.896 7  84602424.818 7        47.000                                                  
G14  20299299.809 8 106673624.016 8        50.000    20299292.108 7  83122313.492 7        47.000    20299295.646 9  79658908.853 9        55.000  
G15  22299297.245 7 117183623.370 7        47.000    22299290.526 7  91311893.575 7        45.000                                                  
G17  21460370.651 8 112775033.261 8        49.000    21460363.181 7  87876632.700 7        46.000                                                  
G19  23344391.248 7 122675615.370 7        44.000    23344381.795 7  95591352.662 7        43.000                                                  
G21  24914000.811 6 130923953.246 6        37.000    24913991.983 5 102018632.119 5        32.000                                                  
G28  20490836.901 8 107680155.615 8        49.000    20490827.627 7  83906610.095 7        46.000                                                  
G30  21086837.917 8 110812167.087 8        50.000    21086831.180 7  86347159.481 7        47.000    21086831.055 8  82749365.870 8        52.000  
R01  23341865.032 7 124775647.115 7        42.000    23341863.371 6  97047724.467 6        39.000  
R07  21082373.359 8 112855630.499 8        51.000    21082368.928 8  87776599.666 8        49.000  
R08  20838873.684 8 111591245.140 8        49.000    20838867.519 8  86793180.028 8        48.000  
R09  19871970.970 9 106115318.807 9        56.000    19871967.218 9  82534162.707 9        54.000  
R10  20737106.936 8 110540489.605 8        52.000                                                  
R16  22666652.586 7 121081327.662 7        45.000    22666646.779 6  94174347.375 6        36.000  
R18  22272620.884 8 118892766.714 8        49.000    22272618.722 7  92472184.186 7        46.000  
R19  21500376.016 6 115012516.797 6        41.000    21500372.764 7  89454182.295 7        46.000  
C02                                                  38723469.682 7 155923415.190 7        47.000  
C05                                                  37837954.399 8 152357771.823 8        48.000  
C07                                                  38086044.519 8 153356817.014 8        49.000  
C09                                                  40018411.151 7 161137553.731 7        44.000  
C10                                                  37126526.143 8 149493251.594 8        49.000  
> 2021 11 07 15 56  0.0000000  0 23                     
G05  24921120.026 6 130961384.451 6        40.000    24921112.199 6 102047811.577 6        40.000                                                  
G07  22941114.471 7 120556443.324 7        45.000    22941106.358 7  93940084.740 7        43.000                                                  
G13  20652736.986 8 108530903.034 8        50.000    20652728.552 7  84569509.322 7        47.000                                                  
G14  20305551.465 8 106706476.668 8        50.000    20305543.853 7  83147912.966 7        47.000    20305547.391 9  79683441.678 9        55.000  
G15  22278763.325 7 117075713.123 7        47.000    22278756.160 7  91227807.657 7        45.000                                                  
G17  21435131.192 8 112642397.915 8        48.000    21435123.383 7  87773280.510 7        46.000                                                  
G19  23301801.807 7 122451804.249 7        45.000    23301791.783 7  95416954.436 7        43.000                                                  
G21  24911010.555 6 130908238.298 6        38.000    24911000.24415 102006381.78815        32.0001                                                 
G28  20487320.010 8 107661673.892 8        49.000    20487310.843 7  83892208.772 7        46.000                                                  
G30  21103256.797 8 110898448.648 8        50.000    21103250.239 7  86414391.846 7        47.000    21103250.382 8  82813796.875 8        53.000  
R01  23305903.320 6 124583411.068 6        41.000    23305901.551 6  96898207.623 6        40.000  
R07  21118779.975 8 113050517.741 8        51.000    21118775.507 8  87928178.585 8        49.000  
R08  20834681.880 8 111568798.010 8        50.000    20834675.554 8  86775721.137 8        48.000  
R09  19881308.625 9 106165181.403 9        56.000    19881304.997 8  82572944.747 8        53.000  
R10  20717271.749 8 110434757.315 8        52.000                                                  
R16  22698632.794 7 121252160.098 7        43.000    22698627.076 5  94307217.069 5        33.000  
R18  22289192.044 7 118981225.914 7        47.000    22289190.275 7  92540985.779 7        46.000  
R19  21478203.364 6 114893907.887 6        39.000    21478200.433 7  89361930.995 7        45.000  
C02                                                  38723368.436 7 155923007.555 7        47.000  
C05                                                  37837896.450 8 152357538.405 8        48.000  
C07                                                  38094069.729 8 153389129.275 8        49.000  
C09                                                  40031940.861 7 161192037.832 7        42.000  
C10                                                  37131412.427 8 149512924.954 8        51.000  
> 2021 11 07 15 57  0.0000000  0 23                     
G05  24952068.423 6 131124020.492 6        40.000    24952061.472 6 102174540.953 6        40.000                                                  
G07  22969872.376 7 120707569.217 7        45.000    22969864.961 7  94057845.121 7        43.000                                                  
G13  20645142.741 8 108490996.055 8        51.000    20645134.789 8  84538412.969 8        48.000                                                  
G14  20312090.742 8 106740841.747 8        50.000    20312083.898 7  83174690.952 7        47.000    20312087.061 9  79709103.921 9        55.000  
G15  22258633.406 8 116969929.547 8        48.000    22258625.455 7  91145378.908 7        45.000                                                  
G17  21410232.763 8 112511558.938 8        49.000    21410225.258 7  87671328.095 7        47.000                                                  
G19  23259328.391 7 122228606.223 7        45.000    23259318.545 7  95243033.967 7        43.000                                                  
G21  24908363.867 6 130894332.375 6        38.000    24908354.807 5 101995545.968 5        34.000                                                  
G28  20484081.374 8 107644654.631 8        49.000    20484072.190 7  83878947.023 7        46.000                                                  
G30  21119923.681 8 110986033.822 8        50.000    21119917.749 7  86482640.027 7        47.000    21119918.142 8  82879201.377 8        52.000  
R01  23270319.251 7 124393194.342 7        43.000    23270317.518 6  96750261.308 6        41.000  
R07  21155574.544 8 113247481.356 8        52.000    21155570.274 8  88081372.429 8        49.000  
R08  20831104.305 8 111549640.575 8        49.000    20831098.140 8  86760820.938 8        49.000  
R09  19890849.075 9 106216127.509 9        56.000    19890845.733 8  82612569.503 8        52.000  
R10  20697612.536 8 110329962.718 8        53.000                                                  
R16  22730658.801 7 121423237.683 7        45.000    22730653.494 6  94440277.382 6        36.000  
R18  22306332.422 8 119072723.014 8        48.000    22306330.725 7  92612150.195 7        47.000  
R19  21456557.312 6 114778116.621 6        39.000    21456554.345 7  89271871.157 7        45.000  
C02                                                  38723266.047 7 155922595.614 7        47.000  
C05                                                  37837836.035 8 152357295.133 8        48.000  
C07                                                  38102103.839 8 153421478.539 8        49.000  
C09                                                  40045530.163 7 161246754.746 7        44.000  
C10                                                  37136318.456 8 149532676.004 8        50.000  
> 2021 11 07 15 58  0.0000000  0 23                     
G05  24983102.985 6 131287110.615 6        39.000    24983096.034 6 102301624.053 6        39.000                                                  
G07  22998799.680 7 120859582.475 7        44.000    22998791.246 7  94176296.990 7        43.000                                                  
G13  20637994.149 8 108453429.182 8        50.000    20637985.982 7  84509140.062 7        47.000                                                  
G14  20318915.386 8 106776705.737 8        49.000    20318908.524 7  83202636.922 7        47.000    20318911.562 9  79735885.476 9        55.000  
G15  22238910.633 8 116866282.948 8        48.000    22238902.109 7  91064615.306 7        46.000                                                  
G17  21385679.457 8 112382528.078 8        49.000    21385671.523 7  87570784.586 7        46.000                                                  
G19  23216975.179 7 122006040.136 7        44.000    23216966.012 7  95069605.907 7        43.000                                                  
G21  24906062.801 6 130882238.128 6        36.000    24906053.420 5 101986121.852 5        35.000                                                  
G28  20481118.672 8 107629086.112 8        48.000    20481109.809 7  83866815.714 7        46.000                                                  
G30  21136837.820 8 111074918.374 8        49.000    21136832.012 7  86551900.677 7        47.000    21136832.119 8  82945576.174 8        52.000  
R01  23235117.794 7 124205022.595 7        44.000    23235116.222 6  96603905.559 6        41.000  
R07  21192749.707 8 113446482.817 8        51.000    21192745.346 8  88236151.294 8        48.000  
R08  20828140.816 8 111533771.587 8        49.000    20828134.777 8  86748478.368 8        49.000  
R09  19900591.051 9 106268148.723 9        56.000    19900587.513 8  82653030.461 8        53.000  
R10  20678128.653 8 110226102.986 8        53.000                                                  
R16  22762729.283 7 121594553.453 7        43.000    22762724.226 5  94573522.920 5        35.000  
R18  22324038.390 8 119167238.415 8        49.000    22324036.621 7  92685662.192 7        46.000  
R19  21435442.148 6 114665164.831 6        40.000    21435439.075 7  89184019.769 7        45.000  
C02                                                  38723162.013 7 155922176.182 7        47.000  
C05                                                  37837772.314 8 152357038.697 8        48.000  
C07                                                  38110145.864 8 153453859.791 8        50.000  
C09                                                  40059176.325 7 161301700.119 7        45.000  
C10                                                  37141240.854 8 149552499.432 8        49.000  
> 2021 11 07 15 59  0.0000000  0 24                     
G05  25014220.477 6 131450631.051 6        40.000    25014214.401 6 102429042.525 6        40.000                                                  
G07  23027895.542 7 121012482.077 7        44.000    23027886.750 7  94295439.521 7        43.000                                                  
G13  20631292.800 8 108418212.473 8        50.000    20631283.794 7  84481698.466 7        47.000                                                  
G14  20326024.130 8 106814061.441 8        50.000    20326017.126 7  83231745.270 7        47.000    20326020.217 9  79763780.979 9        55.000  
G15  22219596.721 7 116764790.125 7        47.000    22219589.627 7  90985530.028 7        45.000                                                  
G17  21361473.221 8 112255324.469 8        49.000    21361465.662 7  87471664.920 7        46.000                                                  
G19  23174746.925 7 121784131.330 7        45.000    23174737.865 7  94896689.989 7        43.000                                                  
G21  24904108.001 6 130871965.188 6        38.000    24904098.888 5 101978116.995 5        35.000                                                  
G28  20478430.885 8 107614962.876 8        48.000    20478422.415 7  83855810.620 7        46.000                                                  
G30  21153999.462 8 111165104.235 8        50.000    21153993.636 7  86622175.354 7        47.000    21153993.708 8  83012922.746 8        52.000  
R01  23200304.810 7 124018928.337 7        44.000    23200303.613 6  96459165.566 6        39.000  
R07  21230299.528 8 113647489.929 8        51.000    21230295.133 8  88392490.095 8        48.000  
R08  20825792.237 8 111521194.755 8        49.000    20825786.215 8  86738696.402 8        50.000  
R09  19910534.037 9 106321243.589 9        57.000    19910530.374 8  82694326.444 8        53.000  
R10  20658820.423 9 110123180.542 9        54.000                                                  
R16  22794844.403 7 121766107.121 7        43.000    22794839.382 5  94706953.517 5        34.000  
R18  22342307.179 8 119264757.740 8        49.000    22342304.928 7  92761510.540 7        45.000  
R19  21414863.038 6 114555080.413 6        40.000    21414859.857 7  89098398.597 7        45.000  
R20  23565315.396 6 126014297.286 6        38.000    23565316.468 7  98011153.642 7        42.000  
C02                                                  38723056.300 7 155921750.870 7        47.000  
C05                                                  37837705.841 8 152356770.825 8        48.000  
C07                                                  38118195.787 8 153486272.783 8        50.000  
C09                                                  40072879.239 7 161356874.613 7        44.000  
C10                                                  37146181.460 8 149572394.964 8        50.000  
> 2021 11 07 16 00  0.0000000  0 24                     
G05  25045414.841 6 131614559.519 6        38.000    25045408.390 6 102556778.962 6        38.000                                                  
G07  23057160.105 7 121166266.275 7        44.000    23057151.367 7  94415271.368 7        43.000                                                  
G13  20625040.233 8 108385354.770 8        51.000    20625031.298 8  84456095.066 8        48.000                                                  
G14  20333415.044 8 106852900.345 8        50.000    20333407.986 7  83262009.356 7        47.000    20333411.023 9  79792784.058 9        55.000  
G15  22200695.494 7 116665466.241 7        47.000    22200688.328 7  90908134.831 7        45.000                                                  
G17  21337618.057 8 112129964.697 8        49.000    21337610.248 7  87373982.009 7        46.000                                                  
G19  23132648.633 7 121562903.763 7        45.000    23132639.484 7  94724304.958 7        44.000                                                  
G21  24902501.290 6 130863521.037 6        39.000    24902491.248 5 101971537.261 5        34.000                                                  
G28  20476016.995 8 107602278.332 8        48.000    20476008.310 7  83845926.569 7        46.000                                                  
G30  21171408.857 8 111256592.235 8        49.000    21171403.264 7  86693464.700 7        47.000    21171402.532 8  83081241.695 8        51.000  
R01  23165886.266 7 123834941.680 7        43.000    23165885.194 6  96316064.880 6        41.000  
R07  21268217.685 8 113850468.821 8        51.000    21268213.056 8  88550362.512 8        48.000  
R08  20824058.763 8 111511912.225 8        49.000    20824053.063 8  86731476.640 8        50.000  
R09  19920677.692 9 106375409.933 9        57.000    19920673.975 8  82736455.814 8        53.000  
R10  20639688.704 8 110021197.422 8        53.000                                                  
R16  22827003.623 7 121937896.207 7        43.000    22826998.584 5  94840567.155 5        35.000  
R18  22361135.661 8 119365264.587 8        49.000    22361133.231 7  92839682.578 7        46.000  
R19  21394824.590 6 114447889.402 6        38.000    21394821.213 7  89015027.848 7        46.000  
R20  23516600.651 6 125753799.564 6        38.000    23516600.579 7  97808544.373 7        43.000  
C02                                                  38722949.568 7 155921320.417 7        47.000  
C05                                                  37837636.563 8 152356492.197 8        48.000  
C07                                                  38126252.840 8 153518716.598 8        50.000  
C09                                                  40086638.405 7 161412277.849 7        45.000  
C10                                                  37151141.043 8 149592361.372 8        51.000  
> 2021 11 07 16 01  0.0000000  0 24                     
G05  25076681.861 6 131778868.950 6        40.000    25076674.892 6 102684812.300 6        40.000                                                  
G07  23086591.065 7 121320929.466 7        44.000    23086582.899 7  94535788.092 7        43.000                                                  
G13  20619237.982 8 108354862.544 8        50.000    20619228.958 7  84432334.881 7        47.000                                                  
G14  20341086.037 8 106893211.250 8        50.000    20341078.853 7  83293420.444 7        47.000    20341081.713 9  79822886.360 9        55.000  
G15  22182209.882 8 116568322.638 8        48.000    22182201.537 7  90832438.507 7        46.000                                                  
G17  21314116.200 8 112006462.267 8        49.000    21314108.409 7  87277746.377 7        47.000                                                  
G19  23090684.447 7 121342378.831 7        44.000    23090674.744 7  94552467.367 7        43.000                                                  
G21  24901243.043 6 130856909.563 6        37.000    24901233.054 5 101966387.400 5        34.000                                                  
G28  20473875.321 8 107591023.660 8        49.000    20473866.476 7  83837156.700 7        46.000                                                  
G30  21189066.186 8 111349380.263 8        49.000    21189059.932 7  86765767.018 7        46.000    21189059.378 8  83150531.428 8        51.000  
R01  23131867.202 7 123653090.676 7        44.000    23131866.255 7  96174625.301 7        42.000  
R07  21306497.313 8 114055382.541 8        51.000    21306492.578 7  88709739.808 7        47.000  
R08  20822940.359 8 111505922.757 8        50.000    20822934.677 8  86726818.167 8        51.000  
R09  19931021.033 9 106430642.016 9        56.000    19931017.119 8  82779414.100 8        53.000  
R10  20620732.869 9 109920151.962 9        54.000                                                  
R16  22859206.122 7 122109916.388 7        44.000    22859201.226 5  94974360.657 5        34.000  
R18  22380520.228 7 119468740.676 7        47.000    22380517.797 7  92920163.941 7        46.000  
R19  21375331.506 6 114343614.575 6        40.000    21375328.218 7  88933925.249 7        46.000  
R20  23467916.176 6 125493462.085 6        37.000    23467915.604 6  97606059.593 6        39.000  
C02                                                  38722841.014 8 155920883.445 8        48.000  
C05                                                  37837564.354 8 152356201.388 8        48.000  
C07                                                  38134316.862 8 153551187.998 8        50.000  
C09                                                  40100453.500 7 161467907.210 7        46.000  
C10                                                  37156116.905 8 149612395.525 8        50.000  
> 2021 11 07 16 02  0.0000000  0 24                     
G05  25108016.301 6 131943536.383 6        41.000    25108010.690 6 102813124.462 6        40.000                                                  
G07  23116189.368 7 121476470.521 7        44.000    23116181.631 7  94656988.896 7        43.000                                                  
G13  20613887.318 8 108326744.944 8        51.000    20613878.401 8  84410425.074 8        48.000                                                  
G14  20349035.751 8 106934986.633 8        50.000    20349028.067 7  83325972.704 7        47.000    20349031.301 9  79854082.265 9        55.000  
G15  22164141.816 8 116473374.885 8        49.000    22164134.347 7  90758453.291 7        46.000                                                  
G17  21290971.384 8 111884835.607 8        49.000    21290963.825 7  87182972.397 7        47.000                                                  
G19  23048857.979 7 121122581.663 7        45.000    23048848.436 7  94381196.934 7        43.000                                                  
G21  24900335.046 6 130852138.793 6        37.000    24900325.379 5 101962669.987 5        35.000                                                  
G28  20472005.078 8 107581192.988 8        49.000    20471996.054 7  83829496.470 7        46.000                                                  
G30  21206971.001 8 111443469.909 8        49.000    21206964.622 7  86839083.626 7        47.000    21206964.425 8  83220793.162 8        52.000  
R01  23098253.676 7 123473406.902 7        44.000    23098252.675 7  96034871.294 7        42.000  
R07  21345132.339 8 114262198.579 8        51.000    21345127.603 8  88870596.662 8        48.000  
R08  20822437.257 8 111503228.493 8        50.000    20822431.556 8  86724722.615 8        50.000  
R09  19941563.560 9 106486938.346 9        56.000    19941559.682 8  82823200.142 8        52.000  
R10  20601953.723 9 109820047.936 9        54.000                                                  
R16  22891452.007 7 122282167.181 7        42.000    22891446.825 5  95108333.354 5        33.000  
R18  22400457.894 8 119575169.462 8        48.000    22400455.589 7  93002941.895 7        46.000  
R19  21356388.519 6 114242282.318 6        40.000    21356385.249 7  88855111.284 7        45.000  
R20  23419268.512 5 125233321.853 5        33.000    23419267.993 7  97403728.411 7        43.000  
C02                                                  38722731.137 7 155920441.449 7        47.000  
C05                                                  37837489.501 8 152355899.978 8        48.000  
C07                                                  38142388.014 8 153583686.797 8        50.000  
C09                                                  40114325.759 7 161523763.185 7        46.000  
C10                                                  37161108.456 8 149632497.114 8        49.000  
> 2021 11 07 16 03  0.0000000  0 24                     
G05  25139415.837 6 132108537.005 6        41.000    25139408.815 6 102941696.391 6        41.000                                                  
G07  23145954.175 7 121632884.515 7        44.000    23145946.170 7  94778869.848 7        43.000                                                  
G13  20608989.633 8 108301006.774 8        51.000    20608980.466 8  84390369.327 8        48.000                                                  
G14  20357261.845 8 106978215.513 8        50.000    20357254.197 7  83359657.532 7        47.000    20357257.378 9  79886363.574 9        55.000  
G15  22146495.638 8 116380635.652 8        49.000    22146487.007 7  90686188.910 7        47.000                                                  
G17  21268185.896 8 111765097.370 8        49.000    21268178.355 7  87089669.902 7        47.000                                                  
G19  23007174.837 7 120903533.907 7        45.000    23007165.099 7  94210510.416 7        44.000                                                  
G21  24899778.391 6 130849213.435 6        37.000    24899768.545 5 101960390.511 5        35.000                                                  
G28  20470403.656 8 107572777.292 8        49.000    20470394.364 7  83822938.787 7        46.000                                                  
G30  21225122.980 8 111538859.344 8        50.000    21225116.583 7  86913413.016 7        47.000    21225116.511 8  83292025.503 8        52.000  
R01  23065050.601 7 123295917.444 7        44.000    23065049.565 7  95896823.968 7        42.000  
R07  21384115.756 8 114470879.688 8        51.000    21384110.985 8  89032904.128 8        48.000  
R08  20822549.224 8 111503827.018 8        50.000    20822543.559 8  86725188.118 8        50.000  
R09  19952304.486 9 106544294.450 9        56.000    19952300.627 8  82867810.434 8        52.000  
R10  20583351.105 8 109720885.164 8        53.000                                                  
R16  22923740.205 7 122454644.394 7        43.000    22923734.845 5  95242482.377 5        34.000  
R18  22420945.050 8 119684531.482 8        48.000    22420942.834 7  93088001.263 7        45.000  
R19  21337999.561 6 114143913.972 6        40.000    21337996.273 7  88778602.573 7        46.000  
R20  23370663.947 6 124973412.721 6        36.000    23370663.751 7  97201576.942 7        45.000  
C02                                                  38722619.885 8 155919993.487 8        48.000  
C05                                                  37837411.717 8 152355586.970 8        48.000  
C07                                                  38150465.331 8 153616210.257 8        50.000  
C09                                                  40128253.376 7 161579843.668 7        45.000  
C10                                                  37166116.071 8 149652663.227 8        49.000  
> 2021 11 07 16 04  0.0000000  0 24                     
G05  25170872.966 6 132273845.673 6        40.000    25170866.372 6 103070508.302 6        40.000                                                  
G07  23175884.342 7 121790167.993 7        43.000    23175875.801 7  94901428.404 7        42.000                                                  
G13  20604546.197 8 108277656.173 8        51.000    20604536.923 8  84372174.061 8        48.000                                                  
G14  20365762.621 8 107022888.062 8        50.000    20365755.170 7  83394467.324 7        47.000    20365758.529 9  79919722.949 9        55.000  
G15  22129270.025 8 116290116.442 8        49.000    22129260.358 7  90615654.486 7        46.000                                                  
G17  21245762.916 8 111647262.710 8        49.000    21245755.161 7  86997850.718 7        46.000                                                  
G19  22965638.454 7 120685258.482 7        45.000    22965628.644 7  94040425.734 7        43.000                                                  
G21  24899573.308 6 130848138.288 6        37.000    24899563.998 5 101959552.846 5        34.000                                                  
G28  20469069.411 8 107565768.385 8        48.000    20469060.781 7  83817477.311 7        46.000                                                  
G30  21243522.284 8 111635547.893 8        50.000    21243515.779 7  86988754.738 7        47.000    21243515.887 8  83364227.974 8        52.000  
R01  23032263.517 7 123120651.552 7        43.000    23032262.427 6  95760506.084 6        41.000  
R07  21423441.009 8 114681390.442 8        51.000    21423436.095 8  89196634.647 8        48.000  
R08  20823275.475 8 111507716.404 8        49.000    20823269.828 8  86728213.193 8        51.000  
R09  19963243.098 9 106602706.692 9        56.000    19963239.453 8  82913242.156 8        51.000  
R10  20564924.926 8 109622663.740 8        53.000                                                  
R16  22956070.307 7 122627345.773 7        42.000    22956064.678 5  95376805.539 5        33.000  
R18  22441978.088 7 119796807.201 7        45.000    22441975.979 7  93175326.796 7        47.000  
R19  21320169.206 6 114048533.377 6        40.000    21320165.829 7  88704417.729 7        46.000  
R20  23322109.291 6 124713769.605 6        38.000    23322109.398 7  96999632.366 7        45.000  
C02                                                  38722507.096 7 155919539.415 7        47.000  
C05                                                  37837331.110 8 152355262.192 8        48.000  
C07                                                  38158547.811 8 153648756.486 8        49.000  
C09                                                  40142236.297 7 161636147.164 7        44.000  
C10                                                  37171140.304 8 149672891.871 8        50.000  
> 2021 11 07 16 05  0.0000000  0 22                     
G07  23205979.404 7 121948319.213 7        44.000    23205971.363 7  95024663.082 7        43.000                                                  
G13  20600558.224 8 108256699.402 8        51.000    20600549.218 8  84355844.118 8        48.000                                                  
G14  20374536.687 8 107068996.234 8        49.000    20374529.414 7  83430395.770 7        47.000    20374532.809 9  79954154.381 9        55.000  
G15  22112469.426 8 116201832.734 8        49.000    22112460.295 7  90546861.984 7        47.000                                                  
G17  21223704.858 8 111531347.910 8        49.000    21223697.121 7  86907527.534 7        46.000                                                  
G19  22924253.672 7 120467780.051 7        46.000    22924243.719 7  93870962.062 7        44.000                                                  
G21  24899721.621 6 130848919.791 6        36.000    24899711.721 5 101960156.904 5        33.000                                                  
G28  20468002.363 8 107560160.505 8        48.000    20467993.607 7  83813107.536 7        46.000                                                  
G30  21262168.824 8 111733536.415 8        49.000    21262162.427 7  87065109.449 7        46.000    21262162.623 8  83437401.234 8        52.000  
R01  22999898.035 7 122947639.217 7        44.000    22999896.802 6  95625940.963 6        41.000  
R07  21463101.734 8 114893697.344 8        50.000    21463096.802 8  89361762.184 8        48.000  
R08  20824616.152 8 111514895.806 8        50.000    20824610.523 8  86733797.136 8        50.000  
R09  19974379.270 9 106662173.555 9        56.000    19974375.660 8  82959494.180 8        52.000  
R16  22988442.472 7 122800270.569 7        44.000    22988436.576 6  95511302.589 6        36.000  
R18  22463553.539 7 119911979.142 7        47.000    22463551.645 7  93264904.938 7        47.000  
R19  21302901.780 6 113956164.199 6        40.000    21302898.385 7  88632575.049 7        46.000  
R20  23273611.440 6 124454430.134 6        37.000    23273611.887 7  96797923.860 7        43.000  
C02                                                  38722393.216 8 155919080.524 8        48.000  
C05                                                  37837247.751 8 152354926.854 8        48.000  
C07                                                  38166636.296 8 153681325.089 8        50.000  
C09                                                  40156274.309 7 161692673.751 7        44.000  
C10                                                  37176179.654 8 149693182.430 8        50.000  
> 2021 11 07 16 06  0.0000000  0 22                     
G07  23236238.611 7 122107331.550 7        43.000    23236230.659 7  95148568.758 7        42.000                                                  
G13  20597026.805 8 108238140.920 8        50.000    20597017.727 7  84341382.952 7        47.000                                                  
G14  20383581.754 8 107116527.884 8        49.000    20383574.589 7  83467433.408 7        47.000    20383577.716 9  79989648.799 9        55.000  
G15  22096096.988 8 116115793.550 8        48.000    22096089.215 7  90479818.473 7        46.000                                                  
G17  21202014.706 8 111417365.250 8        49.000    21202006.593 7  86818709.888 7        47.000                                                  
G19  22883024.690 7 120251119.084 7        46.000    22883014.218 7  93702135.378 7        44.000                                                  
G21  24900224.026 5 130851560.122 5        35.000    24900215.002 5 101962213.244 5        33.000                                                  
G28  20467199.847 8 107555942.458 8        49.000    20467190.859 7  83809820.765 7        46.000                                                  
G30  21281062.153 8 111832821.860 8        49.000    21281055.630 7  87142474.702 7        47.000    21281056.113 8  83511542.947 8        52.000  
R01  22967959.140 7 122776906.373 7        45.000    22967957.335 7  95493148.776 7        42.000  
R07  21503090.856 8 115107762.043 8        50.000    21503085.996 8  89528256.906 8        48.000  
R08  20826570.219 8 111525360.004 8        49.000    20826564.590 8  86741935.926 8        51.000  
R09  19985711.911 9 106722689.399 9        56.000    19985708.338 8  83006562.083 8        51.000  
R16  23020855.236 7 122973414.469 7        43.000    23020849.554 5  95645969.971 5        32.000  
R18  22485667.223 7 120030024.161 7        47.000    22485665.669 7  93356717.795 7        44.000  
R19  21286201.051 6 113866825.551 6        40.000    21286197.192 7  88563089.473 7        46.000  
R20  23225176.149 5 124195426.567 5        35.000    23225177.721 6  96596476.667 6        41.000  
C02                                                  38722277.586 7 155918614.973 7        47.000  
C05                                                  37837161.622 8 152354579.252 8        48.000  
C07                                                  38174729.891 8 153713912.568 8        50.000  
C09                                                  40170367.107 7 161749420.398 7        45.000  
C10                                                  37181232.818 8 149713531.351 8        49.000  
> 2021 11 07 16 07  0.0000000  0 23                     
G07  23266661.141 7 122267203.061 7        43.000    23266652.867 7  95273143.944 7        42.000                                                  
G13  20593952.993 8 108221988.223 8        51.000    20593943.880 8  84328796.434 8        48.000                                                  
G14  20392895.857 8 107165474.798 8        49.000    20392888.888 7  83505573.867 7        47.000    20392891.783 9  80026200.068 9        55.000  
G15  22080153.781 8 116032012.759 8        49.000    22080146.383 7  90414534.742 7        46.000                                                  
G17  21180695.210 8 111305330.207 8        49.000    21180687.080 7  86731409.876 7        46.000                                                  
G19  22841955.742 7 120035301.107 7        46.000    22841945.611 7  93533965.590 7        44.000                                                  
G21  24901081.829 5 130856065.865 5        35.000    24901071.876 5 101965726.337 5        33.000                                                  
G28  20466660.578 8 107553107.752 8        49.000    20466651.268 7  83807611.914 7        46.000                                                  
G30  21300202.610 8 111933404.857 8        49.000    21300196.070 7  87220851.047 7        47.000    21300195.516 8  83586653.613 8        51.000  
R01  22936451.925 7 122608482.382 7        45.000    22936450.191 6  95362152.341 6        41.000  
R07  21543402.050 8 115323550.157 8        51.000    21543397.279 7  89696092.025 7        47.000  
R08  20829137.193 8 111539106.849 8        49.000    20829131.654 8  86752627.893 8        50.000  
R09  19997240.612 9 106784252.935 9        56.000    19997236.967 8  83054444.794 8        51.000  
R10  20510708.988 8 109333664.851 8        53.000                                                  
R16  23053308.884 7 123146776.324 7        43.000    23053303.255 5  95780807.067 5        34.000  
R18  22508315.781 8 120150923.676 8        48.000    22508314.012 7  93450750.680 7        47.000  
R19  21270071.042 6 113780540.819 6        40.000    21270067.093 7  88495979.147 7        46.000  
R20  23176811.208 6 123936797.009 6        37.000    23176812.477 7  96395320.394 7        44.000  
C02                                                  38722160.544 7 155918144.010 7        47.000  
C05                                                  37837072.438 8 152354220.546 8        48.000  
C07                                                  38182827.757 8 153746518.376 8        50.000  
C09                                                  40184515.138 7 161806387.085 7        45.000  
C10                                                  37186300.794 8 149733938.060 8        50.000  
> 2021 11 07 16 08  0.0000000  0 23                     
G07  23297246.279 7 122427930.742 7        42.000    23297238.452 6  95398386.269 6        41.000                                                  
G13  20591337.790 8 108208245.878 8        51.000    20591329.052 8  84318088.128 8        48.000                                                  
G14  20402477.817 8 107215827.702 8        50.000    20402470.723 7  83544809.915 7        47.000    20402473.546 9  80063801.280 9        55.000  
G15  22064642.969 8 115950502.391 8        49.000    22064633.963 7  90351020.165 7        46.000                                                  
G17  21159748.695 8 111195256.647 8        49.000    21159740.600 7  86645638.316 7        46.000                                                  
G19  22801051.583 7 119820349.013 7        45.000    22801041.862 7  93366470.523 7        44.000                                                  
G21  24902295.082 5 130862441.151 5        34.000    24902286.094 5 101970699.056 5        33.000                                                  
G28  20466382.875 8 107551649.193 8        48.000    20466374.030 7  83806475.404 7        46.000                                                  
G30  21319589.660 8 112035285.042 8        49.000    21319583.567 7  87300238.208 7        46.000    21319583.013 8  83662732.970 8        51.000  
R01  22905381.982 7 122442395.790 7        44.000    22905380.303 6  95232973.922 6        41.000  
R07  21584028.471 8 115541026.393 8        50.000    21584023.664 7  89865240.175 7        47.000  
R08  20832316.557 8 111556132.275 8        50.000    20832310.946 8  86765869.871 8        50.000  
R09  20008965.282 9 106846861.571 9        56.000    20008961.458 8  83103140.421 8        52.000  
R10  20492992.352 9 109239225.084 9        54.000                                                  
R16  23085803.077 7 123320355.066 7        44.000    23085797.573 5  95915812.723 5        35.000  
R18  22531495.281 8 120274657.100 8        49.000    22531493.458 7  93546987.808 7        46.000  
R19  21254515.682 6 113697330.659 6        40.000    21254511.858 7  88431260.178 7        45.000  
R20  23128522.961 6 123678577.610 6        37.000    23128524.051 7  96194483.173 7        45.000  
C02                                                  38722042.447 7 155917667.986 7        47.000  
C05                                                  37836980.752 8 152353851.189 8        48.000  
C07                                                  38190929.144 8 153779141.309 8        49.000  
C09                                                  40198717.616 7 161863572.954 7        44.000  
C10                                                  37191383.530 8 149754401.136 8        49.000  
> 2021 11 07 16 09  0.0000000  0 23                     
G07  23327993.167 7 122589507.872 7        44.000    23327985.555 7  95524290.520 7        43.000                                                  
G13  20589182.089 8 108196917.381 8        50.000    20589173.744 8  84309260.716 8        48.000                                                  
G14  20412325.328 8 107267574.502 8        50.000    20412317.770 7  83585132.099 7        47.000    20412320.611 9  80102443.382 9        55.000  
G15  22049565.677 8 115871271.903 8        48.000    22049557.475 7  90289282.145 7        46.000                                                  
G17  21139177.750 8 111087156.467 8        49.000    21139170.102 7  86561404.423 7        47.000                                                  
G19  22760316.018 7 119606284.053 7        45.000    22760306.655 7  93199666.683 7        44.000                                                  
G21  24903864.268 6 130870687.177 6        36.000                                                                                                  
G28  20466364.971 8 107551556.605 8        48.000    20466356.197 7  83806403.244 7        46.000                                                  
G30  21339222.803 8 112138459.180 8        49.000    21339216.942 7  87380633.597 7        46.000    21339216.995 8  83739778.566 8        52.000  
R01  22874753.816 7 122278671.762 7        44.000    22874752.297 6  95105632.981 6        41.000  
R07  21624963.097 8 115760152.692 8        50.000    21624958.254 7  90035671.630 7        47.000  
R08  20836106.827 8 111576428.942 8        50.000    20836101.216 8  86781656.146 8        50.000  
R09  20020884.814 9 106910510.756 9        56.000    20020880.900 8  83152645.324 8        52.000  
R10  20475453.209 9 109145732.032 9        54.000                                                  
R16  23118337.261 6 123494145.953 6        40.000    23118331.525 5  96050983.392 5        33.000  
R18  22555201.381 7 120401200.930 7        47.000    22555199.183 7  93645410.766 7        45.000  
R19  21239538.528 6 113617213.167 6        40.000    21239534.740 7  88368946.587 7        46.000  
R20  23080317.841 6 123420802.168 6        37.000    23080318.305 7  95993991.175 7        45.000  
C02                                                  38721922.493 8 155917185.286 8        48.000  
C05                                                  37836885.921 8 152353469.569 8        48.000  
C07                                                  38199033.889 8 153811778.279 8        49.000  
C09                                                  40212973.451 7 161920975.121 7        43.000  
C10                                                  37196477.828 8 149774917.150 8        49.000  
> 2021 11 07 16 10  0.0000000  0 23                     
G07  23358902.878 7 122751933.419 7        43.000    23358894.158 7  95650855.833 7        42.000                                                  
G13  20587486.730 8 108188009.352 8        50.000    20587478.867 7  84302319.402 7        47.000                                                  
G14  20422436.140 8 107320707.818 8        49.000    20422428.724 7  83626534.700 7        47.000    20422431.601 9  80142120.862 9        55.000  
G15  22034925.086 8 115794334.982 8        50.000    22034916.795 7  90229331.327 7        47.000                                                  
G17  21118985.451 8 110981045.084 8        49.000    21118978.071 7  86478720.265 7        46.000                                                  
G19  22719754.498 7 119393131.495 7        46.000    22719745.617 7  93033573.853 7        44.000                                                  
G21  24905790.942 6 130880809.794 6        36.000    24905780.971 5 101985009.326 5        33.000                                                  
G28  20466606.453 8 107552823.920 8        49.000    20466597.179 7  83807390.785 7        46.000                                                  
G30  21359102.913 8 112242928.611 8        49.000    21359097.034 7  87462038.355 7        46.000    21359097.034 8  83817791.437 8        52.000  
R01  22844573.375 7 122117340.415 7        45.000    22844571.767 6  94980153.135 6        41.000  
R07  21666199.816 8 115980895.357 8        50.000    21666194.938 8  90207360.346 8        48.000  
R08  20840507.324 8 111599993.341 8        50.000    20840501.713 8  86799984.007 8        49.000  
R09  20032998.957 9 106975199.563 9        55.000    20032995.062 8  83202958.841 8        53.000  
R10  20458092.632 9 109053190.214 9        54.000                                                  
R16  23150911.042 7 123668149.605 7        44.000    23150905.270 5  96186319.501 5        33.000  
R18  22579429.972 7 120530534.907 7        47.000    22579427.827 7  93746003.910 7        47.000  
R19  21225143.475 6 113540210.041 6        39.000    21225139.705 7  88309055.346 7        46.000  
R20  23032202.620 6 123163509.206 6        36.000    23032203.227 7  95793874.469 7        42.000  
C02                                                  38721801.466 8 155916697.895 8        48.000  
C05                                                  37836788.588 8 152353077.561 8        48.000  
C07                                                  38207143.012 8 153844429.408 8        49.000  
C09                                                  40227283.019 7 161978594.116 7        42.000  
C10                                                  37201585.635 8 149795486.412 8        49.000  
> 2021 11 07 16 11  0.0000000  0 23                     
G07  23389967.531 7 122915180.464 7        44.000    23389958.775 7  95778061.304 7        43.000                                                  
G13  20586248.299 8 108181502.588 8        50.000    20586240.348 7  84297249.189 7        47.000                                                  
G14  20432804.480 8 107375195.466 8        49.000    20432797.654 7  83668992.606 7        47.000    20432800.423 9  80182809.693 9        55.000  
G15  22020719.141 8 115719679.213 8        51.000    22020710.189 8  90171157.971 8        48.000                                                  
G17  21099169.866 8 110876913.218 8        49.000    21099162.521 7  86397578.561 7        47.000                                                  
G19  22679366.521 7 119180892.409 7        46.000    22679356.925 7  92868192.780 7        44.000                                                  
G21  24908070.600 6 130892790.144 6        37.000    24908061.201 5 101994344.762 5        32.000                                                  
G28  20467100.710 8 107555420.159 8        48.000    20467091.257 7  83809413.828 7        46.000                                                  
G30  21379224.630 8 112348669.842 8        49.000    21379219.215 7  87544434.111 7        46.000    21379218.912 8  83896754.043 8        52.000  
R01  22814841.358 7 121958405.821 7        45.000    22814839.804 7  94856537.363 7        42.000  
R07  21707727.533 8 116203195.952 8        50.000    21707722.762 7  90380260.734 7        47.000  
R08  20845512.634 8 111626796.279 8        50.000    20845506.916 8  86820830.707 8        50.000  
R09  20045303.263 9 107040903.161 9        56.000    20045299.260 8  83254061.623 8        53.000  
R10  20440906.420 9 108961578.027 9        54.000                                                  
R16  23183520.526 6 123842342.086 6        41.000    23183514.218 5  96321802.533 5        33.000  
R18  22604172.868 7 120662614.536 7        46.000    22604170.903 7  93848732.481 7        44.000  
R19  21211329.988 6 113466317.381 6        39.000    21211326.182 7  88251583.260 7        46.000  
R20  22984180.210 6 122906712.586 6        37.000    22984180.835 7  95594143.757 7        43.000  
C02                                                  38721675.024 7 155916188.753 7        47.000  
C05                                                  37836684.465 8 152352658.136 8        48.000  
C07                                                  38215250.528 8 153877076.091 8        49.000  
C09                                                  40241641.207 7 162036411.655 7        43.000  
C10                                                  37206702.626 8 149816090.063 8        48.000  
> 2021 11 07 16 12  0.0000000  0 23                     
G07  23421199.438 7 123079306.946 7        42.000    23421191.129 7  95905952.044 7        42.000                                                  
G13  20585479.949 8 108177464.784 8        50.000    20585471.890 7  84294102.835 7        47.000                                                  
G14  20443441.015 8 107431089.736 8        50.000    20443433.779 7  83712546.598 7        47.000    20443436.673 9  80224548.936 9        54.000  
G15  22006960.976 8 115647377.590 8        49.000    22006952.060 7  90114819.060 7        46.000                                                  
G17  21079745.380 8 110774835.944 8        49.000    21079737.535 7  86318037.871 7        46.000                                                  
G19  22639169.260 7 118969652.222 7        46.000    22639159.450 7  92703590.082 7        45.000                                                  
G21  24910716.306 6 130906693.692 6        37.000    24910707.353 5 102005183.637 5        33.000                                                  
G28  20467857.874 8 107559399.828 8        48.000    20467848.957 7  83812514.890 7        46.000                                                  
G30  21399600.426 8 112455743.839 8        49.000    21399594.244 7  87627868.364 7        46.000    21399594.619 8  83976711.863 8        51.000  
R01  22785574.525 7 121801957.830 7        44.000    22785572.935 7  94734855.599 7        42.000  
R07  21749551.196 8 116427080.923 8        50.000    21749546.497 8  90554393.394 8        48.000  
R08  20851133.174 8 111656894.197 8        49.000    20851127.599 8  86844240.180 8        48.000  
R09  20057808.791 9 107107681.953 9        56.000    20057804.860 8  83306000.679 8        53.000  
R10  20423906.885 9 108870960.254 9        55.000                                                  
R16  23216176.451 7 124016784.882 7        43.000    23216170.412 5  96457480.205 5        34.000  
R18  22629437.558 8 120797480.186 8        50.000    22629436.003 7  93953627.972 7        47.000  
R19  21198113.255 6 113395616.747 6        39.000    21198109.395 7  88196593.902 7        46.000  
R20  22936269.393 6 122650512.368 6        37.000    22936270.000 7  95394876.993 7        46.000  
C02                                                  38721555.070 7 155915705.745 7        47.000  
C05                                                  37836585.382 8 152352259.148 8        48.000  
C07                                                  38223368.961 8 153909764.459 8        49.000  
C09                                                  40256061.491 7 162094473.920 7        44.000  
C10                                                  37211839.452 8 149836774.045 8        48.000  
> 2021 11 07 16 13  0.0000000  0 23                     
G07  23452586.556 7 123244246.455 7        42.000    23452578.675 7  96034476.305 7        42.000                                                  
G13  20585169.850 8 108175835.188 8        50.000    20585162.149 7  84292833.008 7        47.000                                                  
G14  20454331.059 8 107488317.733 8        49.000    20454323.965 7  83757139.832 7        47.000    20454326.360 9  80267284.133 9        54.000  
G15  21993639.655 8 115577377.007 8        49.000    21993631.972 7  90060273.172 7        46.000                                                  
G17  21060701.880 8 110674762.086 8        49.000    21060693.571 7  86240058.241 7        47.000                                                  
G19  22599154.014 7 118759370.414 7        46.000    22599143.649 7  92539734.142 7        45.000                                                  
G21  24913716.479 6 130922459.037 6        38.000    24913706.329 5 102017468.326 5        34.000                                                  
G28  20468864.507 8 107564691.000 8        48.000    20468855.519 7  83816637.888 7        45.000                                                  
G30  21420217.544 8 112564086.184 8        48.000    21420210.986 7  87712290.950 7        46.000    21420210.986 8  84057616.852 8        51.000  
R01  22756765.586 7 121647958.554 7        45.000    22756763.978 7  94615078.436 7        43.000  
R07  21791652.330 8 116652450.418 8        50.000    21791648.023 8  90729680.717 8        48.000  
R08  20857355.525 8 111690214.698 8        49.000    20857349.825 8  86870156.132 8        48.000  
R09  20070503.284 9 107175469.837 9        55.000    20070499.443 8  83358724.581 8        53.000  
R10  20407082.343 9 108781275.226 9        54.000                                                  
R16  23248867.025 7 124191411.810 7        42.000    23248861.164 5  96593301.207 5        34.000  
R18  22655208.013 7 120935043.965 7        46.000    22655206.297 7  94060622.071 7        45.000  
R19  21185484.537 6 113328061.296 6        40.000    21185480.606 7  88144050.808 7        47.000  
R20  22888464.628 6 122394880.476 6        37.000    22888465.414 7  95196052.255 7        45.000  
C02                                                  38721429.611 7 155915200.662 7        47.000  
C05                                                  37836479.383 8 152351832.370 8        48.000  
C07                                                  38231485.393 8 153942444.928 8        48.000  
C09                                                  40270529.449 7 162152731.512 7        44.000  
C10                                                  37216983.729 8 149857488.531 8        49.000  
> 2021 11 07 16 14  0.0000000  0 23                     
G07  23484131.403 7 123410015.885 7        43.000    23484123.469 7  96163647.264 7        42.000                                                  
G13  20585322.666 8 108176638.271 8        50.000    20585314.947 7  84293458.775 7        47.000                                                  
G14  20465477.005 8 107546891.322 8        49.000    20465469.858 7  83802781.587 7        47.000    20465472.484 9  80311024.144 9        54.000  
G15  21980763.023 8 115509709.143 8        50.000    21980754.857 7  90007544.950 7        47.000                                                  
G17  21042046.370 8 110576726.037 8        49.000    21042038.043 7  86163666.547 7        46.000                                                  
G19  22559329.394 7 118550092.247 7        46.000    22559319.530 7  92376660.297 7        44.000                                                  
G21  24917075.551 6 130940110.246 6        38.000    24917065.437 5 102031222.554 5        34.000                                                  
G28  20470123.201 8 107571306.893 8        48.000    20470114.392 7  83821793.143 7        46.000                                                  
G30  21441079.325 8 112673717.227 8        49.000    21441072.946 7  87797717.728 7        46.000    21441072.838 8  84139484.178 8        51.000  
R01  22728423.958 7 121496456.203 7        44.000    22728422.385 7  94497243.318 7        42.000  
R07  21834027.896 8 116879290.255 8        50.000    21834023.696 7  90906111.652 7        47.000  
R08  20864182.243 8 111726771.641 8        50.000    20864176.399 8  86898589.273 8        49.000  
R09  20083390.317 9 107244286.543 9        55.000    20083386.993 8  83412248.687 8        52.000  
R10  20390437.044 9 108692546.676 9        54.000                                                  
R16  23281595.999 7 124366243.906 7        43.000    23281590.531 5  96729281.656 5        34.000  
R18  22681483.482 7 121075304.203 7        47.000    22681481.641 7  94169713.370 7        45.000  
R19  21173451.090 6 113263690.278 6        40.000    21173447.231 7  88093984.500 7        47.000  
R20  22840777.602 6 122139876.082 6        38.000    22840778.460 7  94997715.616 7        45.000  
C02                                                  38721302.795 7 155914690.132 7        47.000  
C05                                                  37836370.668 8 152351394.586 8        48.000  
C07                                                  38239602.682 8 153975132.525 8        48.000  
C09                                                  40285049.907 7 162211199.757 7        44.000  
C10                                                  37222139.603 8 149878248.619 8        48.000  
> 2021 11 07 16 15  0.0000000  0 23                     
G07  23515833.409 7 123576610.118 7        43.000    23515825.385 7  96293460.934 7        42.000                                                  
G13  20585938.861 8 108179877.024 8        50.000    20585931.142 7  84295982.473 7        47.000                                                  
G14  20476877.388 8 107606800.135 8        49.000    20476870.169 7  83849463.797 7        47.000    20476872.957 9  80355761.253 9        54.000  
G15  21968331.687 8 115444382.529 8        49.000    21968322.913 7  89956641.083 7        47.000                                                  
G17  21023780.279 8 110480738.859 8        49.000    21023772.506 7  86088871.378 7        46.000                                                  
G19  22519700.225 7 118341840.616 7        47.000    22519690.790 7  92214386.350 7        45.000                                                  
G21  24920793.791 6 130959649.846 6        38.000    24920783.534 5 102046448.239 5        35.000                                                  
G28  20471632.705 8 107579239.156 8        48.000    20471623.824 7  83827974.138 7        46.000                                                  
G30  21462186.608 8 112784634.990 8        49.000    21462179.782 7  87884147.144 7        46.000    21462179.889 8  84222312.354 8        52.000  
R01  22700554.125 7 121347476.044 7        45.000    22700552.606 7  94381369.903 7        42.000  
R07  21876671.336 8 117107563.554 8        49.000    21876667.012 7  91083657.486 7        47.000  
R08  20871611.539 8 111766555.127 8        50.000    20871605.714 8  86929531.967 8        50.000  
R09  20096469.602 9 107314129.177 9        55.000    20096466.260 8  83466570.742 8        52.000  
R10  20373971.418 9 108604775.757 9        56.000                                                  
R16  23314362.998 6 124541279.611 6        41.000    23314357.548 5  96865420.534 5        32.000  
R18  22708259.552 7 121218236.438 7        45.000    22708257.640 7  94280882.879 7        46.000  
R19  21162015.845 6 113202519.479 6        40.000    21162012.074 7  88046407.238 7        46.000  
R20  22793214.676 6 121885535.566 6        38.000    22793215.463 7  94799895.268 7        44.000  
C02                                                  38721174.602 7 155914174.105 7        47.000  
C05                                                  37836259.111 8 152350945.593 8        48.000  
C07                                                  38247722.331 8 154007825.613 8        48.000  
C09                                                  40299622.452 7 162269877.069 7        43.000  
C10                                                  37227306.324 8 149899052.292 8        49.000  
> 2021 11 07 16 16  0.0000000  0 23                     
G07  23547690.714 6 123744023.980 6        41.000    23547683.566 6  96423913.244 6        41.000                                                  
G13  20587018.812 8 108185552.124 8        50.000    20587010.931 7  84300404.628 7        47.000                                                  
G14  20488529.671 8 107668032.986 8        49.000    20488522.416 7  83897177.720 7        47.000    20488525.311 9  80401487.081 9        54.000  
G15  21956347.433 8 115381405.618 8        48.000    21956339.696 7  89907568.180 7        46.000                                                  
G17  21005906.378 8 110386811.259 8        48.000    21005898.676 7  86015681.070 7        46.000                                                  
G19  22480270.653 7 118134636.648 7        46.000    22480261.611 7  92052928.788 7        45.000                                                  
G21  24924870.877 6 130981077.188 6        37.000    24924861.335 5 102063144.782 5        35.000                                                  
G28  20473390.677 8 107588477.401 8        48.000    20473381.957 7  83835172.782 7        46.000                                                  
G30  21483537.535 8 112896836.607 8        48.000    21483530.941 7  87971576.976 7        46.000    21483531.710 8  84306099.265 8        52.000  
R01  22673160.556 7 121201042.112 7        45.000    22673159.162 7  94267476.849 7        42.000  
R07  21919575.432 8 117337232.616 8        49.000    21919571.144 7  91262288.937 7        46.000  
R08  20879641.253 8 111809553.576 8        49.000    20879635.552 8  86962975.199 8        51.000  
R09  20109740.371 9 107384994.566 9        55.000    20109736.994 8  83521688.255 8        51.000  
R10  20357685.877 9 108517963.650 9        54.000                                                  
R16  23347167.540 7 124716515.891 7        42.000    23347162.072 5  97001715.353 5        34.000  
R18  22735531.362 7 121363814.541 7        47.000    22735529.146 7  94394110.292 7        45.000  
R19  21151181.445 6 113144563.132 6        39.000    21151178.104 7  88001330.137 7        46.000  
R20  22745782.963 6 121631895.386 6        36.000    22745783.446 7  94602619.654 7        44.000  
C02                                                  38721044.873 7 155913651.792 7        47.000  
C05                                                  37836144.678 8 152350484.622 8        48.000  
C07                                                  38255842.354 8 154040521.837 8        48.000  
C09                                                  40314246.121 7 162328761.212 7        43.000  
C10                                                  37232483.195 8 149919897.201 8        49.000  
> 2021 11 07 16 17  0.0000000  0 24                     
G07  23579704.266 7 123912253.974 7        42.000    23579695.778 6  96555001.526 6        41.000                                                  
G13  20588562.838 8 108193666.666 8        50.000    20588555.119 7  84306727.641 7        47.000                                                  
G14  20500432.102 8 107730581.402 8        49.000    20500424.669 7  83945916.737 7        47.000    20500427.545 9  80448195.310 9        54.000  
G15  21944812.175 8 115320788.312 8        49.000    21944804.616 7  89860333.929 7        46.000                                                  
G17  20988427.042 8 110294955.259 8        49.000    20988418.858 7  85944104.982 7        47.000                                                  
G19  22441045.235 7 117928505.210 7        47.000    22441035.836 7  91892306.939 7        45.000                                                  
G21  24929307.988 6 131004396.085 6        36.000    24929298.624 5 102081315.491 5        35.000                                                  
G24  24814115.510 6 130399057.037 6        37.000    24814110.113 6 101609631.318 6        37.000    24814111.275 7  97375902.892 7        45.000  
G28  20475396.011 8 107599014.580 8        48.000    20475386.933 7  83843383.596 7        46.000                                                  
G30  21505132.875 8 113010321.813 8        49.000    21505126.728 7  88060006.997 7        46.000    21505127.389 8  84390844.695 8        52.000  
R01  22646248.306 7 121057180.702 7        44.000    22646246.930 6  94155584.681 6        41.000  
R07  21962733.786 8 117568262.681 8        50.000    21962729.623 7  91441978.896 7        46.000  
R08  20888269.686 8 111855758.150 8        50.000    20888264.236 8  86998912.057 8        48.000  
R09  20123202.535 9 107456881.962 9        56.000    20123198.908 8  83577600.704 8        51.000  
R10  20341580.616 9 108432113.823 9        54.000                                                  
R16  23380009.535 7 124891952.330 7        42.000    23380004.139 5  97138165.879 5        33.000  
R18  22763294.427 7 121512015.570 7        46.000    22763292.193 7  94509377.711 7        45.000  
R19  21140951.001 6 113089837.711 6        39.000    21140947.820 7  87958765.918 7        46.000  
R20  22698488.931 6 121378993.018 6        37.000    22698489.163 7  94405917.865 7        46.000  
C02                                                  38720913.822 7 155913124.439 7        47.000  
C05                                                  37836027.457 8 152350012.964 8        48.000  
C07                                                  38263962.628 7 154073220.977 7        47.000  
C09                                                  40328921.610 7 162387851.862 7        42.000  
C10                                                  37237670.089 8 149940782.966 8        49.000  
> 2021 11 07 16 18  0.0000000  0 25                     
G01  24009406.289 6 126170277.998 6        38.000    24009400.839 6  98314481.823 6        39.000    24009400.393 7  94218044.149 7        45.000  
G07  23611871.241 7 124081292.717 7        42.000    23611862.771 6  96686719.995 6        41.000                                                  
G13  20590571.191 8 108204219.718 8        50.000    20590563.222 7  84314950.773 7        47.000                                                  
G14  20512582.841 8 107794433.019 8        49.000    20512575.461 7  83995671.244 7        47.000    20512578.088 9  80495876.723 9        54.000  
G15  21933727.109 8 115262536.251 8        48.000    21933719.032 7  89814942.710 7        46.000                                                  
G17  20971343.470 8 110205179.501 8        49.000    20971335.054 7  85874149.859 7        47.000                                                  
G19  22402027.544 7 117723466.991 7        47.000    22402018.092 7  91732536.946 7        45.000                                                  
G21  24934104.730 5 131029604.115 5        35.000    24934095.563 5 102100958.086 5        34.000                                                  
G24  24775331.778 6 130195248.613 6        37.000    24775326.543 6 101450819.603 6        36.000    24775327.865 7  97223708.374 7        42.000  
G28  20477646.364 8 107610839.940 8        48.000    20477637.322 7  83852598.161 7        46.000                                                  
G30  21526972.502 8 113125086.348 8        49.000    21526966.283 7  88149433.885 7        46.000    21526966.087 8  84476545.469 8        51.000  
R01  22619821.415 7 120915913.731 7        45.000    22619819.896 6  94045710.384 6        41.000  
R07  22006139.180 8 117800615.016 8        49.000    22006135.034 8  91622697.333 8        48.000  
R08  20897494.247 8 111905155.215 8        49.000    20897488.726 8  87037332.015 8        49.000  
R09  20136855.470 9 107529787.296 9        55.000    20136851.717 8  83634304.849 8        51.000  
R10  20325655.867 9 108347225.983 9        54.000                                                  
R16  23412888.413 6 125067586.025 6        40.000    23412883.123 5  97274769.830 5        30.000  
R18  22791543.494 7 121662811.163 7        47.000    22791541.332 7  94626663.190 7        45.000  
R19  21131326.763 6 113038354.543 6        39.000    21131323.582 7  87918723.468 7        46.000  
R20  22651339.780 6 121126864.973 6        38.000    22651339.977 7  94209818.344 7        45.000  
C02                                                  38720781.270 7 155912590.481 7        47.000  
C05                                                  37835907.306 8 152349528.890 8        48.000  
C07                                                  38272083.581 8 154105919.798 8        48.000  
C09                                                  40343647.526 6 162447145.942 6        41.000  
C10                                                  37242866.884 8 149961705.863 8        49.000  
> 2021 11 07 16 19  0.0000000  0 25                     
G01  23990943.997 6 126073257.864 6        39.000    23990939.190 6  98238881.746 6        39.000    23990937.850 7  94145594.091 7        47.000  
G07  23644191.568 7 124251137.894 7        42.000    23644183.366 7  96819066.881 7        42.000                                                  
G13  20593043.978 8 108217214.256 8        50.000    20593035.830 7  84325076.369 7        47.000                                                  
G14  20524980.030 8 107859579.828 8        50.000    20524972.578 7  84046434.986 7        47.000    20524975.277 9  80544525.314 9        54.000  
G15  21923093.896 8 115206659.461 8        49.000    21923085.301 7  89771402.345 7        46.000                                                  
G17  20954657.591 8 110117496.498 8        49.000    20954649.604 7  85805825.473 7        46.000                                                  
G19  22363222.745 7 117519545.988 7        46.000    22363212.774 7  91573637.486 7        45.000                                                  
G21  24939261.694 5 131056704.817 5        34.000    24939252.242 5 102122075.542 5        34.000                                                  
G24  24736555.498 6 129991481.195 6        36.000    24736550.405 5 101292039.923 5        35.000    24736551.692 7  97071544.535 7        43.000  
G28  20480140.451 8 107623946.284 8        48.000    20480131.373 7  83862810.905 7        46.000                                                  
G30  21549055.005 8 113241130.229 8        48.000    21549048.679 7  88239857.660 7        46.000    21549048.482 8  84563201.605 8        51.000  
R01  22593884.778 7 120777267.592 7        46.000    22593883.045 6  93937874.500 6        41.000  
R07  22049785.144 8 118034255.106 8        50.000    22049781.052 7  91804417.345 7        47.000  
R08  20907313.132 8 111957734.643 8        49.000    20907307.396 8  87078227.081 8        49.000  
R09  20150698.888 9 107603710.430 9        56.000    20150695.225 8  83691800.644 8        52.000  
R10  20309912.329 9 108263304.496 9        54.000                                                  
R16  23445804.565 6 125243417.867 6        36.000                                                  
R18  22820274.149 8 121816177.678 8        48.000    22820272.058 7  94745948.272 7        44.000  
R19  21122311.608 6 112990129.680 6        40.000    21122308.338 7  87881215.279 7        44.000  
R20  22604342.409 6 120875549.364 6        38.000    22604342.266 7  94014350.704 7        46.000  
C02                                                  38720647.359 7 155912051.443 7        47.000  
C05                                                  37835784.421 8 152349034.084 8        48.000  
C07                                                  38280204.944 8 154138618.428 8        48.000  
C09                                                  40358423.617 6 162506643.522 6        39.000  
C10                                                  37248072.273 8 149982666.351 8        48.000  
> 2021 11 07 16 20  0.0000000  0 25                     
G01  23972841.122 6 125978127.659 6        39.000    23972836.351 6  98164754.332 6        39.000    23972835.315 7  94074555.334 7        47.000  
G07  23676664.318 6 124421784.083 6        41.000    23676656.152 6  96952037.922 6        41.000                                                  
G13  20595981.306 8 108232650.523 8        50.000    20595973.068 7  84337104.609 7        47.000                                                  
G14  20537621.667 8 107926011.541 8        50.000    20537613.786 7  84098199.953 7        47.000    20537616.931 9  80594133.414 9        54.000  
G15  21912914.647 8 115153165.173 8        49.000    21912905.855 7  89729718.489 7        46.000                                                  
G17  20938372.157 8 110031916.124 8        49.000    20938363.883 7  85739139.483 7        46.000                                                  
G19  22324634.751 7 117316765.540 7        46.000    22324624.887 7  91415626.806 7        44.000                                                  
G21  24944778.737 6 131085696.660 6        38.000    24944769.035 5 102144666.625 5        35.000                                                  
G24  24697789.814 6 129787764.799 6        38.000    24697784.203 5 101133299.929 5        35.000    24697785.347 7  96919418.703 7        43.000  
G28  20482876.609 8 107638325.135 8        48.000    20482867.567 7  83874015.223 7        46.000                                                  
G30  21571379.919 8 113358451.061 8        49.000    21571374.022 7  88331276.475 7        46.000    21571373.379 8  84650811.313 8        50.000  
R01  22568442.828 7 120641265.698 7        46.000    22568441.130 7  93832095.245 7        43.000  
R07  22093664.728 8 118269145.685 8        48.000    22093660.779 8  91987109.954 8        48.000  
R08  20917723.875 8 112013482.969 8        49.000    20917717.925 8  87121586.872 8        50.000  
R09  20164732.557 9 107678649.144 9        55.000    20164728.787 8  83750086.309 8        52.000  
R10  20294350.286 9 108180350.599 9        54.000                                                  
R16  23478757.402 5 125419445.820 5        30.000                                                  
R18  22849481.514 7 121972088.566 7        47.000    22849479.369 7  94867212.293 7        44.000  
R19  21113907.789 6 112945175.179 6        39.000    21113904.090 7  87846250.711 7        46.000  
R20  22557503.876 6 120625083.645 6        38.000    22557503.858 7  93819544.062 7        44.000  
C02                                                  38720512.126 7 155911507.124 7        47.000  
C05                                                  37835658.801 8 152348528.421 8        48.000  
C07                                                  38288324.503 7 154171315.421 7        47.000  
C09                                                  40373249.867 6 162566342.968 6        37.000  
C10                                                  37253286.097 8 150003662.486 8        48.000  
> 2021 11 07 16 21  0.0000000  0 23                     
G01  23955101.471 6 125884905.700 6        37.000    23955096.664 6  98092113.915 6        38.000    23955096.075 7  94004941.590 7        46.000  
G07  23709288.437 7 124593223.792 7        43.000    23709280.753 7  97085627.257 7        42.000                                                  
G13  20599383.175 8 108250526.901 8        51.000    20599374.866 8  84351034.252 8        48.000                                                  
G14  20550505.125 8 107993715.593 8        49.000    20550497.531 7  84150956.364 7        46.000    20550500.372 9  80644691.632 9        54.000  
G15  21903189.306 8 115102057.819 8        49.000    21903180.854 7  89689894.572 7        46.000                                                  
G17  20922488.203 8 109948445.589 8        49.000    20922480.002 7  85674097.526 7        47.000                                                  
G19  22286267.564 7 117115145.381 7        46.000    22286257.772 7  91258520.217 7        44.000                                                  
G21  24950655.162 6 131116578.337 6        36.000    24950645.960 6 102168730.240 6        36.000                                                  
G24  24659035.209 6 129584106.986 6        36.000    24659029.080 6 100974605.586 6        36.000    24659030.099 7  96767336.671 7        44.000  
G28  20485852.605 8 107653964.671 8        48.000    20485843.725 7  83886201.883 7        46.000                                                  
G30  21593947.619 8 113477044.156 8        48.000    21593941.436 7  88423686.651 7        46.000    21593940.793 8  84739371.061 8        50.000  
R01  22543499.494 7 120507929.005 7        46.000    22543497.725 6  93728388.924 6        41.000  
R07  22137770.623 8 118505248.251 8        49.000    22137766.745 7  92170745.191 7        47.000  
R08  20928723.385 8 112072385.018 8        49.000    20928717.524 8  87167399.582 8        50.000  
R09  20178955.710 9 107754599.284 9        55.000    20178951.636 8  83809158.631 8        52.000  
R10  20278970.025 9 108098365.244 9        55.000                                                  
R18  22879160.031 7 122130514.787 7        47.000    22879157.922 7  94990432.699 7        45.000  
R19  21106117.288 6 112903500.927 6        39.000    21106113.500 7  87813837.413 7        46.000  
R20  22510830.846 6 120375502.515 6        38.000    22510830.882 7  93625425.400 7        44.000  
C02                                                  38720375.267 7 155910955.886 7        47.000  
C05                                                  37835529.984 8 152348010.105 8        49.000  
C07                                                  38296442.937 7 154204007.472 7        47.000  
C10                                                  37258508.479 8 150024690.851 8        49.000  
> 2021 11 07 16 22  0.0000000  0 23                     
G01  23937729.153 6 125793614.326 6        38.000    23937724.096 6  98020977.793 6        39.000    23937723.793 7  93936769.498 7        44.000  
G07  23742062.762 6 124765453.005 6        41.000    23742054.096 6  97219831.834 6        41.000                                                  
G13  20603249.495 8 108270842.854 8        50.000    20603240.811 7  84366864.859 7        47.000                                                  
G14  20563628.940 8 108062683.632 8        49.000    20563622.399 7  84204697.695 7        46.000    20563624.901 9  80696193.732 9        54.000  
G15  21893919.786 8 115053345.964 8        50.000    21893911.995 7  89651937.298 7        47.000                                                  
G17  20907008.197 8 109867096.111 8        49.000    20906998.834 7  85610708.337 7        46.000                                                  
G19  22248125.974 8 116914710.165 8        48.000    22248116.468 7  91102336.991 7        46.000                                                  
G21  24956891.076 5 131149351.378 5        34.000    24956882.910 5 102194267.740 5        34.000                                                  
G24  24620293.702 6 129380520.078 6        40.000    24620288.127 6 100815966.559 6        37.000    24620289.038 7  96615307.590 7        44.000  
G28  20489067.421 8 107670857.944 8        48.000    20489058.469 7  83899365.477 7        46.000                                                  
G30  21616756.641 8 113596908.788 8        48.000    21616750.440 7  88517087.652 7        45.000    21616750.404 8  84828880.345 8        50.000  
R01  22519059.066 7 120377281.262 7        46.000    22519057.226 6  93626774.073 6        41.000  
R07  22182096.557 8 118742527.977 8        50.000    22182092.590 7  92355295.991 7        47.000  
R08  20940309.391 8 112134427.533 8        49.000    20940303.530 8  87215654.845 8        49.000  
R09  20193368.149 9 107831560.980 9        56.000    20193364.093 8  83869017.711 8        52.000  
R10  20263771.974 9 108017352.052 9        55.000                                                  
R18  22909305.216 8 122291431.270 8        48.000    22909302.946 7  95115589.996 7        44.000  
R19  21098942.321 6 112865119.753 6        40.000    21098938.587 7  87783985.410 7        46.000  
R20  22464330.734 6 120126845.574 6        38.000    22464330.734 7  93432025.602 7        44.000  
C02                                                  38720236.908 7 155910399.107 7        47.000  
C05                                                  37835398.593 8 152347480.603 8        48.000  
C07                                                  38304561.084 8 154236694.532 8        48.000  
C10                                                  37263739.296 8 150045751.202 8        49.000  
> 2021 11 07 16 23  0.0000000  0 23                     
G01  23920728.261 6 125704271.417 6        39.000    23920722.507 6  97951359.940 6        40.000    23920721.900 7  93870052.410 7        46.000  
G07  23774985.597 7 124938464.826 7        42.000    23774978.038 6  97354646.248 6        41.000                                                  
G13  20607579.303 8 108293596.875 8        50.000    20607570.708 7  84384595.261 7        47.000                                                  
G14  20576991.198 8 108132903.143 8        48.000    20576984.015 7  84259414.197 7        46.000    20576987.214 9  80748630.396 9        54.000  
G15  21885107.302 8 115007033.577 8        50.000    21885098.832 7  89615849.720 7        47.000                                                  
G17  20891932.514 8 109787874.387 8        49.000    20891924.026 7  85548977.156 7        47.000                                                  
G19  22210213.876 7 116715479.680 7        47.000    22210204.655 7  90947092.519 7        45.000                                                  
G21  24963486.711 5 131184012.129 5        35.000    24963478.527 5 102221276.095 5        34.000                                                  
G24  24581567.902 6 129177011.943 6        37.000    24581561.862 6 100657388.811 6        36.000    24581562.505 7  96463337.364 7        43.000  
G28  20492518.698 8 107688993.563 8        49.000    20492509.478 7  83913497.151 7        46.000                                                  
G30  21639807.162 8 113718040.093 8        48.000    21639801.015 7  88611475.675 7        46.000    21639800.729 8  84919335.533 8        51.000  
R01  22495125.529 7 120249342.620 7        45.000    22495123.582 7  93527266.212 7        42.000  
R07  22226635.204 8 118980945.470 8        48.000    22226631.040 7  92540731.742 7        47.000  
R08  20952478.767 8 112199594.114 8        50.000    20952473.049 8  87266339.948 8        48.000  
R09  20207969.178 9 107909529.552 9        55.000    20207965.104 8  83929659.920 8        52.000  
R10  20248756.581 9 107937311.013 9        54.000                                                  
R18  22939911.082 7 122454807.890 7        44.000    22939908.884 6  95242660.645 6        41.000  
R19  21092384.694 6 112830039.717 6        39.000    21092380.459 7  87756700.958 7        46.000  
R20  22418009.581 6 119879147.589 6        38.000    22418009.652 7  93239371.674 7        45.000  
C02                                                  38720096.832 7 155909834.963 7        47.000  
C05                                                  37835263.771 8 152346938.042 8        48.000  
C07                                                  38312677.140 8 154269373.442 8        48.000  
C10                                                  37268976.671 8 150066840.089 8        48.000  
> 2021 11 07 16 24  0.0000000  0 23                     
G01  23904102.011 6 125616901.962 6        39.000    23904097.418 6  97883279.921 6        40.000    23904096.364 7  93804809.076 7        47.000  
G07  23808057.424 6 125112258.646 6        41.000    23808049.651 6  97490069.987 6        41.000                                                  
G13  20612374.026 8 108318792.712 8        50.000    20612365.413 7  84404228.374 7        47.000                                                  
G14  20590590.722 8 108204369.172 8        49.000    20590582.842 7  84315102.019 7        46.000    20590586.862 9  80801997.881 9        54.000  
G15  21876753.230 8 114963131.529 8        50.000    21876744.063 7  89581640.320 7        47.000                                                  
G17  20877264.905 8 109710794.658 8        49.000    20877256.846 7  85488915.052 7        46.000                                                  
G19  22172535.986 7 116517481.855 7        47.000    22172526.820 7  90792808.534 7        45.000                                                  
G21  24970442.586 5 131220564.667 5        35.000    24970434.044 5 102249758.607 5        34.000                                                  
G24  24542859.238 6 128973598.405 6        39.000    24542854.288 6 100498884.895 6        38.000    24542854.181 7  96311437.767 7        43.000  
G28  20496205.346 8 107708367.463 8        48.000    20496196.197 7  83928593.693 7        46.000                                                  
G30  21663099.666 8 113840440.614 8        48.000    21663093.322 7  88706852.681 7        46.000    21663093.322 8  85010738.491 8        51.000  
R01  22471703.886 7 120124140.583 7        45.000    22471701.992 6  93429886.887 6        41.000  
R07  22271380.417 8 119220469.969 8        49.000    22271376.271 7  92727028.503 7        46.000  
R08  20965229.584 8 112267874.265 8        49.000    20965223.920 8  87319446.711 8        49.000  
R09  20222759.314 9 107988508.802 9        55.000    20222755.330 8  83991088.210 8        52.000  
R10  20233924.881 9 107858249.679 9        55.000                                                  
R18  22970973.608 7 122620622.328 7        47.000    22970971.375 7  95371627.471 7        42.000  
R19  21086446.692 6 112798276.008 6        39.000    21086442.600 7  87731995.853 7        45.000  
R20  22371876.213 6 119632452.007 6        38.000    22371876.445 7  93047497.355 7        46.000  
C02                                                  38719955.881 7 155909267.583 7        47.000  
C05                                                  37835126.894 8 152346386.527 8        48.000  
C07                                                  38320791.696 8 154302046.809 8        48.000  
C10                                                  37274221.444 8 150087960.196 8        49.000  
> 2021 11 07 16 25  0.0000000  0 23                     
G01  23887855.084 6 125531522.798 6        40.000    23887850.170 6  97816750.713 6        40.000    23887848.884 7  93741051.923 7        45.000  
G07  23841275.973 6 125286826.022 6        40.000    23841268.969 6  97626096.479 6        40.000                                                  
G13  20617632.504 8 108346425.562 8        51.000    20617624.052 8  84425760.449 8        48.000                                                  
G14  20604425.259 8 108277068.644 8        49.000    20604417.254 7  84371750.942 7        46.000    20604421.560 9  80856286.434 9        54.000  
G15  21868857.748 8 114921642.211 8        50.000    21868848.796 7  89549310.975 7        47.000                                                  
G17  20863005.603 8 109635862.068 8        49.000    20862997.616 7  85430526.035 7        47.000                                                  
G19  22135096.595 8 116320736.018 8        48.000    22135086.749 7  90639500.114 7        45.000                                                  
G21  24977757.985 6 131259004.981 6        37.000    24977748.943 5 102279712.115 5        34.000                                                  
G24  24504170.016 6 128770287.306 6        39.000    24504165.709 6 100340460.767 6        38.000    24504165.084 7  96159614.619 7        45.000  
G28  20500125.219 8 107728967.450 8        49.000    20500116.035 7  83944645.616 7        46.000                                                  
G30  21686632.222 8 113964104.618 8        48.000    21686625.664 7  88803214.211 7        46.000    21686626.004 8  85103084.959 8        51.000  
R01  22448797.639 7 120001693.431 7        46.000    22448795.709 6  93334650.223 6        41.000  
R07  22316324.976 8 119461061.528 8        48.000    22316320.867 7  92914155.201 7        46.000  
R08  20978558.338 8 112339249.056 8        50.000    20978552.638 8  87374960.382 8        49.000  
R09  20237738.166 9 108068494.326 9        55.000    20237734.235 8  84053299.187 8        51.000  
R10  20219277.017 9 107780168.240 9        55.000                                                  
R18  23002487.078 7 122788843.308 7        46.000    23002484.826 7  95502466.046 7        44.000  
R19  21081129.890 6 112769834.717 6        40.000    21081125.780 7  87709874.909 7        46.000  
R20  22325936.599 6 119386792.607 6        39.000    22325937.045 7  92856428.993 7        47.000  
C02                                                  38719813.608 7 155908694.650 7        47.000  
C05                                                  37834987.051 8 152345823.851 8        48.000  
C07                                                  38328903.607 8 154334711.059 8        48.000  
C10                                                  37279473.811 8 150109107.584 8        49.000  
> 2021 11 07 16 26  0.0000000  0 23                     
G01  23871990.697 6 125448153.915 6        38.000    23871985.658 6  97751787.998 6        38.000    23871984.318 8  93678795.948 8        48.000  
G07  23874641.924 6 125462161.789 6        41.000    23874633.258 6  97762721.727 6        41.000                                                  
G13  20623354.362 8 108376494.415 8        50.000    20623346.249 7  84449190.719 7        47.000                                                  
G14  20618492.576 8 108350992.259 8        49.000    20618485.000 7  84429353.764 7        47.000    20618488.823 9  80911489.134 9        54.000  
G15  21861422.662 8 114882571.371 8        49.000    21861414.085 7  89518866.183 7        46.000                                                  
G17  20849156.646 8 109563085.335 8        49.000    20849148.533 7  85373816.926 7        47.000                                                  
G19  22097899.901 7 116125264.638 7        47.000    22097889.680 7  90487184.788 7        45.000                                                  
G21  24985432.391 6 131299332.167 6        38.000    24985422.491 5 102311135.944 5        35.000                                                  
G24  24465502.576 6 128567090.222 6        37.000    24465497.662 6 100182125.448 6        37.000    24465498.680 7  96007876.628 7        45.000  
G28  20504277.462 8 107750785.916 8        49.000    20504267.902 7  83961647.041 7        46.000                                                  
G30  21710404.706 7 114089030.053 7        47.000    21710398.576 7  88900558.701 7        45.000    21710398.469 8  85196373.425 8        51.000  
R01  22426410.827 7 119882022.961 7        45.000    22426408.826 7  93241573.204 7        42.000  
R07  22361462.236 8 119702684.682 8        49.000    22361458.108 7  93102084.262 7        47.000  
R08  20992461.904 8 112413702.124 8        50.000    20992456.293 8  87432868.302 8        50.000  
R09  20252905.232 9 108149485.916 9        55.000    20252901.265 8  84116292.620 8        51.000  
R10  20204813.723 9 107703070.048 9        55.000                                                  
R18  23034446.147 7 122959443.019 7        47.000    23034443.949 7  95635154.708 7        45.000  
R19  21076435.876 6 112744725.521 6        41.000    21076431.927 7  87690345.544 7        46.000  
R20  22280197.958 6 119142208.078 6        39.000    22280198.726 7  92666196.696 7        47.000  
C02                                                  38719670.263 7 155908116.882 7        47.000  
C05                                                  37834844.689 8 152345250.659 8        48.000  
C07                                                  38337013.410 8 154367365.457 8        49.000  
C10                                                  37284732.504 8 150130281.407 8        49.000  
> 2021 11 07 16 27  0.0000000  0 23                     
G01  23856511.942 6 125366813.279 6        38.000    23856506.957 6  97688405.755 6        39.000    23856506.492 8  93618054.625 8        49.000  
G07  23908152.293 7 125638259.186 7        42.000    23908143.787 7  97899940.476 7        42.000                                                  
G13  20629539.135 8 108408996.093 8        50.000    20629530.647 7  84474516.679 7        47.000                                                  
G14  20632790.439 8 108426128.773 8        49.000    20632783.595 7  84487901.697 7        46.000    20632785.954 9  80967597.571 9        54.000  
G15  21854448.436 8 114845923.418 8        49.000    21854440.771 7  89490309.322 7        46.000                                                  
G17  20835718.962 8 109492471.003 8        49.000    20835711.046 7  85318792.790 7        47.000                                                  
G19  22060949.352 7 115931089.369 7        47.000    22060939.435 7  90335879.420 7        45.000                                                  
G21  24993465.071 6 131341542.975 6        38.000    24993454.671 5 102344027.529 5        35.000                                                  
G24  24426858.866 6 128364016.919 6        37.000    24426853.791 5 100023886.668 5        35.000    24426854.756 7  95856231.122 7        43.000  
G28  20508659.215 8 107773812.368 8        49.000    20508649.833 7  83979589.732 7        46.000                                                  
G30  21734416.205 7 114215212.785 7        47.000    21734410.523 7  88998882.880 7        45.000    21734410.630 8  85290600.769 8        51.000  
R01  22404546.862 7 119765148.073 7        45.000    22404544.879 6  93150670.556 6        41.000  
R07  22406785.368 8 119945301.851 8        48.000    22406781.223 7  93290786.438 7        45.000  
R08  21006936.992 8 112491215.449 8        50.000    21006931.488 8  87493156.418 8        49.000  
R09  20268260.173 9 108231480.002 9        55.000    20268256.170 8  84180065.830 8        50.000  
R10  20190535.069 9 107626956.762 9        54.000                                                  
R18  23066845.384 7 123132392.313 7        46.000    23066843.275 7  95769670.844 7        45.000  
R19  21072365.938 6 112722954.151 6        40.000    21072362.096 7  87673412.294 7        44.000  
R20  22234667.401 6 118898735.235 6        38.000    22234668.009 7  92476828.943 7        46.000  
C02                                                  38719525.238 7 155907533.545 7        47.000  
C05                                                  37834699.467 8 152344666.159 8        48.000  
C07                                                  38345120.156 8 154400007.853 8        48.000  
C10                                                  37289996.736 8 150151479.362 8        49.000  
> 2021 11 07 16 28  0.0000000  0 23                     
G01  23841422.339 6 125287519.218 6        40.000    23841417.746 6  97626618.225 6        40.000    23841417.299 8  93558841.642 8        48.000  
G07  23941806.096 6 125815112.485 6        41.000    23941797.983 6  98037748.216 6        41.000                                                  
G13  20636186.304 8 108443927.051 8        50.000    20636177.762 7  84501735.603 7        47.000                                                  
G14  20647317.240 8 108502467.818 8        48.000    20647310.253 7  84547386.680 7        46.000    20647312.880 9  81024604.016 9        54.000  
G15  21847936.053 8 114811701.742 8        48.000    21847927.690 7  89463643.084 7        46.000                                                  
G17  20822694.624 8 109424026.053 8        49.000    20822686.226 7  85265459.092 7        47.000                                                  
G19  22024249.470 7 115738231.788 7        47.000    22024239.839 7  90185600.838 7        45.000                                                  
G21  25001855.292 6 131385634.976 6        39.000    25001845.267 6 102378384.886 6        36.000                                                  
G24  24388240.566 6 128161078.418 6        37.000    24388236.045 6  99865752.852 6        38.000    24388236.545 7  95704686.197 7        45.000  
G28  20513269.190 8 107798037.564 8        49.000    20513259.970 7  83998466.523 7        47.000                                                  
G30  21758666.560 7 114342649.430 7        47.000    21758660.735 7  89098184.155 7        45.000    21758660.949 8  85385764.483 8        51.000  
R01  22383209.641 7 119651088.712 7        45.000    22383207.693 7  93061957.733 7        42.000  
R07  22452287.352 8 120188876.520 8        48.000    22452283.010 7  93480233.303 7        46.000  
R08  21021980.064 8 112571770.133 8        50.000    21021974.543 8  87555810.062 8        50.000  
R09  20283802.542 9 108314475.716 9        55.000    20283798.575 8  84244618.008 8        51.000  
R10  20176441.520 9 107551830.563 9        54.000                                                  
R18  23099679.177 7 123307661.628 7        47.000    23099677.194 7  95905991.416 7        45.000  
R19  21068921.166 6 112704527.207 6        39.000    21068917.217 7  87659080.254 7        46.000  
R20  22189351.559 6 118656411.838 6        38.000    22189352.345 7  92288355.250 7        45.000  
C02                                                  38719379.052 7 155906944.371 7        47.000  
C05                                                  37834551.512 8 152344070.204 8        48.000  
C07                                                  38353223.419 8 154432636.787 8        49.000  
C10                                                  37295266.739 8 150172699.702 8        49.000  
> 2021 11 07 16 29  0.0000000  0 23                     
G01  23826726.711 6 125210289.829 6        39.000    23826720.993 6  97566439.490 6        39.000    23826720.385 7  93501170.384 7        47.000  
G07  23975602.583 6 125992714.480 6        38.000    23975594.453 6  98176139.347 6        39.000                                                  
G13  20643295.227 8 108481283.814 8        51.000    20643286.757 8  84530844.742 8        48.000                                                  
G14  20662070.960 8 108579998.835 8        48.000    20662063.472 7  84607800.453 7        46.000    20662066.885 9  81082500.558 9        54.000  
G15  21841886.352 8 114779909.573 8        49.000    21841877.632 7  89438869.938 7        46.000                                                  
G17  20810083.901 8 109357757.199 8        49.000    20810076.110 7  85213821.026 7        47.000                                                  
G19  21987804.294 7 115546713.427 7        47.000    21987795.091 7  90036365.781 7        45.000                                                  
G21  25010603.572 6 131431605.540 6        39.000    25010593.548 6 102414206.060 6        36.000                                                  
G24  24349650.570 6 127958285.422 6        39.000    24349645.603 6  99707732.375 6        37.000    24349646.728 7  95553249.939 7        45.000  
G28  20518105.388 8 107823451.313 8        49.000    20518095.953 7  84018269.436 7        46.000                                                  
G30  21783155.145 8 114471336.364 8        48.000    21783148.873 7  89198459.654 7        46.000    21783149.230 8  85481861.851 8        50.000  
R01  22362402.361 7 119539863.687 7        45.000    22362400.574 7  92975449.415 7        42.000  
R07  22497961.147 7 120433371.299 7        47.000    22497956.680 7  93670395.839 7        45.000  
R08  21037587.530 8 112655347.135 8        50.000    21037581.991 8  87620814.357 8        49.000  
R09  20299532.160 9 108398470.941 9        54.000    20299528.139 8  84309947.623 8        51.000  
R10  20162533.595 9 107477694.481 9        55.000                                                  
R18  23132942.239 7 123485221.211 7        46.000    23132940.541 7  96044093.355 7        43.000  
R19  21066102.702 6 112689450.575 6        40.000    21066098.825 7  87647353.971 7        46.000  
R20  22144257.739 6 118415274.728 6        39.000    22144258.526 7  92100804.197 7        46.000  
C02                                                  38719231.275 8 155906349.254 8        48.000  
C05                                                  37834400.643 8 152343462.515 8        49.000  
C07                                                  38361322.732 8 154465250.517 8        48.000  
C10                                                  37300542.175 8 150193940.727 8        49.000  
> 2021 11 07 16 30  0.0000000  0 23                     
G01  23812426.686 6 125135143.878 6        37.000    23812421.218 6  97507884.279 6        38.000    23812420.575 8  93445054.921 8        48.000  
G07  24009540.915 5 126171061.035 5        35.000    24009533.052 6  98315110.691 6        37.000                                                  
G13  20650865.206 8 108521063.661 8        51.000    20650856.271 8  84561842.025 8        48.000                                                  
G14  20677049.311 8 108658712.571 8        48.000    20677042.163 7  84669135.836 7        46.000    20677045.951 8  81141280.302 8        53.000  
G15  21836299.781 8 114750551.420 8        49.000    21836291.651 7  89415993.469 7        46.000                                                  
G17  20797888.775 8 109293671.261 8        49.000    20797880.913 7  85163883.968 7        46.000                                                  
G19  21951618.932 8 115356556.891 8        48.000    21951609.283 7  89888191.896 7        45.000                                                  
G21  25019708.572 6 131479451.610 6        40.000    25019698.440 6 102451488.700 6        36.000                                                  
G24  24311090.094 6 127755650.094 6        38.000    24311084.501 6  99549834.755 6        36.000    24311086.628 7  95401931.491 7        46.000  
G28  20523165.859 8 107850045.796 8        48.000    20523156.621 7  84038992.426 7        46.000                                                  
G30  21807880.815 8 114601270.973 8        48.000    21807874.776 7  89299707.403 7        46.000    21807874.436 8  85578890.940 8        50.000  
R01  22342129.329 7 119431493.026 7        46.000    22342127.578 7  92891161.135 7        42.000  
R07  22543800.569 8 120678751.475 8        49.000    22543795.655 7  93861247.038 7        46.000  
R08  21053756.280 8 112741928.946 8        50.000    21053750.633 8  87688155.719 8        49.000  
R09  20315448.956 9 108483465.609 9        54.000    20315444.793 8  84376054.590 8        51.000  
R10  20148812.437 9 107404552.418 9        55.000                                                  
R18  23166628.867 7 123665042.411 7        46.000    23166627.080 7  96183954.289 7        43.000  
R19  21063911.674 6 112677730.446 6        40.000    21063907.958 7  87638238.369 7        45.000  
R20  22099393.126 6 118175362.781 6        40.000    22099393.787 7  91914206.091 7        46.000  
C02                                                  38719082.051 8 155905748.779 8        48.000  
C05                                                  37834246.934 8 152342843.767 8        48.000  
C07                                                  38369418.722 8 154497848.642 8        49.000  
C10                                                  37305822.632 8 150215201.415 8        50.000  
> 2021 11 07 16 31  0.0000000  0 23                     
G01  23798526.587 6 125062099.826 6        40.000    23798521.388 6  97450966.842 6        40.000    23798521.066 8  93390509.062 8        48.000  
G07  24043619.893 5 126350146.026 5        31.000    24043611.566 5  98454657.467 5        34.000                                                  
G13  20658895.509 8 108563263.312 8        50.000    20658886.575 7  84594724.868 7        47.000                                                  
G14  20692251.257 8 108738599.616 8        48.000    20692244.234 7  84731385.473 7        46.000    20692247.880 8  81200936.203 8        53.000  
G15  21831176.607 8 114723631.122 8        49.000    21831168.816 7  89395016.608 7        46.000                                                  
G17  20786110.355 8 109231776.020 8        49.000    20786102.707 7  85115653.931 7        47.000                                                  
G19  21915697.354 8 115167784.528 8        48.000    21915686.918 7  89741096.546 7        46.000                                                  
G21  25029169.987 6 131529171.220 6        39.000    25029160.106 6 102490231.324 6        36.000                                                  
G24  24272562.926 6 127553184.665 6        39.000    24272556.994 6  99392069.554 6        37.000    24272558.280 7  95250739.851 7        44.000  
G28  20528449.604 8 107877812.216 8        49.000    20528440.348 7  84060628.606 7        46.000                                                  
G30  21832843.948 8 114732450.504 8        48.000    21832836.889 7  89401925.199 7        46.000    21832837.211 8  85676849.656 8        51.000  
R01  22322393.958 7 119325995.758 7        46.000    22322392.153 7  92809107.716 7        43.000  
R07  22589798.329 8 120924981.041 8        48.000    22589793.362 7  94052758.857 7        45.000  
R08  21070482.293 8 112831495.783 8        50.000    21070476.682 8  87757818.807 8        48.000  
R09  20331552.574 9 108569458.372 9        54.000    20331548.303 8  84442937.859 8        51.000  
R10  20135278.278 9 107332407.712 9        55.000                                                  
R18  23200733.666 7 123847096.301 7        46.000    23200731.701 7  96325551.754 7        44.000  
R19  21062349.046 6 112669371.834 6        40.000    21062345.419 7  87631737.246 7        46.000  
R20  22054764.794 6 117936715.099 6        38.000    22054765.330 7  91728591.259 7        46.000  
C02                                                  38718931.826 7 155905143.474 7        47.000  
C05                                                  37834090.634 8 152342214.523 8        48.000  
C07                                                  38377510.602 8 154530430.309 8        48.000  
C10                                                  37311107.396 8 150236481.024 8        49.000  
> 2021 11 07 16 32  0.0000000  0 22                     
G01  23785030.239 6 124991174.982 6        40.000    23785024.575 6  97395700.724 6        40.000    23785024.325 7  93337545.777 7        46.000  
G13  20667385.243 8 108607878.487 8        50.000    20667376.773 7  84629489.925 7        47.000                                                  
G14  20707675.297 8 108819649.882 8        49.000    20707667.381 7  84794541.543 7        46.000    20707670.669 8  81261460.764 8        53.000  
G15  21826518.296 8 114699150.955 8        49.000    21826510.666 7  89375941.177 7        46.000                                                  
G17  20774749.856 8 109172076.953 8        49.000    20774741.636 7  85069135.202 7        46.000                                                  
G19  21880042.577 7 114980418.415 7        47.000    21880033.446 7  89595097.032 7        45.000                                                  
G21  25038987.032 6 131580760.789 6        39.000    25038977.329 6 102530430.943 6        36.000                                                  
G24  24234069.709 6 127350900.755 6        39.000    24234063.866 6  99234445.774 6        38.000    24234063.884 7  95099683.732 7        42.000  
G28  20533954.943 8 107906741.644 8        49.000    20533945.258 7  84083171.026 7        46.000                                                  
G30  21858042.880 8 114864871.307 8        48.000    21858036.125 7  89505110.243 7        45.000    21858035.839 8  85775735.330 8        51.000  
R01  22303199.429 7 119223389.629 7        46.000    22303197.606 7  92729302.956 7        42.000  
R07  22635947.940 8 121172023.688 8        48.000    22635942.990 7  94244903.020 7        46.000  
R08  21087761.960 8 112924027.480 8        50.000    21087756.224 8  87829787.893 8        49.000  
R09  20347843.083 9 108656449.042 9        55.000    20347838.919 8  84510597.241 8        51.000  
R10  20121931.726 9 107261263.553 9        54.000                                                  
R18  23235251.169 7 124031352.891 7        45.000    23235248.756 7  96468862.456 7        44.000  
R19  21061415.765 6 112664379.519 6        40.000    21061412.138 7  87627854.335 7        46.000  
R20  22010379.785 6 117699368.589 6        40.000    22010380.250 7  91543988.446 7        47.000  
C02                                                  38718780.350 7 155904533.355 7        47.000  
C05                                                  37833931.742 8 152341574.834 8        48.000  
C07                                                  38385597.943 8 154562994.184 8        49.000  
C10                                                  37316396.144 8 150257778.014 8        49.000  
> 2021 11 07 16 33  0.0000000  0 22                     
G01  23771939.608 6 124922384.026 6        39.000    23771934.050 6  97342097.406 6        39.000    23771933.407 7  93286175.913 7        46.000  
G13  20676333.495 8 108654901.799 8        50.000    20676325.026 7  84666131.456 7        47.000                                                  
G14  20723317.500 8 108901850.969 8        48.000    20723309.441 7  84858594.326 7        46.000    20723312.586 8  81322844.684 8        53.000  
G15  21822324.329 8 114677111.590 8        49.000    21822316.877 7  89358767.638 7        47.000                                                  
G17  20763808.063 8 109114577.123 8        49.000    20763799.754 7  85024330.156 7        46.000                                                  
G19  21844658.981 8 114794477.604 8        48.000    21844649.993 7  89450208.107 7        45.000                                                  
G21  25049158.920 6 131634213.759 6        39.000    25049148.037 5 102572082.631 5        35.000                                                  
G24  24195611.980 6 127148807.749 6        40.000    24195606.995 6  99076970.855 6        39.000    24195606.923 7  94948770.226 7        45.000  
G28  20539678.963 8 107936822.249 8        48.000    20539669.653 7  84106610.482 7        46.000                                                  
G30  21883476.110 7 114998527.395 7        47.000    21883470.303 7  89609257.816 7        45.000    21883470.249 8  85875543.412 8        51.000  
R01  22284548.636 7 119123689.567 7        47.000    22284546.688 7  92651758.486 7        43.000  
R07  22682242.308 7 121419841.112 7        47.000    22682237.394 7  94437649.842 7        45.000  
R08  21105590.956 8 113019500.503 8        49.000    21105585.006 8  87904044.640 8        48.000  
R09  20364319.823 9 108744433.578 9        55.000    20364315.677 8  84579029.628 8        51.000  
R10  20108773.121 9 107191121.227 9        55.000                                                  
R18  23270175.156 7 124217779.472 7        46.000    23270172.779 7  96613860.910 7        44.000  
R19  21061111.527 6 112662753.058 6        40.000    21061108.150 7  87626589.314 7        46.000  
R20  21966244.906 6 117463358.679 6        39.000    21966244.960 7  91360425.171 7        47.000  
C02                                                  38718627.105 8 155903916.693 8        48.000  
C05                                                  37833769.938 8 152340922.943 8        48.000  
C07                                                  38393680.084 8 154595537.507 8        49.000  
C10                                                  37321689.431 8 150279089.264 8        50.000  
> 2021 11 07 16 34  0.0000000  0 22                     
G01  23759259.231 6 124855745.739 6        40.000    23759253.548 6  97290171.489 6        40.000    23759252.709 7  93236413.576 7        46.000  
G13  20685739.285 8 108704329.792 8        51.000    20685730.815 8  84704646.750 8        48.000                                                  
G14  20739177.134 8 108985194.941 8        49.000    20739169.325 7  84923537.677 7        46.000    20739172.541 8  81385082.057 8        53.000  
G15  21818595.761 8 114657516.036 8        49.000    21818587.273 7  89343498.357 7        46.000                                                  
G17  20753286.246 8 109059283.795 8        50.000    20753277.544 7  84981244.451 7        47.000                                                  
G19  21809551.373 8 114609984.991 8        48.000    21809541.777 7  89306447.642 7        46.000                                                  
G21  25059684.578 6 131689528.133 6        39.000    25059673.142 5 102615184.770 5        34.000                                                  
G24  24157193.920 6 126946919.558 6        39.000    24157189.292 6  98919655.427 6        39.000    24157189.149 7  94798009.672 7        44.000  
G28  20545620.413 8 107968046.620 8        49.000    20545611.657 7  84130941.154 7        46.000                                                  
G30  21909144.640 7 115133416.855 7        47.000    21909138.940 7  89714366.471 7        45.000    21909138.761 8  85976272.548 8        51.000  
R01  22266445.010 7 119026914.776 7        47.000    22266442.902 7  92576489.200 7        43.000  
R07  22728675.018 7 121668399.072 7        47.000    22728670.193 7  94630972.596 7        46.000  
R08  21123965.422 8 113117895.016 8        49.000    21123959.293 8  87980573.682 8        48.000  
R09  20380982.848 9 108833413.171 9        55.000    20380979.042 8  84648236.003 8        52.000  
R10  20095803.498 9 107121985.500 9        55.000                                                  
R18  23305500.248 7 124406347.437 7        45.000    23305497.961 7  96760524.896 7        42.000  
R19  21061437.762 6 112664497.975 6        40.000    21061434.295 7  87627946.521 7        47.000  
R20  21922367.270 6 117228725.909 6        40.000    21922367.360 7  91177933.119 7        46.000  
C02                                                  38718472.806 8 155903295.222 8        48.000  
C05                                                  37833605.383 8 152340260.449 8        48.000  
C07                                                  38401757.115 8 154628060.396 8        49.000  
C10                                                  37326985.345 8 150300414.840 8        49.000  
> 2021 11 07 16 35  0.0000000  0 22                     
G01  23746990.663 6 124791275.335 6        39.000    23746985.142 6  97239934.804 6        39.000    23746984.659 7  93188270.128 7        45.000  
G13  20695601.520 8 108756156.195 8        50.000    20695593.300 7  84745030.960 7        47.000                                                  
G14  20755252.750 8 109069670.716 8        49.000    20755245.013 7  84989362.971 7        46.000    20755248.479 8  81448164.620 8        53.000  
G15  21815331.787 8 114640365.027 8        49.000    21815323.496 7  89330133.939 7        46.000                                                  
G17  20743184.834 8 109006200.771 8        49.000    20743176.614 7  84939881.083 7        47.000                                                  
G19  21774722.949 8 114426960.303 8        49.000    21774712.996 7  89163831.048 7        46.000                                                  
G21  25070563.901 6 131746698.712 6        38.000    25070552.482 5 102659733.291 5        34.000                                                  
G24  24118816.369 6 126745247.011 6        37.000    24118812.099 6  98762508.148 6        38.000    24118811.044 7  94647410.134 7        44.000  
G28  20551778.203 8 108000404.768 8        49.000    20551769.144 7  84156155.313 7        46.000                                                  
G30  21935046.843 7 115269534.752 7        47.000    21935040.768 7  89820432.362 7        45.000    21935041.304 8  86077919.003 8        51.000  
R01  22248891.376 7 118933080.175 7        47.000    22248889.196 7  92503506.765 7        42.000  
R07  22775239.279 7 121917660.944 7        46.000    22775234.544 7  94824842.885 7        45.000  
R08  21142881.177 8 113219188.014 8        49.000    21142874.994 8  88059357.097 8        48.000  
R09  20397831.871 9 108923385.962 9        54.000    20397828.154 8  84718214.808 8        51.000  
R10  20083023.376 9 107053859.884 9        55.000                                                  
R18  23341220.568 7 124597024.939 7        44.000    23341218.227 7  96908829.681 7        43.000  
R19  21062394.165 6 112669614.237 6        40.000    21062390.806 7  87631925.868 7        46.000  
R20  21878753.989 6 116995506.501 6        39.000    21878753.917 7  90996540.255 7        46.000  
C02                                                  38718317.006 8 155902668.069 8        48.000  
C05                                                  37833437.968 8 152339586.613 8        48.000  
C07                                                  38409828.195 8 154660561.039 8        48.000  
C10                                                  37332283.921 8 150321752.561 8        49.000  
> 2021 11 07 16 36  0.0000000  0 22                     
G01  23735137.604 6 124728988.551 6        41.000    23735132.815 6  97191399.691 6        40.000    23735131.779 8  93141757.300 8        48.000  
G13  20705919.040 8 108810374.643 8        51.000    20705910.624 8  84787279.062 8        48.000                                                  
G14  20771541.437 8 109155268.157 8        48.000    20771533.985 7  85056062.251 7        46.000    20771537.523 8  81512084.778 8        53.000  
G15  21812533.230 8 114625659.124 8        49.000    21812524.564 7  89318674.780 7        46.000                                                  
G17  20733504.702 8 108955331.793 8        49.000    20733497.215 7  84900242.934 7        47.000                                                  
G19  21740178.089 8 114245425.915 8        48.000    21740168.261 7  89022375.688 7        46.000                                                  
G21  25081795.547 6 131805720.623 6        37.000    25081785.057 5 102705724.310 5        34.000                                                  
G24  24080482.812 6 126543802.150 6        38.000    24080478.273 6  98605538.175 6        39.000    24080477.666 7  94496980.638 7        45.000  
G28  20558149.600 8 108033887.068 8        49.000    20558140.648 7  84182245.410 7        46.000                                                  
G30  21961182.219 7 115406876.815 7        47.000    21961176.054 7  89927452.122 7        45.000    21961176.733 8  86180479.620 8        51.000  
R01  22231890.787 7 118842201.268 7        47.000    22231888.357 7  92432823.166 7        43.000  
R07  22821928.284 8 122167590.710 8        48.000    22821923.603 7  95019232.661 7        45.000  
R08  21162333.895 8 113323356.583 8        49.000    21162327.695 8  88140377.068 8        50.000  
R09  20414866.643 9 109014350.822 9        55.000    20414862.890 8  84788965.248 8        50.000  
R10  20070433.131 9 106986747.148 9        54.000                                                  
R18  23377330.183 7 124789781.076 7        44.000    23377327.878 7  97058751.072 7        43.000  
R19  21063980.827 6 112678102.833 6        40.000    21063977.700 7  87638528.093 7        46.000  
R20  21835411.834 6 116763738.039 6        40.000    21835411.530 8  90816275.980 8        48.000  
C02                                                  38718159.884 8 155902035.132 8        48.000  
C05                                                  37833267.837 8 152338901.291 8        48.000  
C07                                                  38417893.897 8 154693038.096 8        49.000  
C10                                                  37337586.036 8 150343100.980 8        50.000  
> 2021 11 07 16 37  0.0000000  0 22                     
G01  23723703.449 6 124668900.361 6        40.000    23723698.303 6  97144577.811 6        40.000    23723697.534 7  93096886.274 7        47.000  
G13  20716690.630 8 108866978.234 8        51.000    20716681.999 8  84831385.754 8        48.000                                                  
G14  20788041.067 8 109241976.621 8        48.000    20788033.937 7  85123627.306 7        46.000    20788037.136 8  81576834.620 8        53.000  
G15  21810200.197 8 114613398.150 8        49.000    21810191.816 7  89309120.786 7        47.000                                                  
G17  20724246.815 8 108906680.778 8        50.000    20724238.774 7  84862333.100 7        47.000                                                  
G19  21705920.170 8 114065401.320 8        48.000    21705910.843 7  88882096.837 7        46.000                                                  
G21  25093377.908 6 131866588.073 6        39.000    25093368.044 5 102753153.550 5        34.000                                                  
G24  24042194.517 6 126342596.541 6        38.000    24042189.835 6  98448754.643 6        37.000    24042189.675 7  94346729.791 7        45.000  
G28  20564733.102 8 108068484.001 8        48.000    20564724.132 7  84209204.055 7        46.000                                                  
G30  21987550.178 7 115545438.098 7        47.000    21987543.835 7  90035421.948 7        45.000    21987544.031 8  86283950.696 8        50.000  
R01  22215445.586 7 118754292.636 7        47.000    22215443.352 7  92364449.797 7        43.000  
R07  22868735.225 7 122418151.689 7        46.000    22868730.901 7  95214113.295 7        43.000  
R08  21182319.111 8 113430376.998 8        49.000    21182312.893 8  88223615.127 8        49.000  
R09  20432087.038 9 109106306.000 9        54.000    20432083.179 8  84860485.916 8        51.000  
R10  20058033.315 9 106920649.964 9        55.000                                                  
R18  23413823.248 7 124984583.837 7        45.000    23413820.925 7  97210264.308 7        42.000  
R19  21066197.909 6 112689962.800 6        41.000    21066194.710 7  87647752.568 7        46.000  
R20  21792348.167 6 116533457.585 6        39.000    21792348.203 8  90637169.004 8        48.000  
C02                                                  38718001.064 8 155901395.988 8        48.000  
C05                                                  37833094.597 8 152338204.051 8        48.000  
C07                                                  38425953.702 8 154725489.870 8        49.000  
C10                                                  37342890.009 8 150364458.119 8        49.000  
> 2021 11 07 16 38  0.0000000  0 22                     
G01  23712690.895 6 124611028.980 6        40.000    23712685.820 6  97099483.242 6        40.000    23712684.873 8  93053670.700 8        48.000  
G13  20727914.986 8 108925962.739 8        50.000    20727906.355 7  84877347.699 7        47.000                                                  
G14  20804751.391 8 109329789.194 8        48.000    20804744.011 7  85192052.690 7        46.000    20804746.692 8  81642408.969 8        52.000  
G15  21808333.277 8 114603585.481 8        49.000    21808325.701 7  89301474.543 7        46.000                                                  
G17  20715412.173 8 108860254.643 8        49.000    20715404.150 7  84826156.901 7        47.000                                                  
G19  21671954.589 8 113886910.278 8        48.000    21671945.190 7  88743012.946 7        46.000                                                  
G21  25105311.520 6 131929298.747 6        38.000    25105301.56715 102802013.08315        33.0001                                                 
G24  24003954.808 6 126141645.552 6        40.000    24003950.233 6  98292169.571 6        39.000    24003949.805 7  94196669.029 7        45.000  
G28  20571527.405 8 108104188.875 8        48.000    20571518.542 7  84237026.037 7        46.000                                                  
G30  22014149.184 7 115685217.279 7        47.000    22014142.912 7  90144340.782 7        45.000    22014142.697 8  86388331.258 8        51.000  
R01  22199559.363 7 118669371.619 7        47.000    22199557.237 7  92298400.098 7        42.000  
R07  22915653.954 7 122669311.399 7        46.000    22915649.505 7  95409459.680 7        43.000  
R08  21202833.053 8 113540228.275 8        49.000    21202826.960 8  88309054.976 8        49.000  
R09  20449493.200 9 109199253.684 9        55.000    20449489.179 8  84932778.537 8        50.000  
R10  20045825.556 9 106855575.631 9        55.000                                                  
R18  23450694.512 7 125181405.135 7        45.000    23450692.189 6  97363347.608 6        41.000  
R19  21069045.856 6 112705196.844 6        41.000    21069042.478 7  87659601.282 7        44.000  
R20  21749570.441 6 116304705.599 6        39.000    21749570.405 8  90459250.820 8        48.000  
C02                                                  38717841.261 7 155900752.922 7        47.000  
C05                                                  37832919.051 8 152337497.201 8        48.000  
C07                                                  38434007.199 8 154757917.532 8        49.000  
C10                                                  37348196.161 8 150385824.980 8        49.000  
> 2021 11 07 16 39  0.0000000  0 22                     
G01  23702102.302 6 124555386.800 6        38.000    23702097.298 6  97056125.743 6        39.000    23702096.816 8  93012119.773 8        49.000  
G13  20739590.730 8 108987319.253 8        51.000    20739581.671 8  84925157.972 8        48.000                                                  
G14  20821669.353 8 109418693.568 8        48.000    20821662.063 7  85261328.814 7        46.000    20821664.707 8  81708798.609 8        53.000  
G15  21806931.095 8 114596217.853 8        49.000    21806923.679 7  89295733.530 7        47.000                                                  
G17  20707001.170 8 108816054.224 8        50.000    20706992.361 7  84791715.033 7        47.000                                                  
G19  21638284.257 8 113709971.205 8        48.000    21638274.232 7  88605138.371 7        46.000                                                  
G21  25117593.614 6 131993843.117 6        37.000    25117583.804 5 102852306.380 5        33.000                                                  
G24  23965765.954 6 125940959.223 6        38.000    23965760.629 6  98135790.641 6        38.000    23965760.754 7  94046805.944 7        46.000  
G28  20578530.490 8 108140990.758 8        49.000    20578521.519 7  84265702.836 7        46.000                                                  
G30  22040978.789 7 115826207.572 7        47.000    22040972.374 7  90254203.332 7        45.000    22040972.571 8  86493616.191 8        50.000  
R01  22184234.228 7 118587450.358 7        47.000    22184232.513 7  92234683.588 7        43.000  
R07  22962677.414 7 122921031.645 7        47.000    22962672.929 7  95605242.017 7        45.000  
R08  21223870.736 8 113652884.023 8        48.000    21223864.732 8  88396676.081 8        49.000  
R09  20467084.628 9 109293190.888 9        54.000    20467080.536 8  85005840.813 8        49.000  
R10  20033809.800 9 106791525.364 9        55.000                                                  
R18  23487937.523 7 125380210.817 7        45.000    23487935.075 7  97517974.252 7        44.000  
R19  21072523.757 6 112723801.305 6        41.000    21072520.291 7  87674071.421 7        45.000  
R20  21707085.177 6 116077517.253 6        39.000    21707085.195 8  90282548.755 8        48.000  
C02                                                  38717680.118 7 155900104.047 7        47.000  
C05                                                  37832740.665 8 152336778.930 8        48.000  
C07                                                  38442053.924 8 154790318.032 8        48.000  
C10                                                  37353504.941 8 150407198.319 8        50.000  
> 2021 11 07 16 40  0.0000000  0 22                     
G01  23691941.171 6 124501989.176 6        40.000    23691935.668 6  97014517.259 6        40.000    23691935.489 8  92972244.986 8        49.000  
G13  20751716.417 8 109051039.920 8        51.000    20751707.268 8  84974810.422 8        48.000                                                  
G14  20838793.149 8 109508680.867 8        48.000    20838785.876 7  85331448.797 7        46.000    20838789.110 8  81775996.907 8        53.000  
G15  21805994.794 8 114591296.304 8        49.000    21805986.663 7  89291898.555 7        47.000                                                  
G17  20699014.271 8 108774083.045 8        50.000    20699005.783 7  84759010.233 7        47.000                                                  
G19  21604913.052 8 113534605.639 8        48.000    21604903.028 7  88468489.896 7        46.000                                                  
G21  25130224.458 6 132060218.582 6        36.000    25130214.398 5 102904027.499 5        34.000                                                  
G24  23927629.224 6 125740551.141 6        40.000    23927624.239 6  97979628.554 6        39.000    23927624.757 7  93897150.626 7        46.000  
G28  20585741.159 8 108178880.354 8        49.000    20585731.795 7  84295227.198 7        46.000                                                  
G30  22068037.994 7 115968405.109 7        47.000    22068031.614 7  90365006.614 7        45.000    22068032.186 8  86599802.652 8        50.000  
R01  22169472.914 7 118508542.278 7        47.000    22169471.145 7  92173310.611 7        43.000  
R07  23009799.314 7 123173277.981 7        47.000    23009794.704 7  95801433.546 7        45.000  
R08  21245427.550 8 113768319.981 8        48.000    21245421.940 8  88486459.562 8        48.000  
R09  20484861.357 9 109388117.739 9        54.000    20484857.176 8  85079672.825 8        51.000  
R10  20021987.118 9 106728503.967 9        54.000                                                  
R18  23525546.616 7 125580970.294 7        47.000    23525544.132 7  97674120.571 7        43.000  
R19  21076631.488 6 112745774.382 6        40.000    21076627.646 7  87691161.618 7        44.000  
R20  21664899.362 6 115851931.000 6        41.000    21664899.380 7  90107092.817 7        47.000  
C02                                                  38717517.814 7 155899450.204 7        47.000  
C05                                                  37832559.687 8 152336049.937 8        48.000  
C07                                                  38450093.304 8 154822691.140 8        48.000  
C10                                                  37358814.489 8 150428577.533 8        50.000  
> 2021 11 07 16 41  0.0000000  0 22                     
G01  23682209.433 6 124450849.073 6        39.000    23682204.162 6  96974667.884 6        39.000    23682203.465 8  92934056.042 8        48.000  
G13  20764290.491 8 109117116.888 8        51.000    20764281.574 8  85026298.954 8        48.000                                                  
G14  20856120.972 8 109599739.974 8        48.000    20856113.664 7  85402403.938 7        46.000    20856117.256 8  81843995.588 8        53.000  
G15  21805522.873 8 114588818.031 8        49.000    21805515.189 7  89289967.428 7        46.000                                                  
G17  20691451.904 8 108734342.436 8        49.000    20691443.077 7  84728043.533 7        47.000                                                  
G19  21571845.353 8 113360832.824 8        49.000    21571835.346 7  88333082.558 7        46.000                                                  
G21  25143202.104 6 132128416.469 6        37.000    25143192.562 5 102957168.618 5        35.000                                                  
G24  23889547.817 6 125540432.839 6        38.000    23889541.741 6  97823692.311 6        37.000    23889543.582 7  93747711.764 7        46.000  
G28  20593156.410 8 108217847.772 8        49.000    20593147.082 7  84325591.434 7        46.000                                                  
G30  22095325.403 7 116111804.165 7        47.000    22095319.810 7  90476746.122 7        45.000    22095320.168 8  86706886.358 8        50.000  
R01  22155277.476 8 118432659.582 8        48.000    22155275.725 7  92114290.736 7        43.000  
R07  23057012.596 7 123426013.840 7        47.000    23057008.022 7  95998005.797 7        44.000  
R08  21267498.599 8 113886509.508 8        49.000    21267493.060 8  88578384.705 8        48.000  
R09  20502823.120 9 109484032.344 9        55.000    20502818.796 8  85154273.059 8        51.000  
R10  20010357.886 9 106666513.544 9        55.000                                                  
R18  23563515.503 7 125783650.516 7        43.000    23563513.019 7  97831760.764 7        44.000  
R19  21081368.227 6 112771112.801 6        40.000    21081364.403 7  87710869.270 7        45.000  
R20  21623020.019 6 115627983.062 6        40.000    21623019.983 7  89932911.118 7        46.000  
C02                                                  38717353.902 7 155898790.513 7        47.000  
C05                                                  37832375.762 8 152335309.409 8        49.000  
C07                                                  38458125.430 8 154855034.727 8        48.000  
C10                                                  37364124.626 8 150449960.455 8        49.000  
> 2021 11 07 16 42  0.0000000  0 22                     
G01  23672910.608 6 124401983.493 6        40.000    23672905.033 6  96936590.843 6        40.000    23672904.819 7  92897565.560 7        47.000  
G13  20777311.380 8 109185544.020 8        51.000    20777302.964 8  85079618.791 8        48.000                                                  
G14  20873651.735 8 109691864.526 8        48.000    20873644.605 7  85474189.317 7        45.000    20873648.340 8  81912789.898 8        53.000  
G15  21805516.261 8 114588784.686 8        49.000    21805508.310 7  89289941.439 7        46.000                                                  
G17  20684314.927 8 108696838.277 8        49.000    20684306.600 7  84698819.539 7        47.000                                                  
G19  21539085.305 8 113188676.678 8        49.000    21539074.798 7  88198934.946 7        47.000                                                  
G21  25156525.713 6 132198433.662 6        36.000    25156516.188 5 103011727.522 5        35.000                                                  
G24  23851524.519 6 125340620.630 6        41.000    23851518.926 6  97667994.540 6        39.000    23851520.767 7  93598501.411 7        46.000  
G28  20600775.190 8 108257887.754 8        48.000    20600766.041 7  84356791.431 7        46.000                                                  
G30  22122842.126 7 116256403.257 7        47.000    22122836.372 7  90589420.721 7        45.000    22122835.765 8  86814866.189 8        50.000  
R01  22141650.828 8 118359817.274 8        48.000    22141648.987 7  92057635.594 7        43.000  
R07  23104311.346 7 123679207.625 7        46.000    23104306.790 7  96194934.232 7        43.000  
R08  21290079.773 8 114007430.231 8        49.000    21290074.162 8  88672434.136 8        48.000  
R09  20520970.400 9 109580937.603 9        55.000    20520966.147 8  85229643.805 8        50.000  
R10  19998923.874 9 106605562.790 9        55.000                                                  
R18  23601839.000 7 125988222.885 7        43.000    23601836.498 7  97990872.576 7        44.000  
R19  21086733.865 6 112799815.664 6        41.000    21086730.024 7  87733193.724 7        45.000  
R20  21581454.635 6 115405714.368 6        40.000    21581454.384 7  89760035.502 7        47.000  
C02                                                  38717189.149 7 155898127.526 7        47.000  
C05                                                  37832189.656 8 152334559.910 8        48.000  
C07                                                  38466151.266 8 154887350.341 8        48.000  
C10                                                  37369436.265 8 150471348.448 8        49.000  
> 2021 11 07 16 43  0.0000000  0 22                     
G01  23664046.000 6 124355400.381 6        40.000    23664040.461 6  96900292.371 6        40.000    23664040.318 8  92862779.498 8        48.000  
G13  20790777.404 8 109256308.675 8        51.000    20790769.167 8  85134760.078 8        48.000                                                  
G14  20891382.362 8 109785039.487 8        48.000    20891375.143 7  85546793.185 7        46.000    20891379.056 8  81982368.590 8        53.000  
G15  21805973.726 8 114591189.176 8        50.000    21805966.721 7  89291815.069 7        47.000                                                  
G17  20677602.857 8 108661566.791 8        50.000    20677594.655 7  84671335.287 7        47.000                                                  
G19  21506635.177 8 113018150.866 8        49.000    21506624.938 7  88066057.719 7        46.000                                                  
G21  25170193.228 6 132270257.870 6        37.000    25170184.061 5 103067694.327 5        35.000                                                  
G24  23813561.548 6 125141122.142 6        40.000    23813556.187 6  97512541.242 6        38.000    23813557.348 7  93449525.358 7        46.000  
G28  20608595.693 8 108298984.992 8        49.000    20608586.454 7  84388815.267 7        47.000                                                  
G30  22150585.107 7 116402191.992 7        47.000    22150578.745 7  90703022.339 7        45.000    22150578.835 8  86923734.394 8        50.000  
R01  22128594.290 7 118290022.290 7        47.000    22128592.271 7  92003350.634 7        42.000  
R07  23151688.130 7 123932818.814 7        44.000    23151683.752 7  96392187.295 7        44.000  
R08  21313165.050 8 114131050.911 8        49.000    21313159.403 8  88768583.498 8        48.000  
R09  20539302.070 9 109678827.274 9        55.000    20539297.817 8  85305780.201 8        51.000  
R10  19987684.384 9 106545649.851 9        55.000                                                  
R18  23640509.567 7 126194649.633 7        45.000    23640507.190 7  98151426.704 7        44.000  
R19  21092726.743 6 112831873.433 6        41.000    21092722.811 7  87758127.548 7        45.000  
R20  21540209.195 6 115185156.466 6        40.000    21540208.712 8  89588490.553 8        49.000  
C02                                                  38717022.592 7 155897457.220 7        47.000  
C05                                                  37832000.244 8 152333797.410 8        48.000  
C07                                                  38474168.793 8 154919632.839 8        48.000  
C10                                                  37374748.225 8 150492736.046 8        50.000  
> 2021 11 07 16 44  0.0000000  0 22                     
G01  23655619.023 6 124311115.604 6        41.000    23655612.733 6  96865784.746 6        41.000    23655612.840 7  92829709.700 7        47.000  
G13  20804686.830 8 109329402.745 8        51.000    20804678.843 8  85191716.485 8        48.000                                                  
G14  20909311.818 8 109879258.082 8        49.000    20909304.081 7  85620210.279 7        46.000    20909307.923 8  82052726.638 8        53.000  
G15  21806895.535 8 114596032.440 8        49.000    21806887.887 7  89295589.027 7        47.000                                                  
G17  20671316.857 8 108628532.652 8        50.000    20671308.601 7  84645594.427 7        47.000                                                  
G19  21474499.723 8 112849278.785 8        49.000    21474490.127 7  87934469.126 7        46.000                                                  
G21  25184204.150 6 132343885.731 6        37.000    25184194.82215 103125067.86915        34.0001                                                 
G24  23775661.046 6 124941953.440 6        40.000    23775655.578 6  97357344.900 6        40.000    23775655.971 7  93300795.502 7        45.000  
G28  20616616.865 8 108341133.384 8        49.000    20616607.323 7  84421658.179 7        46.000                                                  
G30  22178553.541 7 116549168.416 7        47.000    22178547.555 7  90817549.391 7        45.000    22178547.697 8  87033489.485 8        51.000  
R01  22116110.204 7 118223288.079 7        46.000    22116108.167 7  91951446.248 7        42.000  
R07  23199136.748 7 124186815.291 7        45.000    23199132.459 7  96589740.015 7        43.000  
R08  21336749.944 8 114257347.292 8        49.000    21336744.298 8  88866814.023 8        48.000  
R09  20557818.630 9 109777704.010 9        55.000    20557814.717 8  85382684.322 8        50.000  
R10  19976640.845 9 106486782.010 9        55.000                                                  
R18  23679522.165 7 126402901.998 7        46.000    23679519.877 7  98313400.819 7        43.000  
R19  21099346.626 6 112867284.466 6        40.000    21099342.588 7  87785669.478 7        46.000  
R20  21499291.152 6 114966349.756 6        39.000    21499290.901 8  89418307.594 8        50.000  
C02                                                  38716854.784 7 155896781.909 7        47.000  
C05                                                  37831808.223 8 152333024.193 8        48.000  
C07                                                  38482178.618 8 154951883.454 8        48.000  
C10                                                  37380060.346 8 150514124.299 8        50.000  
> 2021 11 07 16 45  0.0000000  0 22                     
G01  23647631.855 6 124269140.729 6        41.000    23647624.350 6  96833077.064 6        41.000    23647624.922 7  92798364.869 7        46.000  
G13  20819037.836 8 109404817.257 8        51.000    20819029.634 8  85250481.014 8        48.000                                                  
G14  20927437.923 8 109974509.803 8        49.000    20927429.882 7  85694432.397 7        46.000    20927433.634 8  82123856.172 8        53.000  
G15  21808280.956 8 114603310.215 8        49.000    21808272.344 7  89301260.003 7        46.000                                                  
G17  20665456.532 8 108597736.320 8        50.000    20665448.759 7  84621597.287 7        47.000                                                  
G19  21442682.873 8 112682079.504 8        49.000    21442672.634 7  87804183.993 7        47.000                                                  
G21  25198556.639 6 132419308.247 6        36.000    25198546.239 5 103183835.640 5        34.000                                                  
G24  23737825.838 6 124743126.853 6        41.000    23737820.209 6  97202415.143 6        40.000    23737820.567 7  93152321.188 7        45.000  
G28  20624835.418 8 108384323.065 8        49.000    20624826.019 7  84455312.476 7        46.000                                                  
G30  22206747.231 7 116697326.364 7        46.000    22206741.049 7  90932997.113 7        44.000    22206740.852 8  87144126.878 8        50.000  
R01  22104200.500 7 118159624.051 7        47.000    22104198.428 7  91901929.794 7        42.000  
R07  23246650.819 7 124441161.391 7        46.000    23246646.441 7  96787564.743 7        44.000  
R08  21360829.471 8 114386291.599 8        50.000    21360823.753 7  88967103.981 7        47.000  
R09  20576519.688 9 109877566.430 9        54.000    20576515.722 8  85460355.103 8        49.000  
R10  19965794.151 9 106428962.819 9        55.000                                                  
R18  23718870.521 7 126612946.429 7        44.000    23718868.234 6  98476768.761 6        41.000  
R19  21106591.943 6 112906042.215 6        41.000    21106587.958 7  87815814.402 7        45.000  
R20  21458707.295 6 114749330.477 6        39.000    21458707.205 7  89249514.858 7        47.000  
C02                                                  38716685.529 7 155896100.932 7        47.000  
C05                                                  37831613.505 8 152332239.615 8        49.000  
C07                                                  38490179.402 8 154984100.447 8        48.000  
C10                                                  37385371.466 8 150535511.190 8        49.000  
> 2021 11 07 16 46  0.0000000  0 22                     
G01  23640086.392 6 124229488.425 6        40.000    23640079.155 6  96802179.225 6        40.000    23640078.834 7  92768754.393 7        45.000  
G13  20833828.526 8 109482542.233 8        51.000    20833820.110 8  85311045.933 8        48.000                                                  
G14  20945758.478 8 110070785.604 8        48.000    20945750.616 7  85769452.502 7        46.000    20945754.332 8  82195750.446 8        52.000  
G15  21810128.667 8 114613020.278 8        49.000    21810120.376 7  89308826.265 7        47.000                                                  
G17  20660022.240 8 108569178.814 8        50.000    20660014.271 7  84599344.708 7        47.000                                                  
G19  21411187.719 8 112516572.801 8        49.000    21411177.588 7  87675217.763 7        46.000                                                  
G21  25213249.032 5 132496518.304 5        34.000    25213239.740 5 103244001.290 5        33.000                                                  
G24  23700058.443 6 124544656.411 6        41.000    23700052.546 6  97047762.880 6        40.000    23700052.099 7  93004112.753 7        44.000  
G28  20633250.120 8 108428545.109 8        48.000    20633241.060 7  84489771.212 7        46.000                                                  
G30  22235164.517 7 116846661.089 7        46.000    22235158.460 7  91049361.825 7        44.000    22235158.460 8  87255643.050 8        51.000  
R01  22092867.019 7 118099040.952 7        47.000    22092864.714 7  91854809.563 7        42.000  
R07  23294223.805 7 124695823.072 7        45.000    23294219.445 7  96985634.849 7        45.000  
R08  21385398.288 8 114517856.349 8        50.000    21385392.516 8  89069432.069 8        48.000  
R09  20595405.316 9 109978414.597 9        54.000    20595401.277 8  85538792.540 8        51.000  
R10  19955145.107 9 106372197.248 9        54.000                                                  
R18  23758548.437 6 126824751.231 6        40.000    23758546.364 6  98641505.811 6        37.000  
R19  21114461.621 6 112948139.805 6        40.000    21114457.726 7  87848556.996 7        46.000  
R20  21418464.432 6 114534135.891 6        40.000    21418464.790 7  89082141.329 7        47.000  
C02                                                  38716515.112 7 155895414.788 7        47.000  
C05                                                  37831415.981 8 152331444.211 8        49.000  
C07                                                  38498172.073 7 155016283.311 7        47.000  
C10                                                  37390681.854 8 150556896.086 8        50.000  
> 2021 11 07 16 47  0.0000000  0 22                     
G01  23632984.689 6 124192171.033 6        39.000    23632978.560 6  96773100.733 6        40.000    23632978.006 7  92740887.549 7        46.000  
G13  20849056.937 8 109562568.424 8        51.000    20849048.645 8  85373403.992 8        48.000                                                  
G14  20964272.001 8 110168076.579 8        48.000    20964264.514 7  85845263.657 7        46.000    20964268.302 8  82268402.801 8        52.000  
G15  21812438.524 8 114625159.381 8        49.000    21812430.858 7  89318285.318 7        46.000                                                  
G17  20655014.322 8 108542861.659 8        50.000    20655006.638 7  84578837.859 7        47.000                                                  
G19  21380018.943 8 112352778.974 8        49.000    21380008.740 7  87547586.244 7        46.000                                                  
G21  25228280.382 5 132575509.568 5        34.000                                                                                                  
G24  23662361.077 6 124346556.226 6        41.000    23662354.769 6  96893399.127 6        40.000    23662355.341 7  92856180.842 7        46.000  
G28  20641860.183 8 108473791.666 8        48.000    20641851.445 7  84525028.285 7        46.000                                                  
G30  22263804.880 7 116997167.831 7        46.000    22263799.841 7  91166639.766 7        44.000    22263799.162 8  87368034.417 8        51.000  
R01  22082111.708 7 118041547.732 7        47.000    22082109.563 7  91810092.624 7        42.000  
R07  23341849.272 7 124950766.270 7        44.000    23341845.144 7  97183923.922 7        43.000  
R08  21410451.551 8 114652014.392 8        49.000    21410445.476 8  89173777.184 8        48.000  
R09  20614475.673 9 110080248.779 9        54.000    20614471.474 8  85617996.902 8        50.000  
R10  19944694.570 9 106316490.596 9        54.000                                                  
R18  23798550.318 5 127038284.273 5        35.000    23798548.263 5  98807587.123 5        34.000  
R19  21122954.464 6 112993571.191 6        41.000    21122950.640 7  87883892.544 7        46.000  
R20  21378570.391 6 114320803.796 6        40.000    21378570.463 8  88916216.380 8        49.000  
C02                                                  38716343.480 7 155894723.848 7        47.000  
C05                                                  37831215.848 8 152330638.466 8        49.000  
C07                                                  38506155.934 7 155048431.497 7        47.000  
C10                                                  37395992.778 8 150578278.012 8        51.000  
> 2021 11 07 16 48  0.0000000  0 22                     
G01  23626329.568 6 124157198.869 6        38.000    23626323.832 6  96745849.744 6        39.000    23626323.206 7  92714772.038 7        47.000  
G13  20864721.065 8 109644884.332 8        50.000    20864712.756 7  85437546.243 7        47.000                                                  
G14  20982977.205 8 110266372.293 8        49.000    20982969.289 7  85921857.741 7        46.000    20982972.684 8  82341805.450 8        51.000  
G15  21815209.545 8 114639722.450 8        49.000    21815202.594 7  89329633.166 7        46.000                                                  
G17  20650432.257 8 108518783.524 8        49.000    20650424.216 7  84560075.689 7        47.000                                                  
G19  21349179.440 8 112190716.078 8        50.000    21349169.451 7  87421303.516 7        47.000                                                  
G21  25243648.582 5 132656272.208 5        35.000                                                                                                  
G24  23624736.812 7 124148839.025 7        42.000    23624731.023 6  96739333.863 6        40.000    23624731.237 7  92708534.924 7        46.000  
G28  20650663.482 8 108520052.253 8        49.000    20650654.494 7  84561075.505 7        46.000                                                  
G30  22292667.319 7 117148840.129 7        46.000    22292661.405 7  91284825.955 7        45.000    22292661.154 8  87481296.181 8        50.000  
R01  22071935.942 7 117987152.307 7        47.000    22071933.798 7  91767785.071 7        43.000  
R07  23389520.805 7 125205955.984 7        45.000    23389516.678 7  97382404.759 7        44.000  
R08  21435983.419 8 114788736.186 8        49.000    21435977.326 8  89280116.338 8        48.000  
R09  20633730.403 8 110183067.870 8        53.000    20633726.275 8  85697967.306 8        49.000  
R10  19934443.397 9 106261846.393 9        55.000                                                  
R18  23838869.749 5 127253512.328 5        32.000    23838867.712 5  98974986.778 5        32.000  
R19  21132068.970 6 113042327.596 6        41.000    21132065.307 7  87921814.180 7        47.000  
R20  21339031.157 6 114109369.526 6        41.000    21339031.229 8  88751767.519 8        48.000  
C02                                                  38716170.633 7 155894027.740 7        47.000  
C05                                                  37831013.088 8 152329821.708 8        49.000  
C07                                                  38514130.611 7 155080543.583 7        46.000  
C10                                                  37401302.308 8 150599655.434 8        50.000  
> 2021 11 07 16 49  0.0000000  0 20                     
G01  23620122.762 6 124124583.502 6        38.000    23620117.366 6  96720435.252 6        39.000    23620116.848 8  92690416.440 8        48.000  
G13  20880818.803 8 109729478.943 8        50.000    20880810.744 7  85503464.103 7        47.000                                                  
G14  21001872.035 8 110365664.033 8        48.000    21001863.976 7  85999227.921 7        46.000    21001866.531 8  82415951.892 8        51.000  
G15  21818441.515 8 114656705.823 8        49.000    21818433.992 7  89342866.926 7        46.000                                                  
G17  20646276.316 8 108496944.842 8        49.000    20646268.132 7  84543058.551 7        47.000                                                  
G19  21318672.890 8 112030403.654 8        49.000    21318662.848 7  87296384.753 7        46.000                                                  
G24  23587188.134 6 123951519.312 6        40.000    23587182.398 6  96585578.229 6        40.000    23587182.666 7  92561185.830 7        46.000  
G28  20659658.248 8 108567318.902 8        48.000    20659648.903 7  84597906.655 7        46.000                                                  
G30  22321750.548 7 117301672.970 7        46.000    22321744.186 7  91403916.459 7        44.000    22321744.740 8  87595424.579 8        50.000  
R01  22062341.135 7 117935862.970 7        47.000    22062339.169 7  91727893.353 7        42.000  
R07  23437232.205 7 125461358.597 7        45.000    23437228.077 7  97581051.134 7        45.000  
R08  21461988.691 8 114927993.121 8        49.000    21461982.597 8  89388427.215 8        48.000  
R09  20653169.488 9 110286871.707 9        54.000    20653165.378 8  85778703.602 8        52.000  
R10  19924392.501 9 106208269.780 9        56.000                                                  
R19  21141803.532 6 113094400.932 6        41.000    21141800.029 7  87962315.701 7        46.000  
R20  21299853.860 6 113899870.027 6        40.000    21299853.664 8  88588823.518 8        48.000  
C02                                                  38715996.392 7 155893326.741 7        46.000  
C05                                                  37830807.648 8 152328994.520 8        49.000  
C07                                                  38522095.907 7 155112618.894 7        47.000  
C10                                                  37406608.943 8 150621027.512 8        49.000  
> 2021 11 07 16 50  0.0000000  0 20                     
G01  23614366.382 6 124094334.671 6        38.000    23614361.504 6  96696864.721 6        39.000    23614360.932 7  92667828.077 7        46.000  
G13  20897347.971 8 109816340.873 8        51.000    20897339.769 8  85571148.712 8        48.000                                                  
G14  21020954.132 8 110465941.671 8        48.000    21020946.252 7  86077366.341 7        46.000    21020948.950 8  82490834.542 8        52.000  
G15  21822132.969 8 114676104.026 8        49.000    21822125.214 7  89357982.414 7        46.000                                                  
G17  20642546.443 8 108477344.335 8        49.000    20642538.205 7  84527785.440 7        47.000                                                  
G19  21288502.921 8 111871860.119 8        50.000    21288493.486 7  87172844.384 7        47.000                                                  
G24  23549716.596 6 123754610.188 6        40.000    23549711.504 6  96432142.595 6        40.000    23549711.789 7  92414143.363 7        47.000  
G28  20668842.104 8 108615581.493 8        48.000    20668832.848 7  84635513.864 7        46.000                                                  
G30  22351053.387 7 117455659.923 7        46.000    22351046.597 7  91523906.284 7        45.000    22351047.115 8  87710414.832 8        50.000  
R01  22053328.804 8 117887686.122 8        48.000    22053326.659 7  91690422.492 7        42.000  
R07  23484976.894 7 125716939.489 7        45.000    23484973.034 7  97779836.235 7        44.000  
R08  21488462.059 8 115069755.617 8        49.000    21488455.841 7  89498686.907 7        47.000  
R09  20672792.909 9 110391659.644 9        54.000    20672788.799 8  85860205.343 8        52.000  
R10  19914543.077 9 106155765.769 9        54.000                                                  
R19  21152156.254 6 113149781.544 6        40.000    21152153.073 7  88005389.536 7        46.000  
R20  21261044.809 6 113692340.866 6        40.000    21261044.594 8  88427411.943 8        48.000  
C02                                                  38715820.900 7 155892620.549 7        46.000  
C05                                                  37830599.384 8 152328156.424 8        49.000  
C07                                                  38530053.376 8 155144656.043 8        48.000  
C10                                                  37411914.613 8 150642392.511 8        49.000  
> 2021 11 07 16 51  0.0000000  0 20                     
G01  23609061.784 6 124066460.416 6        39.000    23609057.763 6  96675144.616 6        39.000    23609055.994 7  92647012.944 7        47.000  
G13  20914306.353 8 109905456.318 8        50.000    20914297.901 7  85640589.326 7        47.000                                                  
G14  21040221.710 8 110567194.042 8        48.000    21040214.080 7  86156264.306 7        46.000    21040217.582 8  82566445.072 8        52.000  
G15  21826282.389 8 114697909.742 8        49.000    21826274.205 7  89374973.886 7        46.000                                                  
G17  20639241.942 8 108459979.287 8        49.000    20639233.723 7  84514254.273 7        46.000                                                  
G19  21258672.857 8 111715101.564 8        50.000    21258662.939 7  87050694.904 7        47.000                                                  
G24  23512326.648 6 123558123.844 6        41.000    23512321.895 6  96279036.422 6        41.000    23512322.003 7  92267416.610 7        46.000  
G28  20678213.531 8 108664830.112 8        49.000    20678204.686 7  84673889.432 7        46.000                                                  
G30  22380574.121 7 117610793.190 7        46.000    22380567.974 7  91644789.328 7        44.000    22380567.616 8  87826261.078 8        49.000  
R01  22044899.557 8 117842626.763 8        48.000    22044897.341 6  91655376.320 6        41.000  
R07  23532748.172 7 125972662.494 7        44.000    23532744.491 7  97978731.868 7        44.000  
R08  21515397.163 8 115213991.984 8        48.000    21515390.927 8  89610870.717 8        48.000  
R09  20692600.185 8 110497429.455 8        53.000    20692596.254 8  85942470.696 8        52.000  
R10  19904895.002 9 106104336.257 9        54.000                                                  
R19  21163124.904 6 113208456.641 6        41.000    21163121.723 7  88051025.704 7        45.000  
R20  21222610.702 6 113486816.600 6        40.000    21222610.488 8  88267559.802 8        48.000  
C02                                                  38715643.943 7 155891907.689 7        46.000  
C05                                                  37830388.244 8 152327305.983 8        49.000  
C07                                                  38537999.927 8 155176652.693 8        48.000  
C10                                                  37417218.461 8 150663747.914 8        49.000  
> 2021 11 07 16 52  0.0000000  0 21                     
G01  23604212.059 6 124040973.417 6        40.000    23604207.592 6  96655284.655 6        40.000    23604206.127 7  92627980.512 7        47.000  
G13  20931691.644 8 109996816.297 8        50.000    20931683.281 7  85711778.908 7        47.000                                                  
G14  21059673.660 8 110669414.834 8        48.000    21059666.012 7  86235916.857 7        46.000    21059669.872 8  82642778.776 8        52.000  
G15  21830889.756 8 114722121.066 8        49.000    21830881.625 7  89393839.843 7        47.000                                                  
G17  20636362.707 8 108444850.921 8        49.000    20636354.952 7  84502465.953 7        47.000                                                  
G19  21229186.503 8 111560149.809 8        49.000    21229176.139 7  86929953.304 7        47.000                                                  
G21  25308462.030 6 132996858.492 6        36.000                                                                                                  
G24  23475020.632 7 123362077.362 7        42.000    23475015.128 6  96126272.948 6        40.000    23475015.771 7  92121018.315 7        46.000  
G28  20687771.689 8 108715058.048 8        49.000    20687763.327 7  84713028.076 7        46.000                                                  
G30  22410312.499 7 117767069.690 7        46.000    22410306.495 7  91766563.202 7        44.000    22410307.013 8  87942961.030 8        49.000  
R01  22037055.073 8 117800693.639 8        48.000    22037052.786 7  91622761.642 7        42.000  
R07  23580540.321 7 126228497.422 7        42.000    23580536.676 7  98177714.530 7        43.000  
R08  21542789.053 8 115360674.577 8        49.000    21542782.924 8  89724957.118 8        48.000  
R09  20712591.834 8 110604184.064 8        53.000    20712587.974 8  86025502.022 8        51.000  
R10  19895450.277 9 106053989.873 9        55.000                                                  
R19  21174708.069 6 113270418.654 6        40.000    21174704.799 7  88099218.371 7        46.000  
R20  21184558.761 6 113283336.169 6        40.000    21184558.707 8  88109297.281 8        48.000  
C02                                                  38715465.771 7 155891190.470 7        46.000  
C05                                                  37830174.637 8 152326445.558 8        48.000  
C07                                                  38545936.579 8 155208610.287 8        48.000  
C10                                                  37422520.254 8 150685094.741 8        49.000  
> 2021 11 07 16 53  0.0000000  0 21                     
G01  23599818.388 6 124017882.125 6        41.000    23599813.367 6  96637291.480 6        40.000    23599812.259 8  92610737.054 8        48.000  
G13  20949501.484 8 110090407.768 8        51.000    20949493.104 8  85784707.300 8        48.000                                                  
G14  21079308.250 8 110772594.205 8        48.000    21079300.620 7  86316316.348 7        46.000    21079304.247 8  82719828.299 8        52.000  
G15  21835953.336 8 114748729.896 8        49.000    21835944.831 7  89414573.978 7        46.000                                                  
G17  20633909.344 8 108431956.960 8        49.000    20633901.034 7  84492418.716 7        46.000                                                  
G19  21200047.255 8 111407022.643 8        49.000    21200036.551 7  86810633.462 7        47.000                                                  
G21  25325491.548 6 133086348.303 6        36.000    25325483.454 5 103703626.193 5        33.000                                                  
G24  23437800.404 7 123166484.411 7        43.000    23437794.829 6  95973862.913 6        41.000    23437795.097 7  91974958.668 7        46.000  
G28  20697514.595 8 108766256.032 8        48.000    20697505.697 7  84752922.589 7        46.000                                                  
G30  22440267.343 7 117924482.733 7        46.000    22440261.410 7  91889222.697 7        44.000    22440261.303 8  88060509.730 8        50.000  
R01  22029796.337 7 117761890.959 7        47.000    22029793.781 7  91592581.777 7        43.000  
R07  23628347.070 7 126484410.052 7        43.000    23628343.746 7  98376757.630 7        42.000  
R08  21570632.118 8 115509772.778 8        49.000    21570626.203 8  89840922.353 8        48.000  
R09  20732767.801 8 110711922.852 8        53.000    20732763.959 8  86109298.845 8        51.000  
R10  19886209.526 9 106004731.224 9        56.000                                                  
R19  21186903.480 6 113335656.322 6        41.000    21186900.157 7  88149958.801 7        45.000  
R20  21146895.667 6 113081935.171 6        41.000    21146895.703 8  87952652.086 8        48.000  
C02                                                  38715286.348 7 155890468.535 7        46.000  
C05                                                  37829958.136 8 152325574.744 8        48.000  
C07                                                  38553863.599 8 155240527.480 8        48.000  
C10                                                  37427819.366 8 150706431.765 8        49.000  
> 2021 11 07 16 54  0.0000000  0 21                     
G01  23595882.039 6 123997195.452 6        41.000    23595877.089 6  96621172.047 6        40.000    23595875.606 8  92595289.243 8        48.000  
G13  20967733.427 8 110186218.175 8        50.000    20967725.172 7  85859364.748 7        47.000                                                  
G14  21099123.192 8 110876723.239 8        48.000    21099115.848 7  86397455.840 7        45.000    21099119.064 8  82797586.972 8        51.000  
G15  21841471.916 8 114777730.554 8        50.000    21841463.446 7  89437171.884 7        47.000                                                  
G17  20631880.798 8 108421295.965 8        50.000    20631872.239 7  84484111.470 7        47.000                                                  
G19  21171258.704 8 111255737.612 8        50.000    21171248.572 7  86692749.068 7        47.000                                                  
G21  25342847.981 5 133177556.239 5        35.000    25342839.082 5 103774689.248 5        33.000                                                  
G24  23400669.485 6 122971359.467 6        41.000    23400663.821 6  95821817.495 6        40.000    23400663.874 7  91829248.506 7        45.000  
G28  20707440.409 8 108818415.322 8        49.000    20707431.260 7  84793566.212 7        46.000                                                  
G30  22470437.115 7 118083026.154 7        46.000    22470431.165 7  92012763.032 7        44.000    22470431.415 8  88178902.540 8        50.000  
R01  22023123.972 7 117726223.650 7        47.000    22023121.560 7  91564840.551 7        42.000  
R07  23676161.895 7 126740366.558 7        46.000    23676158.357 6  98575834.903 6        41.000  
R08  21598920.532 7 115661255.831 7        47.000    21598914.743 8  89958742.450 8        48.000  
R09  20753127.873 8 110820645.025 8        52.000    20753124.192 8  86193860.540 8        49.000  
R10  19877173.822 9 105956565.940 9        54.000                                                  
R19  21199709.030 6 113404156.863 6        41.000    21199705.492 7  88203237.008 7        45.000  
R20  21109628.194 6 112882649.284 6        40.000    21109628.444 7  87797651.982 7        47.000  
C02                                                  38715105.996 7 155889731.067 7        46.000  
C05                                                  37829739.437 8 152324693.689 8        48.000  
C07                                                  38561780.237 8 155272403.558 8        49.000  
C10                                                  37433115.655 8 150727757.661 8        50.000  
> 2021 11 07 16 55  0.0000000  0 21                     
G01  23592404.155 6 123978919.901 6        40.000    23592399.045 6  96606931.387 6        40.000    23592397.955 8  92581641.972 8        48.000  
G13  20986384.971 8 110284232.546 8        50.000    20986376.947 7  85935739.554 7        47.000                                                  
G14  21119117.038 8 110981790.950 8        48.000    21119109.605 7  86479326.786 7        46.000    21119112.249 8  82876046.635 8        51.000  
G15  21847444.351 8 114809114.691 8        49.000    21847436.382 7  89461627.052 7        47.000                                                  
G17  20630276.178 8 108412863.376 8        50.000    20630267.708 7  84477540.630 7        47.000                                                  
G19  21142823.638 8 111106310.419 8        49.000    21142813.596 7  86576312.315 7        47.000                                                  
G21  25360528.807 5 133270470.310 5        35.000    25360519.283 5 103847085.878 5        32.000                                                  
G24  23363629.074 6 122776715.264 6        41.000    23363624.052 6  95670146.692 6        41.000    23363623.391 7  91683897.288 7        46.000  
G28  20717546.717 8 108871525.792 8        48.000    20717538.015 7  84834950.992 7        46.000                                                  
G30  22500820.441 7 118242691.810 7        45.000    22500814.580 7  92137177.804 7        44.000    22500814.865 8  88298133.372 8        50.000  
R01  22017038.533 8 117693693.809 8        48.000    22017036.157 7  91539539.563 7        43.000  
R07  23723978.578 7 126996332.470 7        43.000    23723974.719 6  98774919.453 6        40.000  
R08  21627648.007 8 115815090.612 8        49.000    21627642.324 8  90078391.640 8        48.000  
R09  20773671.907 8 110930349.087 8        53.000    20773668.047 8  86279185.896 8        48.000  
R10  19868343.648 9 105909496.782 9        55.000                                                  
R19  21213121.912 6 113475906.386 6        41.000    21213118.231 7  88259042.212 7        46.000  
R20  21072762.434 6 112685511.400 6        41.000    21072762.523 8  87644322.547 8        49.000  
C02                                                  38714924.036 7 155888998.728 7        47.000  
C05                                                  37829517.611 8 152323801.090 8        49.000  
C07                                                  38569685.457 8 155304236.271 8        48.000  
C10                                                  37438408.960 8 150749070.262 8        50.000  
> 2021 11 07 16 56  0.0000000  0 21                     
G01  23589386.631 6 123963063.650 6        39.000    23589381.735 6  96594575.867 6        39.000    23589380.556 8  92569801.287 8        48.000  
G13  21005453.577 8 110384438.018 8        51.000    21005445.446 8  86013821.732 8        48.000                                                  
G14  21139288.056 8 111087788.685 8        48.000    21139280.104 7  86561922.405 7        46.000    21139283.035 8  82955200.795 8        52.000  
G15  21853868.730 8 114842874.570 8        49.000    21853860.831 7  89487933.437 7        46.000                                                  
G17  20629095.071 8 108406656.530 8        50.000    20629086.941 7  84472704.146 7        47.000                                                  
G19  21114745.739 8 110958759.809 8        49.000    21114735.661 7  86461337.843 7        46.000                                                  
G21  25378532.330 6 133365080.671 6        36.000    25378522.985 5 103920808.341 5        32.000                                                  
G24  23326683.922 7 122582566.739 7        42.000    23326678.954 6  95518862.178 6        41.000    23326679.008 7  91538916.288 7        45.000  
G28  20727832.270 8 108925578.764 8        48.000    20727823.782 7  84877070.202 7        46.000                                                  
G30  22531416.336 7 118403473.535 7        46.000    22531410.671 7  92262462.235 7        44.000    22531410.707 8  88418197.627 8        50.000  
R01  22011540.664 7 117664305.098 7        47.000    22011538.680 7  91516681.684 7        43.000  
R07  23771790.884 7 127252274.927 7        43.000    23771786.702 7  98973985.854 7        42.000  
R08  21656808.966 8 115971246.011 8        49.000    21656803.283 8  90199845.797 8        48.000  
R09  20794399.866 9 111041035.321 9        54.000    20794395.899 8  86365275.177 8        49.000  
R10  19859720.218 9 105863529.466 9        55.000                                                  
R19  21227139.517 6 113550891.361 6        41.000    21227135.907 7  88317363.868 7        45.000  
R20  21036304.999 6 112490556.774 6        40.000    21036305.124 8  87492691.238 8        48.000  
C02                                                  38714740.771 7 155888260.775 7        46.000  
C05                                                  37829293.230 8 152322897.278 8        48.000  
C07                                                  38577580.313 8 155336025.184 8        49.000  
C10                                                  37443698.316 8 150770368.588 8        49.000  
> 2021 11 07 16 57  0.0000000  0 21                     
G01  23586830.718 6 123949633.436 6        38.000    23586825.965 6  96584110.807 6        39.000    23586824.714 7  92559772.234 7        47.000  
G13  21024936.619 8 110486820.498 8        51.000    21024927.863 8  86093600.263 8        48.000                                                  
G14  21159633.690 8 111194706.860 8        48.000    21159625.595 7  86645235.260 7        45.000    21159629.133 8  83035042.271 8        52.000  
G15  21860743.354 8 114879002.466 8        49.000    21860735.706 7  89516085.051 7        46.000                                                  
G17  20628336.960 8 108402672.045 8        50.000    20628328.526 7  84469599.359 7        47.000                                                  
G19  21087027.579 8 110813101.554 8        49.000    21087017.733 7  86347837.943 7        47.000                                                  
G21  25396856.995 6 133461376.137 6        36.000    25396848.41815 103995848.75515        32.0001                                                 
G24  23289835.977 7 122388928.052 7        42.000    23289830.491 6  95367974.912 6        41.000    23289830.563 7  91394315.981 7        46.000  
G28  20738295.798 8 108980564.652 8        48.000    20738287.185 7  84919916.351 7        46.000                                                  
G30  22562223.192 7 118565364.099 7        45.000    22562217.510 7  92388610.720 7        44.000    22562218.278 8  88539089.879 8        50.000  
R01  22006630.810 8 117638059.036 8        48.000    22006628.988 7  91496268.099 7        44.000  
R07  23819592.593 7 127508160.382 7        45.000    23819587.608 7  99173007.789 7        42.000  
R08  21686397.369 7 116129689.944 7        46.000    21686391.866 7  90323079.914 7        47.000  
R09  20815311.680 8 111152702.885 8        53.000    20815307.338 8  86452127.725 8        50.000  
R10  19851304.587 9 105818669.142 9        55.000                                                  
R19  21241759.380 6 113629097.288 6        41.000    21241755.770 7  88378190.719 7        47.000  
R20  21000262.232 6 112297820.236 6        40.000    21000262.393 8  87342785.072 8        49.000  
C02                                                  38714555.988 7 155887516.843 7        46.000  
C05                                                  37829065.704 8 152321981.825 8        48.000  
C07                                                  38585463.858 8 155367768.919 8        49.000  
C10                                                  37448983.437 8 150791651.317 8        49.000  
> 2021 11 07 16 58  0.0000000  0 22                     
G01  23584738.148 6 123938638.715 6        39.000    23584733.270 6  96575543.462 6        39.000    23584731.912 7  92551561.917 7        46.000  
G13  21044831.382 8 110591367.867 8        51.000    21044822.322 8  86175065.764 8        48.000                                                  
G14  21180153.171 8 111302539.033 8        48.000    21180145.112 7  86729260.343 7        46.000    21180148.990 8  83115566.303 8        52.000  
G15  21868067.384 8 114917493.074 8        49.000    21868059.986 7  89546077.710 7        46.000                                                  
G17  20628001.577 8 108400908.582 8        50.000    20627993.393 7  84468225.253 7        47.000                                                  
G19  21059673.714 8 110669355.793 8        49.000    21059664.154 7  86235828.284 7        47.000                                                  
G21  25415500.676 5 133559349.898 5        34.000    25415491.885 5 104072191.023 5        30.000                                                  
G24  23253088.117 7 122195816.532 7        42.000    23253082.631 6  95217498.467 6        41.000    23253082.863 7  91250109.363 7        47.000  
G28  20748935.818 8 109036477.585 8        49.000    20748927.045 7  84963484.884 7        46.000                                                  
G30  22593240.064 7 118728359.228 7        46.000    22593234.453 7  92515619.907 7        44.000    22593233.649 8  88660807.023 8        49.000  
R01  22002309.759 8 117614960.164 8        49.000    22002308.026 7  91478302.309 7        44.000  
R07  23867377.934 7 127763959.016 7        43.000    23867373.002 6  99371962.266 6        41.000  
R08  21716407.357 8 116290392.275 8        49.000    21716401.800 7  90448070.532 7        47.000  
R09  20836407.598 8 111265354.123 8        53.000    20836403.328 8  86539745.322 8        50.000  
R10  19843098.006 9 105774923.958 9        54.000                                                  
R19  21256979.016 6 113710512.206 6        40.000    21256975.460 7  88441513.459 7        46.000  
R20  20964641.389 6 112107339.132 6        41.000    20964641.425 8  87194633.131 8        48.000  
C02                                                  38714370.239 7 155886768.971 7        46.000  
C05                                                  37828835.837 8 152321056.677 8        48.000  
C07                                                  38593336.700 8 155399468.750 8        49.000  
C10                                                  37454265.860 8 150812919.446 8        49.000  
C14                                                  26460794.848 7 106546656.942 7        46.000  
> 2021 11 07 16 59  0.0000000  0 22                     
G01  23583110.941 6 123930086.089 6        39.000    23583106.170 6  96568879.101 6        39.000    23583104.437 7  92545175.240 7        45.000  
G13  21065135.149 8 110698065.855 8        50.000    21065126.411 7  86258207.030 7        47.000                                                  
G14  21200844.999 7 111411276.522 7        47.000    21200836.780 7  86813990.833 7        45.000    21200841.443 8  83196766.332 8        52.000  
G15  21875839.962 8 114958337.210 8        49.000    21875832.618 7  89577904.281 7        46.000                                                  
G17  20628088.116 8 108401362.882 8        50.000    20628079.575 7  84468579.259 7        47.000                                                  
G19  21032687.165 8 110527539.247 8        49.000    21032676.962 7  86125321.903 7        47.000                                                  
G21  25434461.532 5 133658989.274 5        32.000    25434453.455 5 104149835.122 5        30.000                                                  
G24  23216443.450 7 122003247.243 7        42.000    23216437.536 6  95067444.466 6        41.000    23216438.697 7  91106307.672 7        47.000  
G28  20759750.848 8 109093309.230 8        49.000    20759741.645 7  85007769.269 7        46.000                                                  
G30  22624465.985 7 118892452.213 7        46.000    22624460.177 7  92643484.522 7        44.000    22624459.606 8  88783343.968 8        49.000  
R01  21998577.921 8 117595009.571 8        48.000    21998576.366 7  91462785.179 7        44.000  
R07  23915140.957 7 128019638.294 7        43.000    23915136.186 7  99570823.915 7        42.000  
R08  21746833.210 8 116453320.621 8        50.000    21746827.528 8  90574792.558 8        48.000  
R09  20857687.871 9 111378989.099 9        54.000    20857683.583 8  86628128.063 8        51.000  
R10  19835101.797 9 105732299.376 9        56.000                                                  
R19  21272795.442 6 113795119.989 6        40.000    21272791.958 7  88507319.521 7        46.000  
R20  20929448.492 6 111919146.982 6        41.000    20929448.563 7  87048261.502 7        47.000  
C02                                                  38714183.580 7 155886017.151 7        47.000  
C05                                                  37828603.664 8 152320122.023 8        48.000  
C07                                                  38601198.194 8 155431123.916 8        49.000  
C10                                                  37459543.904 8 150834171.714 8        49.000  
C14                                                  26448847.137 7 106498550.539 7        43.000  
> 2021 11 07 17 00  0.0000000  0 21                     
G01  23581948.776 6 123923979.197 6        39.000    23581943.933 6  96564120.509 6        39.000    23581942.414 7  92540614.940 7        46.000  
G13  21085844.810 8 110806897.235 8        50.000    21085836.287 7  86343010.682 7        47.000                                                  
G14  21221707.423 8 111520908.040 8        48.000    21221699.043 7  86899417.991 7        46.000    21221703.689 8  83278634.004 8        52.000  
G15  21884058.051 8 115001523.692 8        49.000    21884050.742 7  89611556.070 7        47.000                                                  
G17  20628595.239 8 108404028.080 8        50.000    20628586.590 7  84470656.064 7        47.000                                                  
G19  21006069.987 8 110387665.286 8        49.000    21006059.569 7  86016329.231 7        46.000                                                  
G24  23179904.157 6 121811232.775 6        41.000    23179898.850 6  94917822.847 6        41.000    23179899.690 7  90962920.306 7        47.000  
G28  20770738.206 8 109151048.490 8        49.000    20770729.343 7  85052760.914 7        46.000                                                  
G30  22655898.704 7 119057633.589 7        45.000    22655893.075 7  92772197.271 7        43.000    22655892.700 8  88906693.688 8        49.000  
R01  21995434.384 7 117578205.564 7        47.000    21995432.937 7  91449715.387 7        44.000  
R07  23962875.086 7 128275163.085 7        45.000    23962871.190 7  99769565.426 7        44.000  
R08  21777668.408 7 116618439.617 7        47.000    21777662.439 7  90703218.378 7        47.000  
R09  20879151.802 9 111493605.123 9        54.000    20879147.549 8  86717273.842 8        50.000  
R10  19827316.425 9 105690798.477 9        55.000                                                  
R19  21289205.209 6 113882902.533 6        40.000    21289202.154 7  88575594.799 7        46.000  
R20  20894689.793 6 111733276.526 6        40.000    20894689.722 8  86903695.609 8        48.000  
C02                                                  38713995.276 7 155885259.587 7        46.000  
C05                                                  37828368.508 8 152319175.949 8        48.000  
C07                                                  38609048.020 8 155462731.887 8        49.000  
C10                                                  37464816.857 8 150855405.494 8        48.000  
C14                                                  26437243.190 7 106451826.663 7        45.000  
> 2021 11 07 17 01  0.0000000  0 21                     
G01  23581253.921 6 123920325.750 6        40.000    23581248.221 6  96561273.667 6        40.000    23581246.505 7  92537886.756 7        47.000  
G13  21106958.329 8 110917849.692 8        50.000    21106950.020 7  86429467.122 7        47.000                                                  
G14  21242738.799 8 111631427.056 8        48.000    21242730.257 7  86985536.695 7        45.000    21242734.385 8  83361164.434 8        52.000  
G15  21892720.882 8 115047045.803 8        49.000    21892713.359 7  89647027.831 7        46.000                                                  
G17  20629522.534 8 108408901.574 8        50.000    20629514.046 7  84474453.599 7        47.000                                                  
G19  20979826.021 8 110249753.441 8        49.000    20979816.103 7  85908865.465 7        47.000                                                  
G24  23143473.919 7 121619790.446 7        43.000    23143468.308 7  94768647.038 7        42.000    23143469.380 7  90819960.175 7        47.000  
G28  20781897.000 8 109209689.158 8        49.000    20781887.958 7  85098454.929 7        46.000                                                  
G30  22687537.936 7 119223898.438 7        45.000    22687531.807 7  92901754.267 7        44.000    22687532.664 8  89030852.463 8        49.000  
R01  21992879.739 7 117564550.404 7        46.000    21992878.506 7  91439094.702 7        43.000  
R07  24010575.067 7 128530504.294 7        44.000    24010571.421 7  99968164.110 7        45.000  
R08  21808906.533 8 116785718.516 8        48.000    21808900.654 7  90833324.140 7        47.000  
R09  20900800.070 8 111609204.594 8        53.000    20900795.889 8  86807184.545 8        49.000  
R10  19819743.193 9 105650429.041 9        54.000                                                  
R19  21306206.012 6 113973845.598 6        41.000    21306203.028 7  88646328.352 7        46.000  
R20  20860371.781 6 111549763.001 6        40.000    20860371.727 8  86760962.869 8        49.000  
C02                                                  38713806.096 7 155884498.065 7        46.000  
C05                                                  37828131.207 8 152318220.289 8        48.000  
C07                                                  38616885.856 8 155494293.606 8        48.000  
C10                                                  37470085.449 8 150876621.409 8        48.000  
C14                                                  26425984.544 7 106406491.713 7        45.000  
> 2021 11 07 17 02  0.0000000  0 21                     
G01  23581025.787 6 123919126.550 6        40.000    23581020.051 6  96560339.305 6        40.000    23581018.872 7  92536991.269 7        46.000  
G13  21128471.972 8 111030903.015 8        50.000    21128463.538 7  86517560.606 7        47.000                                                  
G14  21263936.034 7 111742820.490 7        47.000    21263927.868 7  87072336.771 7        45.000    21263932.192 8  83444347.841 8        51.000  
G15  21901825.095 8 115094889.146 8        49.000    21901817.554 7  89684308.347 7        46.000                                                  
G17  20630868.250 8 108415974.525 8        50.000    20630860.334 7  84479965.010 7        47.000                                                  
G19  20953957.751 8 110113814.484 8        49.000    20953948.101 7  85802939.051 7        46.000                                                  
G24  23107155.058 7 121428931.130 7        43.000    23107149.144 7  94619925.525 7        42.000    23107149.662 7  90677435.416 7        46.000  
G28  20793224.889 8 109269218.171 8        48.000    20793215.954 7  85144841.184 7        46.000                                                  
G30  22719381.178 7 119391235.040 7        46.000    22719375.102 7  93032146.431 7        44.000    22719375.656 8  89155811.613 8        49.000  
R01  21990913.093 7 117554038.081 7        47.000    21990911.806 7  91430918.423 7        43.000  
R07  24058233.824 7 128785625.263 7        43.000    24058230.232 6 100166591.439 6        41.000  
R08  21840541.012 8 116955119.485 8        49.000    21840535.133 8  90965080.412 8        49.000  
R09  20922631.424 8 111725782.844 8        53.000    20922627.242 8  86897856.447 8        50.000  
R10  19812382.675 9 105611193.260 9        55.000                                                  
R19  21323793.616 6 114067927.380 6        41.000    21323790.614 7  88719503.064 7        44.000  
R20  20826499.940 6 111368635.520 6        41.000    20826499.993 8  86620085.968 8        48.000  
C02                                                  38713615.220 7 155883729.161 7        46.000  
C05                                                  37827890.547 8 152317251.615 8        48.000  
C07                                                  38624711.166 7 155525804.950 7        47.000  
C10                                                  37475348.841 8 150897815.157 8        49.000  
C14                                                  26415071.163 7 106362547.046 7        47.000  
> 2021 11 07 17 03  0.0000000  0 21                     
G01  23581266.215 6 123920390.634 6        41.000    23581260.854 6  96561324.292 6        41.000    23581259.746 7  92537935.232 7        47.000  
G13  21150383.004 8 111146045.988 8        51.000    21150374.480 8  86607282.383 8        48.000                                                  
G14  21285298.916 7 111855084.115 7        47.000    21285291.464 7  87159814.918 7        45.000    21285295.128 8  83528181.060 8        51.000  
G15  21911370.066 8 115145048.325 8        49.000    21911362.525 7  89723393.387 7        47.000                                                  
G17  20632632.477 8 108425245.941 8        49.000    20632624.507 7  84487189.499 7        47.000                                                  
G19  20928468.572 8 109979869.294 8        49.000    20928459.263 7  85698566.194 7        47.000                                                  
G24  23070950.399 7 121238674.576 7        43.000    23070945.020 7  94471673.690 7        42.000    23070944.716 7  90535360.726 7        46.000  
G28  20804721.175 8 109329631.471 8        49.000    20804712.115 7  85191916.467 7        46.000                                                  
G30  22751427.537 7 119559640.540 7        45.000    22751421.783 7  93163371.453 7        43.000    22751421.641 8  89281568.941 8        48.000  
R01  21989534.730 7 117546671.524 7        47.000    21989533.586 7  91425188.858 7        44.000  
R07  24105846.425 7 129040498.310 7        42.000    24105843.423 6 100364826.091 6        41.000  
R08  21872566.375 7 117126613.731 7        47.000    21872560.853 7  91098464.717 7        47.000  
R09  20944646.900 8 111843344.133 8        52.000    20944642.790 8  86989293.047 8        50.000  
R10  19805236.709 9 105573100.768 9        55.000                                                  
R19  21341965.322 6 114165134.461 6        40.000    21341962.374 7  88795108.557 7        46.000  
R20  20793081.293 6 111189931.386 6        41.000    20793081.239 8  86481093.893 8        49.000  
C02                                                  38713423.181 7 155882956.271 7        46.000  
C05                                                  37827647.493 8 152316273.329 8        48.000  
C07                                                  38632524.825 8 155557268.541 8        48.000  
C10                                                  37480607.694 8 150918989.160 8        48.000  
C14                                                  26404504.817 7 106320000.357 7        46.000  
> 2021 11 07 17 04  0.0000000  0 20                     
G01  23581976.062 6 123924120.831 6        40.000    23581970.897 6  96564230.997 6        40.000    23581969.897 7  92540720.765 7        46.000  
G13  21172688.387 8 111263261.095 8        51.000    21172679.738 8  86698618.837 8        48.000                                                  
G14  21306825.638 8 111968208.047 8        48.000    21306818.509 7  87247963.413 7        46.000    21306821.439 8  83612656.712 8        50.000  
G15  21921353.168 8 115197510.910 8        49.000    21921345.788 7  89764273.325 7        46.000                                                  
G17  20634813.695 8 108436708.844 8        50.000    20634806.029 7  84496121.664 7        47.000                                                  
G19  20903361.737 8 109847931.035 8        50.000    20903351.588 7  85595757.181 7        47.000                                                  
G24  23034863.353 7 121049034.823 7        43.000    23034857.778 7  94323902.513 7        42.000    23034857.545 7  90393746.673 7        47.000  
G28  20816384.179 8 109390919.844 8        49.000    20816374.547 7  85239673.648 7        46.000                                                  
G30  22783675.745 7 119729105.987 7        45.000    22783669.777 7  93295422.437 7        44.000    22783669.795 8  89408117.812 8        48.000  
R01  21988744.526 7 117542447.517 7        47.000    21988743.364 7  91421903.524 7        42.000  
R08  21904975.886 8 117300165.927 8        48.000    21904970.401 7  91233449.683 7        47.000  
R09  20966846.302 8 111961887.263 8        52.000    20966842.299 8  87081493.217 8        49.000  
R10  19798305.959 9 105536155.988 9        54.000                                                  
R19  21360717.611 6 114265446.824 6        41.000    21360714.681 7  88873129.316 7        45.000  
R20  20760121.827 6 111013682.289 6        41.000    20760121.737 8  86344011.311 8        49.000  
C02                                                  38713230.035 7 155882178.404 7        46.000  
C05                                                  37827401.848 8 152315284.430 8        48.000  
C07                                                  38640326.833 8 155588682.701 8        48.000  
C10                                                  37485860.597 8 150940141.438 8        48.000  
C14                                                  26394285.915 7 106278854.832 7        46.000  
> 2021 11 07 17 05  0.0000000  0 20                     
G01  23583155.667 6 123930321.981 6        40.000    23583150.789 6  96569063.059 6        40.000    23583149.342 7  92545351.511 7        46.000  
G13  21195385.030 8 111382533.421 8        50.000    21195376.507 7  86791558.298 7        47.000                                                  
G14  21328514.987 8 112082184.852 8        48.000    21328507.464 7  87336776.504 7        46.000    21328510.020 8  83697769.255 8        50.000  
G15  21931772.970 8 115252267.603 8        48.000    21931766.430 7  89806940.862 7        46.000                                                  
G17  20637411.100 8 108450358.282 8        50.000    20637403.006 7  84506757.600 7        47.000                                                  
G19  20878639.783 8 109718016.051 8        50.000    20878629.098 7  85494524.745 7        47.000                                                  
G24  22998896.315 7 120860028.620 7        44.000    22998890.990 7  94176625.016 7        43.000    22998890.151 7  90252605.677 7        47.000  
G28  20828212.221 8 109453075.705 8        49.000    20828202.357 7  85288106.784 7        46.000                                                  
G30  22816124.354 7 119899624.886 7        46.000    22816118.600 7  93428294.290 7        44.000    22816119.101 8  89535453.349 8        48.000  
R01  21988541.748 7 117541363.686 7        46.000    21988540.390 6  91421060.518 6        41.000  
R08  21937763.614 8 117475742.535 8        48.000    21937758.056 7  91370009.244 7        47.000  
R09  20989229.540 8 112081412.758 8        53.000    20989225.555 8  87174457.440 8        50.000  
R10  19791591.852 9 105500366.610 9        55.000                                                  
R19  21380047.266 6 114368846.938 6        41.000    21380044.246 7  88953551.611 7        44.000  
R20  20727627.723 6 110839921.667 6        41.000    20727627.687 8  86208864.186 8        49.000  
C02                                                  38713035.745 7 155881396.410 7        46.000  
C05                                                  37827153.825 8 152314285.811 8        48.000  
C07                                                  38648116.352 7 155620047.626 7        47.000  
C10                                                  37491108.336 8 150961271.830 8        48.000  
C14                                                  26384416.979 7 106239115.312 7        47.000  
> 2021 11 07 17 06  0.0000000  0 20                     
G01  23584807.033 6 123938999.462 6        40.000    23584802.155 6  96575824.772 6        40.000    23584800.850 7  92551831.496 7        47.000  
G13  21218470.307 8 111503848.363 8        50.000    21218461.944 7  86886089.399 7        47.000                                                  
G14  21350365.300 8 112197008.249 8        48.000    21350357.241 7  87426249.246 7        46.000    21350359.921 8  83783513.984 8        50.000  
G15  21942627.723 8 115309309.216 8        48.000    21942620.664 7  89851388.838 7        46.000                                                  
G17  20640423.853 8 108466190.083 8        50.000    20640415.651 7  84519094.064 7        47.000                                                  
G19  20854306.177 8 109590141.801 8        50.000    20854296.045 7  85394882.483 7        47.000                                                  
G24  22963053.754 7 120671673.718 7        43.000    22963047.750 7  94029854.949 7        42.000    22963047.982 7  90111951.084 7        47.000  
G28  20840203.997 8 109516092.958 8        49.000    20840194.705 7  85337211.128 7        47.000                                                  
G30  22848772.775 7 120071191.636 7        46.000    22848766.788 7  93561982.637 7        44.000    22848767.164 8  89663571.321 8        48.000  
R01  21988926.022 7 117543418.662 7        47.000    21988924.199 7  91422658.838 7        43.000  
R08  21970923.463 7 117653311.983 7        47.000    21970917.852 7  91508118.724 7        47.000  
R09  21011797.294 8 112201922.819 8        52.000    21011793.220 8  87268187.474 8        49.000  
R10  19785096.123 9 105465740.697 9        55.000                                                  
R19  21399950.838 6 114475316.770 6        41.000    21399947.461 7  89036361.516 7        44.000  
R20  20695605.415 6 110668683.606 6        40.000    20695605.219 8  86075679.044 8        50.000  
C02                                                  38712840.919 7 155880612.003 7        46.000  
C05                                                  37826903.856 8 152313279.053 8        48.000  
C07                                                  38655893.772 8 155651364.169 8        48.000  
C10                                                  37496350.786 8 150982381.054 8        48.000  
C14                                                  26374898.186 7 106200787.161 7        47.000  
> 2021 11 07 17 07  0.0000000  0 20                     
G01  23586928.050 6 123950145.480 6        38.000    23586923.011 6  96584510.001 6        39.000    23586922.457 8  92560154.837 8        49.000  
G13  21241939.392 8 111627178.632 8        50.000    21241930.994 7  86982190.893 7        47.000                                                  
G14  21372373.164 8 112312659.254 8        48.000    21372365.319 7  87516366.908 7        45.000    21372367.732 8  83869876.746 8        50.000  
G15  21953913.029 8 115368613.401 8        48.000    21953905.631 7  89897599.891 7        46.000                                                  
G17  20643848.755 8 108484187.797 8        50.000    20643840.536 7  84533118.282 7        47.000                                                  
G19  20830361.686 8 109464312.031 8        49.000    20830351.822 7  85296833.337 7        47.000                                                  
G24  22927335.757 7 120483975.246 7        44.000    22927329.645 7  93883596.447 7        43.000    22927329.788 8  89971786.647 8        48.000  
G28  20852356.041 8 109579953.026 8        49.000    20852347.035 7  85386972.225 7        46.000                                                  
G30  22881616.968 7 120243787.778 7        44.000    22881610.428 7  93696473.160 7        43.000    22881610.750 8  89792458.055 8        48.000  
R01  21989894.916 8 117548597.852 8        48.000    21989893.093 7  91426687.062 7        43.000  
R08  22004446.840 8 117832828.504 8        48.000    22004441.230 7  91647742.617 7        47.000  
R09  21034547.348 8 112323406.614 8        52.000    21034543.077 8  87362674.856 8        49.000  
R10  19778817.806 9 105432273.445 9        54.000                                                  
R19  21420422.448 7 114584825.610 7        42.000    21420419.017 7  89121535.030 7        46.000  
R20  20664058.674 6 110499989.354 6        41.000    20664058.692 8  85944472.438 8        49.000  
C02                                                  38712643.466 7 155879816.929 7        46.000  
C05                                                  37826649.794 8 152312256.087 8        48.000  
C07                                                  38663657.273 7 155682623.616 7        47.000  
C10                                                  37501585.409 8 151003460.126 8        48.000  
C14                                                  26365728.447 7 106163865.820 7        46.000  
> 2021 11 07 17 08  0.0000000  0 20                     
G01  23589521.382 6 123963773.540 6        40.000    23589516.325 6  96595129.307 6        40.000    23589515.932 8  92570331.663 8        49.000  
G13  21265790.660 8 111752517.669 8        50.000    21265782.387 7  87079857.659 7        47.000                                                  
G14  21394538.561 7 112429140.773 7        47.000    21394530.734 7  87607131.728 7        45.000    21394533.468 8  83956859.694 8        50.000  
G15  21965628.729 8 115430179.434 8        49.000    21965621.474 7  89945573.415 7        46.000                                                  
G17  20647686.271 8 108504354.624 8        50.000    20647678.462 7  84548832.711 7        47.000                                                  
G19  20806810.885 8 109340552.977 8        49.000    20806800.736 7  85200397.743 7        46.000                                                  
G24  22891748.007 7 120296960.218 7        43.000    22891741.789 7  93737870.445 7        42.000    22891742.700 8  89832132.632 8        48.000  
G28  20864668.834 8 109644658.808 8        49.000    20864660.221 7  85437392.319 7        46.000                                                  
G30  22914656.934 7 120417416.447 7        45.000    22914650.770 7  93831768.215 7        43.000    22914651.609 8  89922115.806 8        48.000  
R01  21991449.396 8 117556907.277 8        48.000    21991447.609 7  91433149.922 7        43.000  
R08  22038329.564 8 118014268.502 8        49.000    22038323.935 7  91788862.588 7        46.000  
R09  21057481.882 8 112445875.752 8        53.000    21057477.557 8  87457928.621 8        49.000  
R10  19772759.903 9 105399982.080 9        54.000                                                  
R19  21441460.149 6 114697363.104 6        41.000    21441456.701 7  89209064.217 7        44.000  
R20  20632995.575 6 110333881.305 6        41.000    20632995.593 8  85815277.298 8        49.000  
C02                                                  38712445.352 7 155879019.938 7        46.000  
C05                                                  37826393.999 8 152311225.466 8        48.000  
C07                                                  38671408.301 7 155713833.811 7        47.000  
C10                                                  37506815.082 8 151024516.682 8        48.000  
C14                                                  26356911.442 7 106128363.246 7        46.000  
> 2021 11 07 17 09  0.0000000  0 21                     
G01  23592586.562 6 123979881.314 6        40.000    23592581.631 6  96607680.810 6        40.000    23592580.558 8  92582360.213 8        48.000  
G13  21290020.251 8 111879844.765 8        50.000    21290012.014 7  87179073.528 7        47.000                                                  
G14  21416859.812 8 112546440.301 8        48.000    21416851.985 7  87698533.930 7        46.000    21416855.202 8  84044453.478 8        51.000  
G15  21977771.874 8 115493990.794 8        49.000    21977764.351 7  89995296.504 7        46.000                                                  
G17  20651934.774 8 108526679.799 8        50.000    20651926.429 7  84566228.951 7        47.000                                                  
G19  20783655.902 8 109218873.567 8        49.000    20783645.734 7  85105582.618 7        47.000                                                  
G24  22856292.381 7 120110640.309 7        43.000    22856286.109 7  93592686.084 7        42.000    22856286.627 7  89692997.624 7        47.000  
G28  20877140.715 8 109710198.120 8        49.000    20877132.245 7  85488461.890 7        47.000                                                  
G30  22947891.512 7 120592065.369 7        44.000    22947885.544 7  93967858.236 7        43.000    22947885.955 7  90052535.433 7        47.000  
R01  21993587.782 8 117568336.814 8        48.000    21993586.013 7  91442039.581 7        44.000  
R08  22072564.181 8 118197592.800 8        48.000    22072558.428 7  91931448.113 7        47.000  
R09  21080599.984 8 112569325.205 8        52.000    21080595.695 8  87553944.832 8        49.000  
R10  19766923.130 9 105368869.079 9        55.000                                                  
R19  21463059.456 6 114812904.911 6        41.000    21463055.918 7  89298930.081 7        45.000  
R20  20602421.105 6 110170386.189 6        40.000    20602421.070 8  85688114.454 8        48.000  
R21  24176577.933 7 129373750.786 7        42.000    24176574.734 6 100624016.361 6        40.000  
C02                                                  38712246.292 7 155878217.507 7        46.000  
C05                                                  37826135.416 8 152310183.928 8        48.000  
C07                                                  38679146.017 7 155744990.928 7        46.000  
C10                                                  37512038.216 8 151045546.657 8        49.000  
C14                                                  26348446.296 7 106094279.240 7        45.000  
> 2021 11 07 17 10  0.0000000  0 21                     
G01  23596124.790 6 123998474.880 6        40.000    23596119.697 6  96622169.308 6        40.000    23596118.125 8  92596245.035 8        48.000  
G13  21314625.646 8 112009146.234 8        50.000    21314617.301 7  87279827.920 7        47.000                                                  
G14  21439336.380 7 112664554.400 7        47.000    21439328.375 7  87790570.904 7        45.000    21439332.056 8  84132655.549 8        52.000  
G15  21990340.516 8 115560039.435 8        48.000    21990332.796 7  90046762.964 7        46.000                                                  
G17  20656593.246 8 108551160.596 8        50.000    20656584.973 7  84585304.915 7        47.000                                                  
G19  20760900.326 8 109099292.100 8        49.000    20760890.659 7  85012402.279 7        47.000                                                  
G24  22820972.274 7 119925036.189 7        44.000    22820967.431 7  93448059.556 7        43.000    22820967.860 7  89554397.218 7        47.000  
G28  20889770.433 8 109776567.820 8        49.000    20889762.178 7  85540178.539 7        46.000                                                  
G30  22981319.540 7 120767730.935 7        44.000    22981313.840 7  94104740.489 7        43.000    22981313.786 7  90183714.243 7        47.000  
R01  21996309.430 8 117582885.112 8        48.000    21996307.661 7  91453354.857 7        44.000  
R08  22107145.333 8 118382771.563 8        48.000    22107139.508 8  92075475.947 8        48.000  
R09  21103902.584 8 112693759.779 8        53.000    21103898.349 8  87650727.239 8        51.000  
R10  19761309.683 9 105338945.516 9        55.000                                                  
R19  21485217.098 6 114931433.406 6        41.000    21485213.381 7  89391118.901 7        45.000  
R20  20572342.018 6 110009539.545 6        40.000    20572341.822 8  85563011.524 8        49.000  
R21  24124832.780 7 129096850.460 7        43.000    24124829.367 6 100408649.603 6        41.000  
C02                                                  38712046.480 7 155877413.417 7        46.000  
C05                                                  37825874.957 8 152309135.067 8        48.000  
C07                                                  38686870.796 7 155776097.951 7        46.000  
C10                                                  37517255.095 8 151066552.717 8        48.000  
C14                                                  26340335.743 7 106061620.516 7        46.000  
> 2021 11 07 17 11  0.0000000  0 21                     
G01  23600133.902 6 124019543.093 6        39.000    23600128.309 6  96638586.134 6        39.000    23600127.719 8  92611977.815 8        48.000  
G13  21339600.857 8 112140392.052 8        50.000    21339592.584 7  87382097.367 7        47.000                                                  
G14  21461963.817 7 112783462.892 7        47.000    21461956.348 7  87883226.845 7        45.000    21461959.618 8  84221450.825 8        52.000  
G15  22003330.152 8 115628300.207 8        48.000    22003322.361 7  90099953.146 7        46.000                                                  
G17  20661658.257 8 108577777.235 8        50.000    20661649.894 7  84606045.158 7        47.000                                                  
G19  20738544.374 8 108981810.143 8        49.000    20738534.385 7  84920857.904 7        47.000                                                  
G24  22785790.294 7 119740152.040 7        43.000    22785785.219 7  93303993.998 7        42.000    22785784.451 7  89416334.385 7        46.000  
G28  20902554.326 8 109843747.735 8        49.000    20902545.641 7  85592526.511 7        46.000                                                  
G30  23014937.194 7 120944392.753 7        44.000    23014931.691 7  94242399.018 7        43.000    23014931.423 7  90315637.031 7        47.000  
R01  21999610.911 8 117600532.798 8        48.000    21999609.106 7  91467080.846 7        43.000  
R08  22142063.459 7 118569756.580 7        47.000    22142057.777 8  92220908.657 8        48.000  
R09  21127387.412 8 112819167.012 8        52.000    21127383.337 8  87748266.158 8        50.000  
R10  19755918.081 9 105310205.396 9        54.000                                                  
R19  21507926.589 6 115052914.136 6        41.000    21507922.980 7  89485603.897 7        46.000  
R20  20542761.423 6 109851358.672 6        40.000    20542761.119 8  85439981.992 8        50.000  
R21  24073060.020 7 128819802.657 7        45.000    24073056.107 6 100193168.085 6        40.000  
C02                                                  38711844.185 7 155876598.287 7        46.000  
C05                                                  37825610.371 8 152308069.661 8        48.000  
C07                                                  38694581.136 7 155807145.012 7        46.000  
C10                                                  37522463.004 8 151087524.779 8        48.000  
C14                                                  26332577.639 7 106030380.425 7        47.000  
> 2021 11 07 17 12  0.0000000  0 21                     
G01  23604616.364 6 124043098.943 6        40.000    23604611.164 6  96656941.317 6        40.000    23604610.396 8  92629568.218 8        49.000  
G13  21364944.993 8 112273576.562 8        50.000    21364936.755 7  87485877.487 7        47.000                                                  
G14  21484743.355 8 112903170.141 8        48.000    21484735.939 7  87976505.212 7        46.000    21484739.155 8  84310842.574 8        51.000  
G15  22016740.460 8 115698772.037 8        48.000    22016732.723 7  90154866.244 7        46.000                                                  
G17  20667130.573 8 108606533.934 8        50.000    20667122.246 7  84628452.982 7        47.000                                                  
G19  20716592.690 8 108866453.648 8        49.000    20716582.022 7  84830969.756 7        47.000                                                  
G24  22750750.587 7 119556016.450 7        44.000    22750745.673 7  93160511.724 7        43.000    22750744.959 7  89278830.519 7        47.000  
G28  20915493.517 8 109911742.825 8        49.000    20915484.297 7  85645509.699 7        46.000                                                  
G30  23048745.243 7 121122054.786 7        43.000    23048739.578 7  94380836.943 7        42.000    23048740.204 8  90448306.694 8        48.000  
R01  22003492.992 8 117621284.492 8        48.000    22003491.187 7  91483221.038 7        43.000  
R08  22177314.610 7 118758524.916 7        46.000    22177308.981 7  92367728.394 7        46.000  
R09  21151056.612 8 112945559.217 8        52.000    21151052.645 8  87846571.179 8        50.000  
R10  19750752.075 9 105282667.680 9        55.000                                                  
R19  21531186.178 6 115177336.650 6        40.000    21531182.497 7  89582376.991 7        46.000  
R20  20513687.200 6 109695886.153 6        41.000    20513686.932 8  85319058.914 8        50.000  
R21  24021267.479 7 128542649.417 7        44.000    24021263.208 6  99977604.575 6        40.000  
C02                                                  38711641.407 7 155875781.682 7        46.000  
C05                                                  37825344.158 8 152306997.191 8        48.000  
C07                                                  38702279.683 7 155838141.181 7        47.000  
C10                                                  37527665.087 8 151108471.601 8        48.000  
C14                                                  26325174.235 7 106000570.998 7        47.000  
> 2021 11 07 17 13  0.0000000  0 21                     
G01  23609573.106 6 124069143.661 6        39.000    23609567.888 6  96677235.925 6        39.000    23609566.584 8  92649017.240 8        48.000  
G13  21390654.693 8 112408682.734 8        49.000    21390646.456 7  87591155.017 7        47.000                                                  
G14  21507673.725 7 113023669.527 7        47.000    21507666.077 7  88070400.842 7        45.000    21507669.329 8  84400825.868 8        51.000  
G15  22030568.940 8 115771442.510 8        48.000    22030561.453 7  90211492.560 7        46.000                                                  
G17  20673008.320 8 108637423.285 8        50.000    20673000.333 7  84652522.616 7        47.000                                                  
G19  20695048.313 8 108753236.313 8        50.000    20695037.752 7  84742748.474 7        47.000                                                  
G24  22715856.513 7 119372646.932 7        46.000    22715850.956 7  93017626.415 7        44.000    22715851.331 7  89141898.772 7        47.000  
G28  20928586.311 8 109980546.013 8        49.000    20928577.323 7  85699122.572 7        47.000                                                  
G30  23082741.810 7 121300709.813 7        43.000    23082736.234 7  94520048.630 7        42.000    23082736.788 7  90581717.874 7        47.000  
R01  22007954.816 8 117645133.606 8        48.000    22007952.921 7  91501770.343 7        42.000  
R08  22212892.478 7 118949042.745 7        47.000    22212887.189 7  92515908.900 7        46.000  
R09  21174910.471 8 113072937.786 8        52.000    21174906.647 8  87945643.362 8        50.000  
R10  19745813.148 9 105256340.086 9        55.000                                                  
R19  21554991.362 6 115304678.726 6        41.000    21554987.949 7  89681420.812 7        45.000  
R20  20485125.265 6 109543152.560 6        41.000    20485124.711 8  85200266.145 8        49.000  
R21  23969461.143 7 128265422.221 7        44.000    23969456.533 6  99761983.483 6        41.000  
C02                                                  38711438.504 7 155874964.620 7        47.000  
C05                                                  37825076.248 8 152305918.578 8        48.000  
C07                                                  38709965.668 7 155869086.670 7        47.000  
C10                                                  37532862.078 8 151129393.255 8        49.000  
C14                                                  26318126.835 7 105972195.466 7        47.000  
> 2021 11 07 17 14  0.0000000  0 21                     
G01  23615000.196 6 124097664.293 6        39.000    23614995.103 6  96699459.814 6        39.000    23614993.817 8  92670315.167 8        48.000  
G13  21416724.025 8 112545678.503 8        50.000    21416716.020 7  87697904.946 7        47.000                                                  
G14  21530750.746 7 113144940.673 7        47.000    21530743.366 7  88164897.820 7        45.000    21530746.886 8  84491385.471 8        51.000  
G15  22044810.873 8 115846284.655 8        48.000    22044803.636 7  90269811.066 7        46.000                                                  
G17  20679288.156 8 108670423.852 8        50.000    20679280.365 7  84678237.338 7        47.000                                                  
G19  20673910.635 8 108642157.944 8        49.000    20673900.664 7  84656193.917 7        47.000                                                  
G24  22681109.483 7 119190047.445 7        45.000    22681104.230 7  92875334.141 7        44.000    22681103.694 8  89005542.006 8        48.000  
G28  20941828.866 8 110050137.514 8        49.000    20941820.467 7  85753349.713 7        46.000                                                  
G30  23116923.481 7 121480336.589 7        43.000    23116917.710 7  94660017.514 7        42.000    23116917.781 7  90715854.759 7        46.000  
R01  22012991.593 8 117672057.897 8        48.000    22012989.538 7  91522711.444 7        43.000  
R08  22248787.914 7 119141260.901 7        47.000    22248782.482 7  92665411.799 7        46.000  
R09  21198946.648 8 113201289.360 8        52.000    21198943.271 8  88045472.353 8        48.000  
R10  19741100.140 9 105231216.935 9        54.000                                                  
R19  21579335.619 7 115434903.751 7        42.000    21579332.152 7  89782706.943 7        45.000  
R20  20457078.511 6 109393174.026 6        41.000    20457077.939 8  85083616.232 8        49.000  
R21  23917644.121 7 127988138.671 7        43.000    23917639.440 6  99546318.530 6        40.000  
C02                                                  38711233.100 7 155874137.369 7        47.000  
C05                                                  37824804.478 8 152304824.345 8        48.000  
C07                                                  38717636.089 8 155899971.497 8        48.000  
C10                                                  37538049.134 8 151150279.366 8        48.000  
C14                                                  26311434.511 7 105945246.459 7        47.000  
> 2021 11 07 17 15  0.0000000  0 21                     
G01  23620899.243 6 124128668.601 6        37.000    23620894.615 6  96723619.013 6        38.000    23620894.079 8  92693467.730 8        48.000  
G13  21443151.202 8 112684553.872 8        50.000    21443143.376 7  87806119.505 7        47.000                                                  
G14  21553974.954 7 113266984.298 7        47.000    21553967.592 7  88259996.723 7        45.000    21553970.415 8  84582521.959 8        50.000  
G15  22059465.562 8 115923293.065 8        49.000    22059457.718 7  90329817.610 7        46.000                                                  
G17  20685969.581 8 108705535.067 8        50.000    20685961.718 7  84705596.750 7        47.000                                                  
G19  20653183.998 8 108533239.289 8        49.000    20653174.009 7  84571322.263 7        47.000                                                  
G24  22646513.214 7 119008242.951 7        46.000    22646507.550 7  92733668.292 7        44.000    22646508.372 7  88869778.953 7        47.000  
G28  20955221.770 8 110120517.618 8        48.000    20955213.389 7  85808191.348 7        46.000                                                  
G30  23151291.063 7 121660934.878 7        45.000    23151285.041 7  94800743.440 7        43.000    23151284.844 7  90850717.113 7        47.000  
R01  22018603.359 7 117702056.319 7        47.000    22018601.269 6  91546043.531 6        41.000  
R08  22284995.772 7 119335152.072 7        47.000    22284990.197 7  92816216.022 7        44.000  
R09  21223166.643 8 113330622.677 8        52.000    21223163.123 8  88146064.916 8        48.000  
R10  19736615.784 9 105207313.521 9        55.000                                                  
R19  21604215.999 6 115567996.552 6        40.000    21604212.372 7  89886223.589 7        45.000  
R20  20429553.818 6 109245987.457 6        40.000    20429553.247 8  84969137.813 8        50.000  
R21  23865823.847 7 127710837.756 7        43.000    23865818.951 7  99330640.032 7        43.000  
C02                                                  38711026.802 7 155873306.634 7        47.000  
C05                                                  37824530.296 8 152303720.913 8        48.000  
C07                                                  38725292.483 7 155930801.632 7        47.000  
C10                                                  37543227.738 8 151171135.635 8        48.000  
C14                                                  26305098.048 7 105919732.259 7        46.000  
> 2021 11 07 17 16  0.0000000  0 21                     
G01  23627270.818 6 124162153.712 6        37.000    23627266.190 6  96749711.305 6        38.000    23627265.958 7  92718472.835 7        47.000  
G13  21469932.025 8 112825288.610 8        50.000    21469924.520 7  87915782.917 7        47.000                                                  
G14  21577344.366 7 113389791.228 7        47.000    21577336.933 7  88355690.433 7        45.000    21577340.274 8  84674228.407 8        50.000  
G15  22074529.059 8 116002450.853 8        49.000    22074520.786 7  90391498.994 7        47.000                                                  
G17  20693050.645 8 108742746.306 8        50.000    20693042.765 7  84734592.527 7        47.000                                                  
G19  20632870.314 8 108426490.444 8        49.000    20632860.057 7  84488141.381 7        47.000                                                  
G24  22612071.155 7 118827248.500 7        45.000    22612066.438 7  92592633.702 7        43.000    22612065.133 8  88734620.770 8        48.000  
G28  20968763.255 8 110191678.189 8        49.000    20968754.570 7  85863641.148 7        46.000                                                  
G30  23185840.425 7 121842494.314 7        44.000    23185834.421 7  94942218.318 7        43.000    23185835.726 8  90986297.211 8        49.000  
R01  22024788.114 8 117735117.500 8        48.000    22024785.773 7  91571757.802 7        42.000  
R08  22321509.102 7 119530679.115 7        46.000    22321503.366 7  92968292.514 7        45.000  
R09  21247570.011 8 113460935.955 8        51.000    21247566.508 8  88247419.630 8        48.000  
R10  19732361.348 9 105184634.792 9        55.000                                                  
R19  21629627.430 7 115703929.817 7        42.000    21629623.731 7  89991949.455 7        46.000  
R20  20402556.208 6 109101619.373 6        40.000    20402555.547 8  84856851.525 8        50.000  
R21  23814005.468 7 127433548.741 7        44.000    23814001.126 7  99114970.891 7        42.000  
C02                                                  38710819.539 7 155872471.160 7        47.000  
C05                                                  37824253.594 8 152302607.240 8        48.000  
C07                                                  38732934.868 7 155961575.409 7        47.000  
C10                                                  37548399.515 8 151191960.171 8        50.000  
C14                                                  26299118.036 7 105895653.494 7        47.000  
> 2021 11 07 17 17  0.0000000  0 21                     
G01  23634115.262 6 124198120.994 6        39.000    23634110.276 6  96777737.777 6        39.000    23634109.937 8  92745331.543 8        48.000  
G13  21497063.671 8 112967865.741 8        50.000    21497055.808 7  88026881.946 7        47.000                                                  
G14  21600857.945 8 113513356.972 8        48.000    21600850.709 7  88451975.403 7        45.000    21600854.300 8  84766501.499 8        51.000  
G15  22089999.184 8 116083747.064 8        49.000    22089990.892 7  90454846.675 7        47.000                                                  
G17  20700530.225 8 108782051.352 8        50.000    20700521.916 7  84765219.841 7        47.000                                                  
G19  20612972.531 8 108321927.146 8        50.000    20612962.292 7  84406663.498 7        47.000                                                  
G24  22577787.004 7 118647084.098 7        45.000    22577780.911 7  92452245.838 7        44.000    22577781.858 8  88600082.438 8        48.000  
G28  20982452.499 8 110263614.472 8        49.000    20982443.261 7  85919695.384 7        47.000                                                  
G30  23220571.606 7 122025009.045 7        44.000    23220566.281 7  95084437.570 7        43.000    23220566.870 7  91122590.624 7        47.000  
R01  22031544.320 8 117771233.377 8        48.000    22031541.944 6  91599847.905 6        41.000  
R08  22358321.916 7 119727809.070 7        47.000    22358315.679 7  93121615.742 7        45.000  
R09  21272157.357 8 113592231.922 8        52.000    21272153.676 8  88349538.718 8        49.000  
R10  19728338.530 9 105163190.602 9        54.000                                                  
R19  21655565.800 7 115842682.501 7        42.000    21655562.208 7  90099868.191 7        44.000  
R20  20376091.310 6 108960099.774 6        41.000    20376090.595 8  84746780.761 8        48.000  
R21  23762195.772 7 127156305.406 7        44.000    23762191.698 7  98899337.176 7        42.000  
C02                                                  38710611.437 7 155871633.347 7        47.000  
C05                                                  37823975.034 8 152301485.672 8        48.000  
C07                                                  38740563.850 7 155992294.888 7        47.000  
C10                                                  37553564.842 8 151212754.714 8        50.000  
C14                                                  26293495.531 7 105873013.923 7        47.000  
> 2021 11 07 17 18  0.0000000  0 21                     
G01  23641429.893 6 124236558.263 6        40.000    23641423.960 6  96807688.925 6        40.000    23641423.853 7  92774034.718 7        46.000  
G13  21524540.242 8 113112255.974 8        50.000    21524532.272 7  88139393.795 7        47.000                                                  
G14  21624513.030 7 113637664.010 7        47.000    21624505.578 7  88548838.017 7        45.000    21624508.830 8  84859328.190 8        51.000  
G15  22105871.165 8 116167155.823 8        49.000    22105862.623 7  90519840.497 7        46.000                                                  
G17  20708404.300 8 108823430.614 8        50.000    20708396.437 7  84797463.428 7        47.000                                                  
G19  20593490.793 8 108219549.963 8        49.000    20593480.804 7  84326889.106 7        46.000                                                  
G24  22543661.798 7 118467756.363 7        46.000    22543656.509 7  92312509.996 7        44.000    22543655.973 8  88466168.872 8        48.000  
G28  20996286.053 8 110336309.463 8        49.000    20996276.547 7  85976340.831 7        47.000                                                  
G30  23255481.529 7 122208460.049 7        44.000    23255475.651 7  95227386.405 7        43.000    23255475.418 7  91259583.238 7        46.000  
R01  22038867.939 8 117810382.301 8        48.000    22038865.420 6  91630297.054 6        41.000  
R08  22395425.226 7 119926495.435 7        47.000    22395418.954 7  93276149.554 7        47.000  
R09  21296927.165 8 113724500.473 8        52.000    21296923.412 8  88452414.251 8        49.000  
R10  19724546.617 9 105142977.847 9        55.000                                                  
R19  21682024.444 6 115984218.384 6        41.000    21682020.710 7  90209951.648 7        46.000  
R20  20350162.446 6 108821446.578 6        41.000    20350161.803 8  84638939.451 8        51.000  
R21  23710398.425 7 126879128.470 7        44.000    23710394.565 7  98683755.168 7        43.000  
C02                                                  38710400.993 7 155870785.738 7        47.000  
C05                                                  37823692.506 8 152300348.585 8        48.000  
C07                                                  38748177.126 8 156022951.816 8        48.000  
C10                                                  37558719.912 8 151233510.903 8        49.000  
C14                                                  26288228.958 8 105851807.182 8        48.000  
> 2021 11 07 17 19  0.0000000  0 21                     
G01  23649216.802 6 124277477.001 6        39.000    23649211.495 6  96839573.652 6        39.000    23649210.387 7  92804590.914 7        47.000  
G13  21552360.899 8 113258453.818 8        50.000    21552352.786 7  88253314.173 7        47.000                                                  
G14  21648310.065 7 113762719.039 7        47.000    21648302.739 7  88646283.494 7        45.000    21648305.920 8  84952713.438 8        51.000  
G15  22122145.181 8 116252675.366 8        49.000    22122136.657 7  90586479.100 7        46.000                                                  
G17  20716673.923 8 108866887.685 8        49.000    20716666.150 7  84831326.097 7        47.000                                                  
G19  20574429.745 8 108119383.620 8        51.000    20574419.578 8  84248837.431 8        48.000                                                  
G24  22509702.113 7 118289296.362 7        45.000    22509695.663 7  92173450.228 7        44.000    22509696.699 8  88332903.335 8        48.000  
G28  21010264.400 8 110409769.427 8        49.000    21010255.716 7  86033582.373 7        46.000                                                  
G30  23290569.983 7 122392852.260 7        43.000    23290564.372 7  95371068.616 7        42.000    23290563.657 7  91397278.696 7        47.000  
R01  22046759.186 7 117852566.676 7        47.000    22046756.505 7  91663107.149 7        42.000  
R08  22432815.067 7 120126716.086 7        45.000    22432808.866 7  93431876.659 7        47.000  
R09  21321881.577 8 113857755.195 8        52.000    21321877.771 8  88556056.812 8        50.000  
R10  19720989.931 9 105124017.732 9        55.000                                                  
R19  21709001.183 6 116128525.534 6        39.000    21708997.413 7  90322190.580 7        45.000  
R20  20324777.051 6 108685699.667 6        40.000    20324776.444 8  84533358.521 8        50.000  
R21  23658621.233 7 126602063.381 7        44.000    23658618.499 7  98468260.066 7        43.000  
C02                                                  38710190.603 7 155869938.945 7        47.000  
C05                                                  37823408.943 7 152299206.905 7        47.000  
C07                                                  38755778.573 8 156053556.643 8        48.000  
C10                                                  37563866.584 8 151254238.962 8        48.000  
C14                                                  26283321.052 7 105832045.113 7        47.000  
> 2021 11 07 17 20  0.0000000  0 21                     
G01  23657472.380 6 124320861.180 6        38.000    23657466.930 6  96873379.520 6        39.000    23657466.608 7  92836988.167 7        47.000  
G13  21580519.173 8 113406425.589 8        49.000    21580510.418 7  88368616.831 7        46.000                                                  
G14  21672245.800 8 113888501.844 8        48.000    21672238.474 7  88744296.069 7        45.000    21672241.780 8  85046642.143 8        52.000  
G15  22138815.031 8 116340277.185 8        48.000    22138806.973 7  90654740.241 7        46.000                                                  
G17  20725334.270 8 108912398.815 8        50.000    20725326.890 7  84866789.328 7        47.000                                                  
G19  20555789.442 8 108021426.567 8        50.000    20555778.738 7  84172507.273 7        47.000                                                  
G24  22475908.003 7 118111708.031 7        47.000    22475902.160 7  92035069.751 7        45.000    22475902.017 8  88200288.680 8        48.000  
G28  21024384.967 8 110483974.772 8        49.000    21024376.747 7  86091404.713 7        46.000                                                  
G30  23325833.267 7 122578163.497 7        43.000    23325828.103 7  95515466.966 7        42.000    23325827.942 7  91535660.448 7        46.000  
R01  22055213.360 7 117897760.005 7        46.000    22055210.894 7  91698257.521 7        43.000  
R08  22470482.253 7 120328421.763 7        45.000    22470476.463 7  93588758.754 7        46.000  
R09  21347018.182 8 113991983.041 8        51.000    21347014.340 8  88660456.174 8        50.000  
R10  19717666.918 9 105106304.150 9        55.000                                                  
R19  21736488.547 6 116275564.541 6        40.000    21736484.795 7  90436554.222 7        46.000  
R20  20299937.626 6 108552872.072 6        41.000    20299936.876 8  84430048.171 8        50.000  
R21  23606869.165 7 126325127.950 7        44.000    23606866.449 7  98252865.824 7        42.000  
C02                                                  38709978.016 7 155869083.216 7        47.000  
C05                                                  37823121.806 8 152298050.679 8        48.000  
C07                                                  38763363.562 8 156084099.135 8        48.000  
C10                                                  37569004.000 7 151274928.147 7        47.000  
C14                                                  26278769.454 7 105813718.680 7        46.000  
> 2021 11 07 17 21  0.0000000  0 21                     
G01  23666198.253 6 124366715.000 6        39.000    23666192.374 6  96909109.824 6        40.000    23666191.873 7  92871229.680 7        45.000  
G13  21609012.474 8 113556159.474 8        49.000    21609004.004 7  88485292.578 7        46.000                                                  
G14  21696320.020 7 114015012.756 7        47.000    21696312.676 7  88842875.993 7        45.000    21696316.232 8  85141114.564 8        52.000  
G15  22155879.680 8 116429952.435 8        48.000    22155871.925 7  90724617.030 7        46.000                                                  
G17  20734385.180 8 108959961.646 8        49.000    20734377.407 7  84903851.268 7        46.000                                                  
G19  20537572.509 8 107925696.584 8        50.000    20537562.091 7  84097912.500 7        47.000                                                  
G24  22442284.684 7 117935016.132 7        47.000    22442278.502 7  91897387.758 7        45.000    22442279.574 8  88068343.477 8        49.000  
G28  21038647.985 8 110558925.952 8        49.000    21038639.515 7  86149808.223 7        46.000                                                  
G30  23361272.149 7 122764392.030 7        42.000    23361267.003 6  95660580.099 6        41.000    23361266.485 7  91674727.232 7        47.000  
R01  22064229.479 7 117945956.765 7        46.000    22064227.228 7  91735743.820 7        44.000  
R08  22508421.351 7 120531583.715 7        46.000    22508415.722 7  93746773.525 7        46.000  
R09  21372338.605 8 114127191.193 8        51.000    21372334.638 8  88765618.021 8        49.000  
R10  19714580.348 9 105089851.192 9        55.000                                                  
R19  21764483.034 6 116425316.286 6        41.000    21764479.407 7  90553027.750 7        45.000  
R20  20275650.300 6 108422996.748 6        41.000    20275649.496 8  84329034.070 8        51.000  
R21  23555148.636 7 126048361.430 7        44.000    23555145.992 7  98037602.961 7        42.000  
C02                                                  38709764.767 7 155868224.412 7        47.000  
C05                                                  37822832.417 8 152296885.907 8        48.000  
C07                                                  38770935.132 8 156114584.683 8        49.000  
C10                                                  37574134.089 8 151295583.993 8        49.000  
C14                                                  26274576.363 7 105796834.344 7        46.000  
> 2021 11 07 17 22  0.0000000  0 22                     
G01  23675393.044 6 124415031.298 6        40.000    23675386.629 6  96946758.858 6        40.000    23675385.879 7  92907310.054 7        44.000  
G06  24654714.158 6 129561403.722 6        40.000    24654709.637 6 100956911.210 6        40.000    24654709.405 7  96750373.937 7        43.000  
G13  21637836.691 8 113707631.537 8        49.000    21637828.257 7  88603322.723 7        47.000                                                  
G14  21720531.099 7 114142241.460 7        47.000    21720523.022 7  88942015.259 7        45.000    21720527.042 8  85236123.018 8        51.000  
G15  22173334.964 8 116521681.279 8        48.000    22173327.584 7  90796094.024 7        46.000                                                  
G17  20743823.848 8 109009561.718 8        49.000    20743816.039 7  84942500.684 7        46.000                                                  
G19  20519780.823 8 107832199.611 8        49.000    20519770.352 7  84025057.748 7        47.000                                                  
G24  22408834.820 7 117759234.634 7        45.000    22408829.370 7  91760415.195 7        43.000    22408828.977 7  87937078.082 7        47.000  
G28  21053050.936 8 110634612.516 8        49.000    21053042.073 7  86208784.753 7        46.000                                                  
G30  23396881.521 7 122951525.371 7        42.000    23396876.624 6  95806398.239 6        41.000    23396878.000 8  91814469.574 8        48.000  
R01  22073804.220 7 117997139.388 7        46.000    22073802.183 7  91775552.529 7        44.000  
R08  22546624.822 7 120736161.399 7        47.000    22546619.247 7  93905889.494 7        47.000  
R09  21397841.632 8 114263376.035 8        51.000    21397837.719 8  88871539.567 8        48.000  
R10  19711731.293 9 105074663.680 9        55.000                                                  
R19  21792978.872 6 116577749.874 6        40.000    21792975.245 7  90671587.254 7        44.000  
R20  20251919.201 6 108296095.823 6        41.000    20251918.361 8  84230333.343 8        50.000  
R21  23503464.775 7 125771791.976 7        44.000    23503462.130 7  97822493.430 7        42.000  
C02                                                  38709550.106 7 155867360.294 7        47.000  
C05                                                  37822540.437 8 152295710.268 8        48.000  
C07                                                  38778491.477 8 156145010.753 8        49.000  
C10                                                  37579255.816 8 151316203.239 8        49.000  
C14                                                  26270740.634 7 105781390.160 7        46.000  
> 2021 11 07 17 23  0.0000000  0 22                     
G01  23685055.236 6 124465808.791 6        40.000    23685049.214 6  96986325.776 6        40.000    23685048.088 7  92945228.301 7        43.000  
G06  24616204.126 7 129359033.727 7        42.000    24616199.158 6 100799220.325 6        41.000    24616199.355 7  96599253.508 7        45.000  
G13  21666988.430 8 113860824.100 8        50.000    21666979.817 7  88722693.526 7        47.000                                                  
G14  21744877.696 7 114270183.904 7        47.000    21744870.066 7  89041710.675 7        45.000    21744873.854 8  85331664.445 8        50.000  
G15  22191178.595 8 116615449.845 8        48.000    22191171.251 7  90869160.411 7        46.000                                                  
G17  20753648.612 8 109061191.477 8        49.000    20753640.482 7  84982731.674 7        47.000                                                  
G19  20502416.189 8 107740949.260 8        50.000    20502405.914 7  83953953.608 7        47.000                                                  
G24  22375561.127 7 117584383.717 7        45.000    22375555.909 7  91624167.738 7        44.000    22375555.588 8  87806507.636 8        48.000  
G28  21067593.033 8 110711031.443 8        49.000    21067584.134 7  86268331.975 7        46.000                                                  
G30  23432663.131 7 123139556.844 7        43.000    23432658.128 7  95952916.300 7        42.000    23432657.127 7  91954882.751 7        46.000  
R01  22083935.188 7 118051296.712 7        47.000    22083933.937 7  91817674.836 7        44.000  
R08  22585086.625 7 120942122.238 7        46.000    22585081.622 7  94066081.172 7        46.000  
R09  21423528.156 8 114400540.664 8        52.000    21423524.225 7  88978223.119 7        47.000  
R10  19709121.433 9 105060751.344 9        55.000                                                  
R19  21821971.416 6 116732840.969 6        40.000    21821968.003 7  90792213.642 7        45.000  
R20  20228749.368 6 108172196.206 6        41.000    20228748.386 8  84133967.012 8        50.000  
R21  23451824.603 7 125495454.411 7        44.000    23451821.815 7  97607564.259 7        42.000  
C02                                                  38709334.731 7 155866493.182 7        47.000  
C05                                                  37822246.420 8 152294526.082 8        48.000  
C07                                                  38786033.188 8 156175379.200 8        48.000  
C10                                                  37584367.964 8 151336787.775 8        49.000  
C14                                                  26267263.698 7 105767388.648 7        47.000  
> 2021 11 07 17 24  0.0000000  0 23                     
G01  23695184.006 6 124519035.774 6        40.000    23695178.198 6  97027801.329 6        40.000    23695176.697 7  92984975.704 7        42.000  
G06  24577681.568 6 129156596.014 6        40.000    24577675.975 6 100641476.614 6        40.000    24577676.922 7  96448082.482 7        42.000  
G12  25119671.728 6 132004764.280 6        41.000    25119663.616 6 102860822.825 6        41.000                                                  
G13  21696462.240 8 114015709.696 8        49.000    21696453.537 7  88843383.580 7        46.000                                                  
G14  21769357.221 7 114398826.372 7        46.000    21769350.342 7  89141951.523 7        45.000    21769353.433 8  85427728.602 8        50.000  
G15  22209405.892 8 116711234.575 8        48.000    22209398.155 7  90943797.834 7        46.000                                                  
G17  20763856.131 8 109114832.725 8        50.000    20763848.215 7  85024530.049 7        47.000                                                  
G19  20485479.840 8 107651947.859 8        49.000    20485469.601 7  83884601.872 7        47.000                                                  
G24  22342467.017 7 117410473.866 7        45.000    22342462.139 7  91488653.594 7        44.000    22342461.978 8  87676639.892 8        48.000  
G28  21082271.434 8 110788168.452 8        48.000    21082262.857 7  86328438.729 7        46.000                                                  
G30  23468612.425 7 123328470.175 7        43.000    23468606.742 7  96100121.454 7        42.000    23468606.206 8  92095954.343 8        48.000  
R01  22094618.880 7 118108406.313 7        46.000    22094617.558 7  91862093.385 7        43.000  
R08  22623798.398 8 121149422.453 8        48.000    22623793.538 7  94227314.530 7        46.000  
R09  21449396.676 8 114538677.222 8        51.000    21449392.691 8  89085662.680 8        48.000  
R10  19706750.857 9 105048114.902 9        54.000                                                  
R19  21851454.356 6 116890554.998 6        41.000    21851450.997 7  90914880.121 7        45.000  
R20  20206143.929 6 108051315.131 6        41.000    20206142.946 8  84039948.417 8        51.000  
R21  23400232.302 7 125219373.149 7        44.000    23400229.425 7  97392834.407 7        42.000  
C02                                                  38709117.461 7 155865617.869 7        47.000  
C05                                                  37821948.919 8 152293328.224 8        48.000  
C07                                                  38793559.406 8 156205684.553 8        48.000  
C10                                                  37589469.392 8 151357331.785 8        49.000  
C14                                                  26264143.409 7 105754824.561 7        47.000  
> 2021 11 07 17 25  0.0000000  0 23                     
G01  23705779.086 6 124574713.315 6        38.000    23705773.528 6  97071186.384 6        39.000    23705771.045 7  93026553.116 7        43.000  
G06  24539151.720 6 128954120.728 6        38.000    24539146.788 6 100483703.529 6        39.000    24539146.716 6  96296883.252 6        39.000  
G12  25083909.684 6 131816835.204 6        40.000    25083901.983 6 102714384.600 6        40.000                                                  
G13  21726255.172 8 114172273.811 8        49.000    21726247.328 7  88965381.576 7        46.000                                                  
G14  21793970.264 7 114528168.202 7        47.000    21793962.973 7  89242737.357 7        45.000    21793966.565 8  85524315.022 8        50.000  
G15  22228014.335 8 116809024.027 8        48.000    22228006.812 7  91019997.393 7        45.000                                                  
G17  20774445.635 8 109170479.612 8        50.000    20774437.469 7  85067891.271 7        47.000                                                  
G19  20468974.134 8 107565210.268 8        50.000    20468963.645 7  83817014.161 7        47.000                                                  
G24  22309556.494 7 117237528.730 7        46.000    22309551.902 7  91353891.166 7        44.000    22309551.384 8  87547492.563 8        48.000  
G28  21097086.891 8 110866023.271 8        49.000    21097078.189 7  86389104.813 7        46.000                                                  
G30  23504727.972 6 123518261.906 6        41.000    23504723.254 6  96248011.092 6        41.000    23504723.540 7  92237681.891 7        47.000  
R01  22105852.992 7 118168458.876 7        47.000    22105851.670 7  91908800.906 7        43.000  
R08  22662754.744 8 121358031.634 8        49.000    22662749.795 7  94389566.034 7        47.000  
R09  21475448.336 8 114677792.009 8        51.000    21475444.404 7  89193863.019 7        47.000  
R10  19704621.977 9 105036767.082 9        55.000                                                  
R19  21881423.585 6 117050869.917 6        39.000    21881420.172 7  91039569.484 7        46.000  
R20  20184108.511 6 107933482.099 6        41.000    20184107.653 8  83948300.533 8        51.000  
R21  23348695.359 7 124943586.939 7        45.000    23348691.857 7  97178334.071 7        42.000  
C02                                                  38708899.066 7 155864739.417 7        47.000  
C05                                                  37821649.255 8 152292121.614 8        48.000  
C07                                                  38801071.739 8 156235931.326 8        48.000  
C10                                                  37594562.635 8 151377839.711 8        49.000  
C14                                                  26261380.518 7 105743702.489 7        46.000  
> 2021 11 07 17 26  0.0000000  0 23                     
G01  23716840.154 6 124632840.453 6        39.000    23716834.686 6  97116480.266 6        40.000    23716832.792 7  93069959.724 7        45.000  
G06  24500620.048 6 128751636.715 6        37.000    24500615.885 6 100325923.909 6        38.000    24500615.224 7  96145677.677 7        45.000  
G12  25048199.264 6 131629177.269 6        37.000    25048191.705 6 102568157.731 6        38.000                                                  
G13  21756364.547 8 114330499.546 8        49.000    21756356.739 7  89088674.333 7        46.000                                                  
G14  21818716.037 7 114658207.248 7        47.000    21818708.210 7  89344066.459 7        45.000    21818712.195 8  85621422.100 8        51.000  
G15  22247002.245 8 116908805.391 8        49.000    22246994.793 7  91097749.076 7        46.000                                                  
G17  20785415.357 8 109228125.519 8        50.000    20785407.227 7  85112810.153 7        47.000                                                  
G19  20452902.002 8 107480750.642 8        50.000    20452891.835 7  83751201.484 7        47.000                                                  
G24  22276833.935 7 117065570.434 7        46.000    22276829.218 7  91219897.709 7        44.000    22276828.825 7  87419082.150 7        47.000  
G28  21112038.618 8 110944594.448 8        49.000    21112030.184 7  86450329.095 7        46.000                                                  
G30  23541010.826 7 123708926.844 7        43.000    23541005.412 7  96396581.176 7        42.000    23541005.716 7  92380061.575 7        46.000  
R01  22117635.718 8 118231442.347 8        48.000    22117634.468 7  91957788.052 7        43.000  
R08  22701949.535 7 121567917.369 7        46.000    22701944.496 7  94552810.483 7        45.000  
R09  21501684.046 8 114817889.248 8        51.000    21501680.204 8  89302827.522 8        49.000  
R10  19702737.349 9 105026720.565 9        55.000                                                  
R19  21911874.491 6 117213761.449 6        38.000    21911871.167 7  91166262.868 7        44.000  
R20  20162648.261 7 107818724.920 7        42.000    20162647.564 8  83859044.956 8        50.000  
R21  23297220.029 7 124668132.130 7        44.000    23297216.420 6  96964091.513 6        41.000  
C02                                                  38708681.064 7 155863861.458 7        47.000  
C05                                                  37821348.430 8 152290909.943 8        48.000  
C07                                                  38808569.421 8 156266122.935 8        48.000  
C10                                                  37599647.605 8 151398314.482 8        49.000  
C14                                                  26258977.242 7 105734025.559 7        46.000  
> 2021 11 07 17 27  0.0000000  0 23                     
G01  23728364.083 6 124693398.231 6        39.000    23728358.687 6  97163668.161 6        39.000    23728357.096 7  93115181.430 7        45.000  
G06  24462088.860 6 128549155.231 6        37.000    24462084.518 6 100168146.104 6        38.000    24462084.714 7  95994474.040 7        46.000  
G12  25012539.306 6 131441781.746 6        40.000    25012531.229 6 102422135.214 6        40.000                                                  
G13  21786783.789 8 114490353.007 8        49.000    21786776.016 7  89213235.447 7        46.000                                                  
G14  21843590.468 7 114788924.005 7        46.000    21843582.623 7  89445923.633 7        45.000    21843586.697 8  85719035.232 8        51.000  
G15  22266363.528 8 117010547.956 8        48.000    22266355.504 7  91177028.964 7        46.000                                                  
G17  20796760.525 8 109287744.946 8        50.000    20796752.430 7  85159266.858 7        47.000                                                  
G19  20437262.586 8 107398564.154 8        50.000    20437252.526 7  83687160.067 7        47.000                                                  
G24  22244300.216 7 116894603.597 7        46.000    22244294.730 7  91086676.804 7        44.000    22244294.480 8  87291412.113 8        48.000  
G28  21127122.807 8 111023861.791 8        49.000    21127114.552 7  86512095.835 7        46.000                                                  
G30  23577455.449 7 123900442.300 7        44.000    23577448.963 7  96545813.987 7        43.000    23577449.427 7  92523076.367 7        47.000  
R01  22129960.859 7 118297327.162 7        47.000    22129959.644 7  92009031.758 7        43.000  
R08  22741373.710 7 121779031.188 7        44.000    22741368.707 7  94717009.946 7        46.000  
R09  21528101.306 8 114958955.348 8        51.000    21528097.446 8  89412545.553 8        50.000  
R10  19701095.722 9 105017969.816 9        55.000                                                  
R19  21942799.086 6 117379187.925 6        41.000    21942795.709 7  91294927.930 7        44.000  
R20  20141764.948 6 107707052.417 6        40.000    20141764.269 8  83772188.570 8        51.000  
R21  23245810.171 7 124393027.932 7        45.000    23245806.597 7  96750121.619 7        44.000  
C02                                                  38708460.685 7 155862974.211 7        46.000  
C05                                                  37821043.781 8 152289683.511 8        48.000  
C07                                                  38816051.484 8 156296249.408 8        48.000  
C10                                                  37604721.532 8 151418745.940 8        48.000  
C14                                                  26256930.578 7 105725783.397 7        47.000  
> 2021 11 07 17 28  0.0000000  0 24                     
G01  23740350.374 6 124756386.698 6        39.000    23740345.174 6  97212750.060 6        39.000    23740342.958 7  93162218.264 7        45.000  
G06  24423564.211 6 128346707.147 6        41.000    24423559.905 6 100010394.444 6        41.000    24423561.191 7  95843295.359 7        46.000  
G12  24976930.828 6 131254659.139 6        40.000    24976923.859 6 102276325.537 6        40.000                                                  
G13  21817509.735 8 114651819.086 8        49.000    21817501.640 7  89339053.141 7        46.000                                                  
G14  21868594.073 7 114920318.364 7        46.000    21868585.764 7  89548308.848 7        44.000    21868590.213 8  85817154.376 8        51.000  
G15  22286095.396 8 117114240.063 8        48.000    22286087.659 7  91257827.990 7        46.000                                                  
G17  20808480.531 8 109349332.885 8        50.000    20808472.097 7  85207257.474 7        47.000                                                  
G19  20422058.353 8 107318664.808 8        50.000    20422048.382 7  83624900.854 7        47.000                                                  
G24  22211959.929 7 116724652.376 7        46.000    22211954.443 7  90954247.313 7        44.000    22211954.461 8  87164500.509 8        49.000  
G28  21142339.459 8 111103826.232 8        49.000    21142330.972 7  86574405.775 7        46.000                                                  
G30  23614060.625 7 124092804.875 7        43.000    23614054.514 7  96695706.912 7        42.000    23614055.014 7  92666723.752 7        46.000  
R01  22142826.699 7 118366102.012 7        47.000    22142825.394 7  92062523.252 7        42.000  
R02  24016633.595 7 128157357.950 7        45.000    24016631.450 7  99677937.797 7        42.000  
R08  22781021.302 7 121991342.426 7        43.000    22781016.352 7  94882140.871 7        47.000  
R09  21554701.151 8 115100996.419 8        51.000    21554697.202 8  89523021.923 8        49.000  
R10  19699699.561 9 105010527.686 9        55.000                                                  
R19  21974193.441 6 117547126.863 6        40.000    21974189.956 7  91425547.092 7        43.000  
R20  20121463.665 7 107598492.624 7        42.000    20121463.058 8  83687753.198 8        51.000  
R21  23194473.040 7 124118313.040 7        43.000    23194469.698 7  96536454.576 7        43.000  
C02                                                  38708239.360 7 155862082.713 7        47.000  
C05                                                  37820736.791 8 152288447.436 8        48.000  
C07                                                  38823518.574 8 156326315.615 8        48.000  
C10                                                  37609786.167 8 151439138.625 8        49.000  
C14                                                  26255241.580 7 105718980.159 7        47.000  
