     3.02           OBSERVATION DATA    M                   RINEX VERSION / TYPE
HIVE                geosystems.aero     18-JAN-22 05:31     PGM / RUN BY / DATE 
ALAT                                                        MARKER NAME         
113                                                         MARKER NUMBER       
                                                            MARKER TYPE         
geosystems.aero     Industrial Geodetic Systems             OBSERVER / AGENCY   
                    CHC N71                                 REC # / TYPE / VERS 
                    CHCC220GR       CHCD                    ANT # / TYPE        
  2529868.2689  2674077.3901  5191362.5543                  APPROX POSITION XYZ 
        0.0000        0.0000        0.0000                  ANTENNA: DELTA H/E/N
G  6   C1C L1C S1C C2W L2W S2W                              SYS / # / OBS TYPES 
R  6   C1C L1C S1C C2P L2P S2P                              SYS / # / OBS TYPES 
    60.000                                                  INTERVAL            
  2021    11    07    00    00   00.0000000     GPS         TIME OF FIRST OBS   
  2021    11    07    23    59   00.0000000     GPS         TIME OF LAST OBS    
 C1C    0.000 C1P    0.000 C2C    0.000 C2P    0.000        GLONASS COD/PHS/BIS 
    18                                                      LEAP SECONDS        
    49                                                      # OF SATELLITES     
   G01   318   318   318   318   318   318                  PRN / # OF OBS      
   G02   163   163   163   163   163   163                  PRN / # OF OBS      
   G04   287   287   287   287   287   287                  PRN / # OF OBS      
   G05   140   140   140   140   140   140                  PRN / # OF OBS      
   G06   226   226   226   226   226   226                  PRN / # OF OBS      
   G07   161   161   161   161   161   161                  PRN / # OF OBS      
   G08   289   289   289   289   289   289                  PRN / # OF OBS      
   G09   205   205   205   205   205   205                  PRN / # OF OBS      
   G10   375   375   375   375   375   375                  PRN / # OF OBS      
   G12    90    90    90    90    90    90                  PRN / # OF OBS      
   G13   190   190   190   190   190   190                  PRN / # OF OBS      
   G14    87    87    87    87    87    87                  PRN / # OF OBS      
   G15   241   241   241   241   241   241                  PRN / # OF OBS      
   G16   384   384   384   384   384   384                  PRN / # OF OBS      
   G17   191   191   191   191   191   191                  PRN / # OF OBS      
   G18   280   280   280   280   280   280                  PRN / # OF OBS      
   G19   163   163   163   163   163   163                  PRN / # OF OBS      
   G20   134   134   134   134   134   134                  PRN / # OF OBS      
   G21   345   345   345   345   345   345                  PRN / # OF OBS      
   G22   377   377   377   377   377   377                  PRN / # OF OBS      
   G23   354   354   354   354   354   354                  PRN / # OF OBS      
   G24   170   170   170   170   170   170                  PRN / # OF OBS      
   G25   171   171   171   171   171   171                  PRN / # OF OBS      
   G26   386   386   386   386   386   386                  PRN / # OF OBS      
   G27   317   317   317   317   317   317                  PRN / # OF OBS      
   G29   217   217   217   217   217   217                  PRN / # OF OBS      
   G30    40    40    40    40    40    40                  PRN / # OF OBS      
   G31   307   307   307   307   307   307                  PRN / # OF OBS      
   G32   340   340   340   340   340   340                  PRN / # OF OBS      
   R01   302   302   302   302   302   302                  PRN / # OF OBS      
   R02   334   334   334   334   334   334                  PRN / # OF OBS      
   R03   352   352   352   352   352   352                  PRN / # OF OBS      
   R04   338   338   338   338   338   338                  PRN / # OF OBS      
   R05   229   229   229   229   229   229                  PRN / # OF OBS      
   R07   193   193   193   193   193   193                  PRN / # OF OBS      
   R08   270   270   270   270   270   270                  PRN / # OF OBS      
   R09   121   121   121   121   121   121                  PRN / # OF OBS      
   R12   242   242   242   242   242   242                  PRN / # OF OBS      
   R13   309   309   309   309   309   309                  PRN / # OF OBS      
   R14   387   387   387   387   387   387                  PRN / # OF OBS      
   R15   316   316   316   316   316   316                  PRN / # OF OBS      
   R16   184   184   184   184   184   184                  PRN / # OF OBS      
   R17   306   306   306   306   306   306                  PRN / # OF OBS      
   R18   278   278   278   278   278   278                  PRN / # OF OBS      
   R19   234   234   234   234   234   234                  PRN / # OF OBS      
   R20   183   183   183   183   183   183                  PRN / # OF OBS      
   R21   209   209   209   209   209   209                  PRN / # OF OBS      
   R22   244   244   244   244   244   244                  PRN / # OF OBS      
   R24   333   333   333   333   333   333                  PRN / # OF OBS      
                                                            END OF HEADER       
> 2021 11 07 00 00  0.0000000  0 17                     
G02  25026200.714 6 131513590.163 6        36.250    25026204.034 3 102478148.858 3        21.500  
G05  21199266.000 8 111402917.048 8        49.500    21199271.400 8  86807493.883 8        53.250  
G16  24184157.160 6 127088610.225 6        37.500    24184162.320 3  99030116.963 3        21.000  
G18  21344683.718 8 112167081.712 8        49.250    21344689.678 6  87402956.808 6        40.500  
G20  22494020.210 7 118206876.055 7        43.000    22494025.030 5  92109297.275 5        30.750  
G23  25181576.654 5 132330065.334 5        33.500    25181584.594 2 103114383.219 2        17.250  
G25  23623261.664 6 124141066.238 6        39.750    23623271.184 6  96733343.605 6        37.000  
G26  21792232.196 7 114518970.363 7        46.500    21792241.216 8  89235598.087 8        49.000  
G29  20546515.284 8 107972690.791 8        51.250    20546521.184 9  84134597.922 9        55.500  
G31  24960009.554 6 131165720.076 6        37.000    24960015.214 5 102207082.519 5        31.500  
R05  24089548.380 6 128772429.284 6        39.500    24089550.240 6 100156333.568 6        39.000  
R07  22023121.376 7 117891507.407 7        47.250    22023125.256 7  91693397.467 7        43.750  
R12  22203799.412 7 118608706.570 7        47.250    22203802.392 7  92251250.694 7        43.000  
R13  20577550.224 7 109882961.805 7        42.500    20577551.244 6  85464556.000 6        40.750  
R14  22509401.092 7 119987780.441 7        47.000    22509403.472 7  93323876.976 7        43.500  
R21  22648694.272 7 121197752.056 7        44.500    22648695.572 6  94264940.184 6        39.750  
R22  19592506.152 7 104586117.883 7        43.500    19592506.772 6  81344796.416 6        37.500  
> 2021 11 07 00 01  0.0000000  0 17                     
G02  25061229.754 6 131697670.524 6        36.000    25061233.774 3 102621588.058 3        21.250  
G05  21201259.060 8 111413392.693 8        49.750    21201264.820 8  86815656.738 8        53.000  
G16  24145801.480 6 126887046.642 6        38.750    24145806.040 3  98873054.519 3        21.750  
G18  21317331.498 8 112023345.041 8        49.000    21317337.338 6  87290954.228 6        40.250  
G20  22519616.850 7 118341387.721 7        42.000    22519622.010 5  92214111.569 5        30.750  
G23  25136626.914 5 132093849.264 5        34.750    25136634.394 2 102930318.704 2        17.750  
G25  23667137.784 6 124371635.373 6        38.500    23667146.984 6  96913007.823 6        37.500  
G26  21779242.736 7 114450708.070 7        47.000    21779251.516 8  89182406.680 8        49.500  
G29  20559830.204 8 108042660.823 8        51.000    20559836.124 9  84189120.024 9        55.750  
G31  24995120.114 6 131350229.894 6        36.500    24995126.754 5 102350856.336 5        31.250  
R05  24130577.200 6 128991749.024 6        37.250    24130578.500 6 100326915.413 6        40.250  
R07  21984421.516 8 117684341.042 8        48.250    21984424.416 7  91532268.161 7        43.250  
R12  22250536.472 7 118858367.852 7        46.250    22250539.052 6  92445431.645 6        41.500  
R13  20589951.104 7 109949184.563 7        42.250    20589953.164 6  85516062.566 6        40.500  
R14  22475623.512 7 119807729.568 7        47.750    22475626.192 7  93183837.433 7        42.750  
R21  22688072.332 7 121408474.886 7        43.500    22688074.672 6  94428835.707 6        39.000  
R22  19607126.152 7 104664158.143 7        43.000    19607126.312 6  81405494.394 6        38.000  
> 2021 11 07 00 02  0.0000000  0 16                     
G02  25096286.094 6 131881889.697 6        37.500    25096289.414 3 102765135.406 3        21.500  
G05  21203747.500 8 111426468.404 8        49.000    21203753.100 8  86825845.619 8        53.000  
G16  24107662.060 6 126686621.906 6        39.750    24107666.460 3  98716879.472 3        22.250  
G18  21290250.538 8 111881035.769 8        49.000    21290256.838 6  87180063.919 6        40.000  
G20  22545553.670 7 118477685.613 7        42.750    22545559.090 5  92320317.727 5        31.000  
G23  25091675.254 5 131857628.144 5        35.250    25091682.754 2 102746250.303 2        17.750  
G25  23711120.902 6 124602767.758 6        38.750    23711129.842 6  97093110.925 6        37.500  
G26  21766683.876 7 114384711.856 7        46.750    21766692.556 8  89130981.060 8        49.500  
G29  20573475.904 8 108114369.056 8        51.750    20573481.704 9  84244996.567 9        55.750  
G31  25030352.254 6 131535374.873 6        36.250    25030358.254 5 102495125.091 5        31.000  
R07  21946079.996 7 117479096.837 7        47.750    21946082.676 7  91372633.871 7        43.500  
R12  22297499.252 7 119109232.531 7        46.000    22297501.572 6  92640548.568 6        41.000  
R13  20602968.784 7 110018691.829 7        42.250    20602969.904 6  85570123.749 6        40.000  
R14  22442280.072 7 119629987.146 7        47.000    22442281.412 7  93045593.365 7        42.000  
R21  22727543.232 7 121619693.684 7        43.250    22727545.972 6  94593116.953 6        38.750  
R22  19622072.452 7 104743944.296 7        43.250    19622072.552 6  81467550.291 6        37.250  
> 2021 11 07 00 03  0.0000000  0 16                     
G02  25131366.614 6 132066240.461 6        37.750    25131370.394 3 102908785.313 3        22.000  
G05  21206729.920 8 111442141.773 8        49.500    21206735.700 8  86838058.653 8        53.000  
G16  24069743.000 6 126487357.856 6        38.750    24069748.200 3  98561608.861 3        21.500  
G18  21263443.540 8 111740163.014 8        49.000    21263449.680 6  87070292.971 6        39.750  
G20  22571826.750 7 118615752.553 7        42.250    22571831.910 5  92427902.371 5        30.500  
G23  25046726.714 5 131621421.268 5        35.000    25046734.514 3 102562193.031 3        19.000  
G25  23755207.002 6 124834443.608 6        39.000    23755217.182 6  97273637.494 6        38.500  
G26  21754558.556 7 114320992.125 7        47.500    21754567.376 8  89081329.325 8        49.500  
G29  20587451.404 8 108187812.836 8        51.500    20587457.484 9  84302225.488 9        56.500  
G31  25065699.914 5 131721130.713 5        35.750    25065707.254 5 102639869.815 5        31.000  
R07  21908103.796 8 117275809.122 8        48.000    21908107.556 7  91214521.269 7        43.750  
R12  22344680.512 7 119361267.086 7        45.500    22344683.212 7  92836575.394 7        42.500  
R13  20616597.364 7 110091470.508 7        42.000    20616598.544 6  85626729.379 6        40.750  
R14  22409374.892 7 119454583.922 7        46.500    22409376.332 6  92909168.635 6        40.500  
R21  22767105.372 7 121831398.413 7        45.250    22767108.192 6  94757776.168 6        38.000  
R22  19637344.012 7 104825467.872 7        42.750    19637345.352 6  81530957.521 6        37.500  
> 2021 11 07 00 04  0.0000000  0 16                     
G02  25166471.454 6 132250715.749 6        37.500    25166475.294 3 103052532.239 3        21.750  
G05  21210206.240 8 111460410.770 8        49.500    21210212.360 8  86852294.249 8        53.000  
G16  24032049.260 6 126289278.814 6        37.750    24032054.720 3  98407261.654 3        20.750  
G18  21236911.460 8 111600737.125 8        49.000    21236917.840 6  86961649.450 6        41.000  
G20  22598433.550 7 118755572.585 7        42.250    22598438.090 4  92536853.058 4        28.750  
G23  25001785.074 5 131385249.099 5        34.000    25001791.734 2 102378162.872 2        17.750  
G25  23799393.842 6 125066644.542 6        39.000    23799403.502 6  97454573.219 6        38.250  
G26  21742868.276 7 114259560.288 7        47.250    21742876.776 8  89033460.358 8        49.500  
G29  20601757.584 8 108262990.490 8        52.000    20601763.444 9  84360805.484 9        56.000  
G31  25101160.154 6 131907475.490 6        36.250    25101167.254 5 102785073.472 5        30.000  
R07  21870500.276 8 117074514.295 8        48.500    21870503.236 7  91057958.677 7        44.250  
R12  22392075.112 7 119614438.836 7        46.500    22392077.512 7  93033486.711 7        42.750  
R13  20630837.204 6 110167508.080 6        41.750    20630838.184 6  85685869.691 6        40.500  
R14  22376914.172 7 119281550.810 7        46.000    22376915.692 6  92774587.344 6        41.500  
R21  22806758.088 7 122043580.754 7        45.000    22806759.828 6  94922806.867 6        38.750  
R22  19652940.812 7 104908721.719 7        43.250    19652941.472 6  81595710.505 6        38.000  
> 2021 11 07 00 05  0.0000000  0 16                     
G02  25201597.852 6 132435307.467 6        36.000    25201600.512 3 103196369.909 3        19.250  
G05  21214176.020 8 111481270.205 8        49.000    21214181.560 8  86868548.369 8        53.000  
G16  23994585.980 6 126092405.962 6        38.000    23994590.640 3  98253854.276 3        19.750  
G18  21210656.740 8 111462765.814 8        49.250    21210662.700 6  86854139.373 6        40.750  
G20  22625370.550 7 118897126.924 7        42.250    22625375.490 5  92647155.151 5        30.250  
G23  24956852.834 5 131149129.800 5        34.250    24956859.334 3 102194173.913 3        19.000  
G25  23843676.262 6 125299349.728 6        39.000    23843685.582 6  97635901.837 6        36.750  
G26  21731615.296 7 114200425.027 7        46.750    21731623.976 8  88987380.932 8        49.500  
G29  20616392.444 8 108339898.347 8        51.750    20616398.424 9  84420733.692 9        55.750  
G31  25136727.434 5 132094384.663 5        35.250    25136734.314 4 102930716.934 4        29.750  
R07  21833274.596 7 116875245.216 7        47.500    21833277.996 7  90902971.672 7        43.500  
R12  22439675.592 7 119868713.047 7        46.750    22439678.752 7  93231255.478 7        43.750  
R13  20645683.644 6 110246789.618 6        41.750    20645684.864 6  85747533.090 6        40.750  
R14  22344903.852 7 119110916.272 7        46.500    22344905.732 7  92641871.605 7        42.500  
R21  22846496.248 7 122256229.572 7        44.500    22846498.068 6  95088200.342 6        39.000  
R22  19668859.092 7 104993696.260 7        43.500    19668860.352 6  81661801.819 6        37.750  
> 2021 11 07 00 06  0.0000000  0 16                     
G02  25236744.732 6 132620007.549 6        36.000    25236748.112 3 103340291.983 3        19.750  
G05  21218637.640 8 111504715.906 8        48.250    21218643.140 8  86886817.760 8        53.000  
G16  23957356.162 6 125896761.120 6        38.750    23957361.542 3  98101403.805 3        21.000  
G18  21184680.200 8 111326257.063 8        49.750    21184686.040 6  86747768.942 6        41.000  
G20  22652634.330 7 119040397.604 7        42.500    22652639.190 5  92758794.654 5        30.250  
G23  24911934.454 6 130913081.986 6        36.750    24911940.894 3 102010240.717 3        21.250  
G25  23888050.622 6 125532538.674 6        37.250    23888059.422 5  97817607.478 5        34.000  
G26  21720800.796 7 114143594.850 7        47.500    21720809.796 8  88943097.674 8        50.000  
G29  20631356.144 8 108418532.222 8        50.500    20631361.924 9  84482006.851 9        55.250  
G31  25172399.514 5 132281833.977 5        35.250    25172405.054 4 103076781.243 4        29.500  
R07  21796434.556 7 116678036.053 7        47.750    21796437.736 7  90749586.809 7        43.750  
R12  22487477.012 7 120124055.307 7        46.500    22487479.052 7  93429854.941 7        43.250  
R13  20661135.344 7 110329299.445 7        42.000    20661136.264 6  85811707.369 6        40.250  
R14  22313348.092 8 118942709.193 8        48.000    22313350.632 7  92511043.891 7        43.750  
R21  22886320.708 7 122469334.767 7        45.500    22886321.928 6  95253948.776 6        39.500  
R22  19685098.132 7 105080381.972 7        43.000    19685099.452 6  81729224.043 6        37.750  
> 2021 11 07 00 07  0.0000000  0 16                     
G02  25271911.192 6 132804808.880 6        36.250    25271914.552 3 103484292.975 3        20.250  
G05  21223590.160 8 111530742.325 8        49.750    21223595.760 8  86907098.100 8        53.000  
G16  23920362.902 6 125702366.567 6        38.500    23920369.142 3  97949927.571 3        21.500  
G18  21158983.500 8 111191219.418 8        49.750    21158989.160 6  86642544.838 6        41.000  
G20  22680220.450 6 119185366.591 6        41.750    22680225.450 4  92871757.503 4        29.500  
G23  24867032.516 6 130677124.845 6        36.250    24867040.396 3 101826378.180 3        22.000  
G25  23932514.342 6 125766191.671 6        37.750    23932521.882 5  97999674.679 5        34.000  
G26  21710426.936 7 114089078.908 7        47.000    21710435.776 8  88900617.718 8        50.000  
G29  20646647.724 8 108498888.827 8        51.000    20646653.424 9  84544622.397 9        55.250  
G31  25208167.232 5 132469800.069 5        34.500    25208174.132 4 103223248.252 4        28.250  
R07  21759984.496 7 116482920.140 7        47.500    21759988.176 7  90597830.025 7        44.500  
R12  22535470.852 7 120380431.941 7        44.750    22535473.852 7  93629258.921 7        42.500  
R13  20677188.184 6 110415021.674 6        41.500    20677190.024 6  85878380.195 6        40.250  
R14  22282254.212 8 118776958.525 8        48.500    22282255.972 7  92382126.717 7        43.500  
R21  22926228.068 7 122682886.630 7        44.000    22926228.908 6  95420044.613 6        39.250  
R22  19701656.112 7 105168770.219 7        43.000    19701657.332 6  81797970.459 6        36.750  
> 2021 11 07 00 08  0.0000000  0 16                     
G02  25307097.052 6 132989702.873 6        36.250    25307098.772 3 103628366.177 3        19.750  
G05  21229032.820 8 111559344.653 8        49.500    21229038.720 8  86929385.638 8        53.000  
G16  23883613.342 6 125509244.744 6        40.000    23883618.482 3  97799443.056 3        22.500  
G18  21133567.800 8 111057660.726 8        49.750    21133573.640 6  86538473.159 6        41.250  
G20  22708126.810 6 119332015.632 6        41.500    22708131.710 4  92986029.499 4        28.750  
G23  24822152.676 5 130441277.103 5        35.750    24822159.336 3 101642600.817 3        18.500  
G25  23977061.222 6 126000288.220 6        39.000    23977069.942 6  98182087.544 6        37.000  
G26  21700494.496 7 114036885.228 7        47.500    21700503.436 8  88859947.320 8        50.000  
G29  20662266.044 8 108580964.536 8        50.500    20662272.004 9  84608577.488 9        55.750  
G31  25244030.172 5 132658258.768 5        34.250    25244036.892 4 103370099.119 4        28.500  
R07  21723933.276 8 116289931.518 8        48.250    21723936.456 7  90447727.811 7        45.000  
R12  22583652.792 7 120637808.235 7        44.500    22583654.332 6  93829440.388 6        41.000  
R13  20693840.584 7 110503938.866 7        42.000    20693841.004 6  85947538.000 6        39.750  
R14  22251625.792 8 118613692.485 8        48.250    22251627.812 7  92255142.024 7        43.500  
R21  22966216.668 7 122896874.474 7        43.500    22966217.608 6  95586479.584 6        38.250  
R22  19718530.412 7 105258851.751 7        42.750    19718532.752 6  81868033.877 6        37.000  
> 2021 11 07 00 09  0.0000000  0 16                     
G02  25342297.012 6 133174682.707 6        37.000    25342299.592 3 103772506.207 3        21.500  
G05  21234964.520 8 111590516.880 8        50.000    21234970.380 8  86953675.699 8        53.000  
G16  23847110.102 6 125317417.260 6        40.250    23847115.102 3  97649967.123 3        22.500  
G18  21108435.060 8 110925588.868 8        49.000    21108440.900 6  86435560.047 6        41.000  
G20  22736349.050 6 119480326.299 6        41.250    22736354.290 4  93101596.277 4        29.500  
G23  24777296.936 5 130205557.605 5        34.500    24777302.956 2 101458923.343 2        16.250  
G25  24021688.280 6 126234808.343 6        38.500    24021697.440 5  98364830.443 5        35.750  
G26  21691005.936 8 113987021.768 8        48.000    21691014.716 8  88821092.680 8        50.000  
G29  20678210.684 8 108664754.954 8        51.500    20678216.904 9  84673868.732 9        55.250  
G31  25279981.932 5 132847186.177 5        35.500    25279987.992 4 103517315.208 4        28.000  
R07  21688284.856 8 116099102.694 8        48.000    21688288.036 7  90299305.462 7        44.500  
R12  22632014.632 7 120896150.219 7        45.500    22632016.472 6  94030373.006 6        39.000  
R13  20711085.824 6 110596034.256 6        41.750    20711087.564 6  86019167.728 6        40.000  
R14  22221468.092 7 118452939.052 7        47.500    22221470.792 7  92130111.590 7        44.000  
R21  23006284.528 7 123111288.635 7        43.500    23006286.208 6  95753246.085 6        37.500  
R22  19735721.932 7 105350617.545 7        42.750    19735723.592 6  81939407.268 6        37.000  
> 2021 11 07 00 10  0.0000000  0 16                     
G02  25377512.772 6 133359740.108 6        38.500    25377514.832 3 103916706.726 3        20.500  
G05  21241384.320 8 111624253.046 8        49.000    21241390.020 8  86979963.631 8        52.750  
G16  23810857.742 6 125126905.818 6        39.000    23810861.562 3  97501516.667 3        22.500  
G18  21083587.100 8 110795011.946 8        49.500    21083592.920 6  86333811.819 6        41.000  
G20  22764884.910 6 119630280.457 6        41.250    22764890.330 4  93218443.663 4        29.750  
G23  24732467.136 5 129969985.643 5        32.750    24732474.496 2 101275360.894 2        16.750  
G25  24066392.020 6 126469732.162 6        36.500    24066402.260 6  98547887.898 6        36.000  
G26  21681962.296 7 113939496.449 7        47.500    21681971.096 8  88784059.958 8        50.000  
G29  20694481.082 8 108750256.355 8        51.000    20694487.142 9  84740493.194 9        55.250  
G31  25316017.772 5 133036558.916 5        34.500    25316025.032 4 103664878.293 4        29.000  
R07  21653046.156 8 115910467.000 8        49.000    21653049.156 7  90152588.852 7        45.000  
R12  22680551.152 7 121155424.222 7        45.750    22680553.012 6  94232030.545 6        40.000  
R13  20728924.904 6 110691290.207 6        41.750    20728925.984 6  86093255.663 6        40.750  
R14  22191787.292 7 118294725.981 7        45.750    22191790.432 7  92007057.013 7        43.500  
R21  23046428.968 7 123326119.831 7        42.500    23046432.928 6  95920336.967 6        39.500  
R22  19753226.292 7 105444058.491 7        42.750    19753227.932 6  82012083.560 6        37.250  
> 2021 11 07 00 11  0.0000000  0 16                     
G02  25412740.152 6 133544868.412 6        37.250    25412743.772 3 104060962.495 3        20.500  
G05  21248291.220 8 111660547.450 8        49.500    21248296.660 8  87008244.997 8        52.750  
G16  23774859.282 6 124937733.322 6        39.250    23774863.562 3  97354109.583 3        22.500  
G18  21059025.020 8 110665938.243 8        49.750    21059031.220 6  86233234.942 6        41.750  
G20  22793729.388 7 119781860.066 7        42.000    22793735.148 5  93336557.670 5        30.750  
G23  24687672.636 6 129734580.982 6        37.250    24687679.376 3 101091928.824 3        22.000  
G25  24111170.280 6 126705040.228 6        36.250    24111180.360 5  98731244.760 5        35.500  
G26  21673364.856 7 113894317.164 7        47.500    21673373.616 8  88748855.312 8        49.500  
G29  20711076.202 8 108837465.568 8        51.000    20711082.382 9  84808448.417 9        56.000  
G31  25352134.912 5 133226353.686 5        35.000    25352141.832 4 103812770.289 4        28.000  
R07  21618223.256 8 115724057.651 8        49.000    21618226.396 7  90007603.862 7        45.750  
R12  22729255.392 7 121415596.708 7        44.500    22729259.052 7  94434386.865 7        43.000  
R13  20747351.944 7 110789689.354 7        42.250    20747352.464 6  86169788.305 6        40.750  
R14  22162590.376 7 118139081.702 7        46.500    22162591.596 7  91886000.389 7        43.500  
R21  23086653.788 7 123541358.586 7        44.500    23086655.428 6  96087744.856 6        38.250  
R22  19771044.252 7 105539165.542 7        43.000    19771044.892 6  82086055.709 6        38.250  
> 2021 11 07 00 12  0.0000000  0 16                     
G02  25447981.432 6 133730059.806 6        37.500    25447984.692 3 104205267.377 3        19.750  
G05  21255683.200 8 111699391.782 8        49.500    21255688.340 8  87038513.314 8        52.750  
G16  23739118.222 6 124749921.439 6        39.500    23739124.282 3  97207762.692 3        22.750  
G18  21034751.000 8 110538374.546 8        49.500    21034756.580 7  86133834.689 7        42.250  
G20  22822879.988 6 119935045.432 6        41.750    22822885.148 4  93455922.897 4        28.250  
G23  24642911.936 6 129499361.929 6        39.750    24642918.896 4 100908641.340 4        26.250  
G25  24156016.640 5 126940711.829 5        35.500    24156026.700 5  98914884.823 5        35.000  
G26  21665215.336 8 113851490.025 8        48.000    21665223.516 8  88715483.520 8        49.750  
G29  20727995.782 8 108926377.163 8        51.000    20728001.602 9  84877730.167 9        55.250  
G31  25388327.312 5 133416546.050 5        35.250    25388334.112 4 103960972.047 4        27.000  
R07  21583822.220 8 115539906.271 8        48.500    21583825.560 7  89864375.050 7        44.750  
R12  22778121.972 7 121676632.932 7        44.000    22778125.452 7  94637414.921 7        42.500  
R13  20766362.604 6 110891210.726 6        41.500    20766364.524 6  86248749.343 6        40.500  
R14  22133877.256 7 117986032.446 7        47.250    22133879.776 7  91766962.066 7        43.000  
R21  23126950.048 7 123756994.493 7        44.000    23126952.088 6  96255461.617 6        38.000  
R22  19789170.828 7 105635929.342 7        43.000    19789172.528 6  82161316.428 6        37.750  
> 2021 11 07 00 13  0.0000000  0 16                     
G02  25483232.630 6 133915307.423 6        37.000    25483235.910 3 104349616.137 3        19.000  
G05  21263558.540 8 111740778.970 8        49.750    21263564.040 8  87070763.073 8        52.500  
G16  23703642.262 6 124563491.746 6        38.500    23703647.542 4  97062492.830 4        25.000  
G18  21010764.940 8 110412328.427 8        48.500    21010770.800 7  86035616.977 7        42.000  
G20  22852331.888 6 120089818.347 6        41.250    22852337.068 4  93576525.173 4        29.000  
G23  24598190.576 6 129264347.675 6        39.750    24598197.256 3 100725513.418 3        22.500  
G25  24200929.560 6 127176726.906 6        38.500    24200938.980 5  99098792.578 5        34.250  
G26  21657514.276 8 113811021.746 8        48.000    21657522.856 8  88683949.798 8        50.000  
G29  20745238.242 8 109016986.566 8        51.000    20745244.062 9  84948334.890 9        56.000  
G31  25424590.812 5 133607112.862 5        35.750    25424598.292 4 104109465.630 4        27.000  
R07  21549848.860 7 115358045.644 7        47.750    21549852.520 7  89722927.948 7        45.250  
R12  22827145.248 7 121938499.433 7        43.500    22827147.628 7  94841088.721 7        43.000  
R13  20785956.564 7 110995835.019 7        42.000    20785957.264 6  86330123.779 6        40.500  
R14  22105658.556 8 117835604.790 8        48.500    22105659.676 6  91649962.784 6        41.500  
R21  23167320.028 7 123973017.782 7        43.000    23167321.488 6  96423479.670 6        38.500  
R22  19807606.568 7 105734339.944 7        42.750    19807607.828 6  82237858.011 6        37.750  
> 2021 11 07 00 14  0.0000000  0 16                     
G02  25518493.850 6 134100603.600 6        37.000    25518497.270 3 104494002.715 3        19.250  
G05  21271916.560 8 111784700.745 8        49.000    21271922.060 8  87104987.843 8        52.500  
G16  23668433.544 6 124378466.254 6        40.750    23668438.064 4  96918317.134 4        24.500  
G18  20987069.540 8 110287807.521 8        50.000    20987075.160 7  85938587.730 7        42.000  
G20  22882082.348 6 120246159.786 6        41.500    22882087.928 4  93698349.683 4        28.500  
G23  24553511.138 6 129029557.685 6        37.000    24553517.838 3 100542560.263 3        21.500  
G25  24245903.440 6 127413065.826 6        39.750    24245912.120 5  99282952.768 5        33.250  
G26  21650263.816 7 113772918.945 7        47.750    21650272.116 8  88654259.297 8        49.750  
G29  20762802.722 8 109109289.485 8        51.000    20762808.802 9  85020259.236 9        55.250  
G31  25460922.032 6 133798030.227 6        37.000    25460928.412 4 104258232.385 4        28.000  
R07  21516309.080 8 115178507.541 8        49.250    21516312.700 7  89583287.220 7        45.250  
R12  22876315.848 7 122201162.233 7        45.750    22876318.168 6  95045381.954 6        40.750  
R13  20806125.564 6 111103542.276 6        40.750    20806126.984 6  86413896.067 6        40.250  
R14  22077935.216 8 117687825.821 8        48.250    22077937.076 7  91535023.584 7        43.000  
R21  23207760.568 7 124189419.516 7        42.500    23207760.588 6  96591792.105 6        38.500  
R22  19826349.428 7 105834388.685 7        43.000    19826350.748 6  82315673.688 6        37.000  
> 2021 11 07 00 15  0.0000000  0 16                     
G02  25553762.450 5 134285940.374 5        35.750    25553765.350 3 104638420.917 3        18.500  
G05  21280755.420 8 111831149.216 8        49.500    21280760.860 8  87141181.456 8        52.500  
G16  23633495.884 6 124194866.920 6        40.750    23633500.764 3  96775252.718 3        23.750  
G18  20963665.042 8 110164818.463 8        49.000    20963671.062 7  85842752.130 7        42.000  
G20  22912128.468 6 120404050.130 6        41.000    22912132.428 4  93821381.134 4        27.500  
G23  24508877.098 5 128795010.478 5        34.250    24508884.918 2 100359796.279 2        17.750  
G25  24290935.138 6 127649708.139 6        37.000    24290943.878 5  99467349.329 5        32.000  
G26  21643463.836 8 113737186.816 8        48.000    21643472.816 8  88626416.072 8        50.000  
G29  20780688.742 8 109203281.012 8        51.500    20780694.982 9  85093499.377 9        55.250  
G31  25497314.310 5 133989274.544 5        35.250    25497321.030 4 104407253.859 4        25.500  
R07  21483210.340 8 115001323.201 8        49.500    21483213.180 7  89445477.212 7        45.500  
R12  22925629.588 7 122464587.207 7        45.750    22925632.088 6  95250268.018 6        38.000  
R13  20826868.824 6 111214310.632 6        41.250    20826870.804 6  86500049.206 6        39.500  
R14  22050713.656 8 117542720.467 8        48.500    22050715.976 7  91422163.850 7        43.000  
R21  23248267.928 7 124406189.300 7        42.000    23248269.348 6  96760390.782 6        40.250  
R22  19845396.288 7 105936065.384 7        42.500    19845397.248 6  82394755.567 6        37.500  
> 2021 11 07 00 16  0.0000000  0 16                     
G02  25589036.230 5 134471309.893 5        34.750    25589039.730 2 104782864.599 2        17.750  
G05  21290073.138 8 111880114.483 8        49.000    21290078.678 8  87179336.214 8        52.500  
G16  23598833.664 7 124012713.570 7        42.000    23598838.104 4  96633315.067 4        25.000  
G18  20940553.622 8 110043366.876 8        49.500    20940559.542 7  85748114.564 7        42.500  
G20  22942464.648 6 120563468.962 6        41.250    22942469.708 4  93945603.612 4        28.000  
G23  24464294.858 6 128560723.973 6        36.500    24464300.958 3 100177235.421 3        20.500  
G25  24336019.698 5 127886632.496 5        34.750    24336028.918 5  99651965.615 5        31.000  
G26  21637116.396 7 113703829.554 7        47.500    21637125.136 8  88600423.388 8        50.000  
G29  20798894.882 8 109298954.301 8        51.250    20798900.882 9  85168049.980 9        55.250  
G31  25533764.450 5 134180820.970 5        34.000    25533770.790 4 104556510.784 4        24.000  
R07  21450556.080 8 114826522.537 8        49.750    21450559.080 7  89309521.199 7        45.500  
R12  22975079.748 7 122728738.957 7        43.750    22975080.968 6  95455719.352 6        38.500  
R13  20848181.824 6 111328117.357 6        41.000    20848183.384 6  86588565.529 6        40.000  
R14  22023998.496 8 117400313.386 8        48.250    22024000.536 7  91311402.787 7        44.250  
R21  23288842.528 7 124623316.828 7        42.000    23288845.848 6  96929267.694 6        38.500  
R22  19864746.648 7 106039359.010 7        43.000    19864747.388 6  82475095.027 6        37.250  
> 2021 11 07 00 17  0.0000000  0 17                     
G02  25624317.130 5 134656712.006 5        35.750    25624320.690 3 104927333.780 3        19.000  
G05  21299869.938 8 111931594.415 8        49.000    21299875.078 8  87219450.460 8        52.500  
G16  23564451.744 6 123832035.485 6        40.000    23564455.964 3  96492526.910 3        21.500  
G18  20917737.722 8 109923466.831 8        49.000    20917743.422 7  85654685.980 7        42.750  
G20  22973089.828 6 120724404.659 6        41.250    22973095.208 4  94071008.062 4        28.500  
G23  24419765.858 6 128326724.498 6        38.250    24419772.338 3  99994898.189 3        22.750  
G25  24381155.598 5 128123826.129 5        35.000    24381166.078 5  99836791.734 5        33.250  
G26  21631223.116 8 113672859.359 8        48.000    21631231.616 8  88576290.775 8        50.250  
G29  20817421.182 8 109396311.146 8        51.000    20817427.202 9  85243912.458 9        55.500  
R07  21418354.720 8 114654143.757 8        49.250    21418357.080 7  89175448.827 7        46.000  
R08  24050774.200 5 128790795.292 5        35.000    24050776.340 6 100170637.291 6        36.000  
R12  23024659.948 7 122993591.065 7        42.500    23024662.728 6  95661715.315 6        41.250  
R13  20870059.924 6 111444947.994 6        41.000    20870061.664 6  86679433.767 6        39.500  
R14  21997795.356 7 117260636.955 7        47.500    21997797.656 7  91202765.577 7        44.250  
R21  23329485.168 7 124840799.513 7        42.250    23329487.308 6  97098420.844 6        38.500  
R22  19884400.148 7 106144267.440 7        42.250    19884401.588 6  82556690.487 6        36.750  
R24  24108058.980 6 128916636.330 6        36.000    24108060.660 5 100268490.025 5        34.500  
> 2021 11 07 00 18  0.0000000  0 17                     
G02  25659603.690 6 134842134.363 6        37.000    25659606.550 3 105071818.667 3        20.250  
G05  21310142.078 8 111985574.019 8        48.500    21310146.918 8  87261512.488 8        52.500  
G16  23530353.284 6 123652848.713 6        38.750    23530357.764 3  96352900.851 3        22.000  
G18  20895216.942 8 109805120.024 8        48.750    20895222.782 7  85562467.718 7        42.750  
G20  23003998.868 7 120886832.632 7        42.000    23004003.548 4  94197575.316 4        28.250  
G23  24375294.598 6 128093026.127 6        38.250    24375301.378 3  99812795.627 3        22.500  
G25  24426339.158 5 128361264.047 5        34.500    24426349.378 5 100021808.204 5        34.000  
G26  21625783.676 7 113644275.910 7        47.750    21625792.416 8  88554017.955 8        50.250  
G29  20836266.082 8 109495341.748 8        51.250    20836272.102 9  85321079.161 9        55.000  
R07  21386608.800 8 114484212.393 8        49.250    21386612.800 7  89043280.026 7        45.750  
R08  24000081.880 6 128519337.064 6        36.250    24000083.680 6  99959503.194 6        36.000  
R12  23074365.428 7 123259104.939 7        43.000    23074367.708 7  95868225.951 7        42.500  
R13  20892499.844 6 111564774.064 6        40.750    20892501.004 6  86772631.795 6        39.250  
R14  21972107.936 7 117123710.993 7        47.750    21972111.016 7  91096267.598 7        44.000  
R21  23370192.188 7 125058622.689 7        42.000    23370193.148 6  97267838.824 6        38.750  
R22  19904352.788 7 106250776.385 7        43.250    19904353.088 6  82639530.778 6        37.250  
R24  24066443.900 6 128694104.411 6        36.750    24066447.960 5 100095409.761 5        35.750  
> 2021 11 07 00 19  0.0000000  0 17                     
G02  25694890.350 5 135027570.681 5        34.750    25694893.270 2 105216314.470 2        16.750  
G05  21320887.358 8 112042044.281 8        48.500    21320893.258 8  87305515.292 8        52.500  
G16  23496542.984 6 123475175.362 6        38.500    23496548.244 3  96214454.113 3        22.750  
G18  20872993.062 8 109688333.561 8        48.000    20872998.902 7  85471465.304 7        42.750  
G20  23035188.048 6 121050733.649 6        41.000    23035193.568 4  94325290.404 4        27.750  
G23  24330884.338 6 127859648.496 6        38.750    24330891.338 4  99630942.987 4        25.250  
G25  24471565.958 6 128598926.836 6        36.000    24471575.398 5 100206999.854 5        35.000  
G26  21620799.616 7 113618084.041 7        46.500    21620808.136 8  88533608.703 8        50.250  
G29  20855428.422 8 109596041.205 8        50.000    20855434.502 9  85399546.258 9        55.000  
R07  21355327.360 8 114316758.875 8        49.500    21355330.800 7  88913038.424 7        45.500  
R08  23949410.304 5 128247986.869 5        35.500    23949411.044 6  99748453.105 6        36.500  
R12  23124187.928 7 123525247.490 7        45.250    23124190.248 6  96075225.666 6        41.000  
R13  20915496.624 6 111687573.491 6        40.750    20915497.864 6  86868142.441 6        39.500  
R14  21946942.236 7 116989560.239 7        47.000    21946944.656 7  90991928.150 7        45.000  
R21  23410957.804 6 125276777.891 6        40.500    23410960.324 6  97437515.086 6        37.000  
R22  19924603.408 7 106358876.082 7        43.000    19924605.148 6  82723608.307 6        37.250  
R24  24024863.100 6 128471753.705 6        38.250    24024866.880 5  99922470.413 5        35.500  
> 2021 11 07 00 20  0.0000000  0 17                     
G02  25730179.310 5 135213013.891 5        34.500    25730182.130 2 105360815.607 2        17.250  
G05  21332105.458 8 112100994.885 8        48.000    21332111.238 8  87351450.831 8        52.250  
G16  23463024.664 6 123299037.057 6        38.250    23463029.924 4  96077203.490 4        25.500  
G18  20851067.662 7 109573113.932 7        47.750    20851073.302 7  85381683.801 7        43.000  
G20  23066653.748 6 121216088.724 6        41.500    23066659.508 4  94454138.533 4        28.750  
G23  24286538.858 6 127626610.924 6        37.750    24286545.378 3  99449355.299 3        22.750  
G25  24516830.558 6 128836794.723 6        37.000    24516839.838 5 100392351.371 5        35.000  
G26  21616271.396 7 113594287.761 7        46.750    21616280.076 8  88515066.147 8        50.250  
G29  20874907.502 8 109698403.667 8        49.500    20874913.522 9  85479309.208 9        55.250  
R07  21324514.440 8 114151813.670 8        49.750    21324517.520 7  88784747.730 7        46.000  
R08  23898763.724 5 127976775.444 5        34.000    23898764.504 5  99537511.001 5        34.500  
R12  23174122.208 7 123791985.226 7        45.000    23174124.148 6  96282688.279 6        38.250  
R13  20939045.984 6 111813322.246 6        40.750    20939046.384 6  86965946.980 6        39.500  
R14  21922301.436 8 116858208.577 8        48.000    21922303.236 7  90889765.757 7        44.000  
R21  23451786.464 6 125495255.916 6        41.250    23451787.924 6  97607442.395 6        38.250  
R22  19945149.788 7 106468556.875 7        42.500    19945151.008 6  82808915.582 6        36.750  
R24  23983317.744 6 128249591.508 6        36.500    23983321.064 5  99749677.697 5        35.750  
> 2021 11 07 00 21  0.0000000  0 18                     
G02  25765467.270 5 135398458.328 5        35.000    25765470.890 2 105505317.741 2        15.500  
G05  21343793.518 7 112162416.465 7        47.500    21343799.338 8  87399311.811 8        52.250  
G15  25034335.654 6 131556315.370 6        36.750    25034342.954 4 102511446.255 4        29.000  
G16  23429804.244 6 123124456.633 6        39.500    23429809.004 4  95941166.819 4        26.500  
G18  20829441.662 8 109459468.700 8        48.000    20829447.502 7  85293129.105 7        43.000  
G20  23098392.786 6 121382879.225 6        41.250    23098397.966 4  94584105.149 4        26.500  
G23  24242260.440 5 127393933.703 5        34.000    24242268.120 3  99268048.474 3        21.250  
G25  24562130.438 5 129074848.994 5        35.500    24562139.738 4 100577848.138 4        29.500  
G26  21612199.596 7 113572891.879 7        45.500    21612208.496 8  88498394.014 8        50.000  
G29  20894702.122 8 109802424.535 8        50.000    20894708.002 9  85560364.423 9        55.000  
R07  21294175.360 8 113989407.479 8        49.750    21294179.120 7  88658431.832 7        46.500  
R08  23848147.564 5 127705735.957 5        34.250    23848148.604 5  99326702.602 5        35.750  
R12  23224159.928 7 124059285.701 7        42.000    23224163.128 6  96490588.624 6        38.000  
R13  20963141.944 6 111941997.442 6        40.750    20963143.204 6  87066027.676 6        38.750  
R14  21898189.296 8 116729681.026 8        48.250    21898191.856 7  90789799.894 7        44.250  
R21  23492672.484 6 125714048.369 6        41.500    23492674.924 6  97777614.302 6        37.750  
R22  19965991.208 7 106579810.660 7        43.000    19965992.248 6  82895446.307 6        36.500  
R24  23941807.184 6 128027626.675 6        38.000    23941810.544 5  99577038.459 5        34.000  
> 2021 11 07 00 22  0.0000000  0 17                     
G05  21355950.218 8 112226298.862 8        48.000    21355955.758 8  87449090.300 8        52.250  
G15  24994558.474 5 131347285.306 5        35.250    24994565.814 4 102348565.721 4        26.000  
G16  23396882.504 6 122951455.476 6        41.500    23396887.544 4  95806360.735 4        26.750  
G18  20808116.202 7 109347404.428 7        47.750    20808122.062 7  85205806.329 7        43.250  
G20  23130402.346 6 121551085.374 6        41.500    23130407.006 4  94715174.898 4        28.250  
G23  24198057.380 6 127161636.365 6        37.250    24198063.460 3  99087037.678 3        22.500  
G25  24607462.676 5 129313070.354 5        33.500    24607471.876 4 100763475.202 4        26.500  
G26  21608585.476 7 113553899.887 7        47.000    21608594.496 8  88483595.055 8        50.250  
G29  20914811.202 8 109908098.698 8        50.750    20914817.122 9  85642707.918 9        54.750  
R07  21264316.660 8 113829569.794 8        49.750    21264320.200 7  88534113.662 7        45.500  
R08  23797570.204 6 127434900.173 6        36.000    23797572.104 6  99116052.643 6        36.000  
R12  23274298.228 6 124327116.166 6        41.000    23274301.668 6  96698901.122 6        39.500  
R13  20987781.600 6 112073574.386 6        40.750    20987783.040 6  87168365.255 6        39.500  
R14  21874612.396 8 116604000.912 8        48.500    21874614.456 7  90692048.709 7        43.250  
R21  23533616.544 6 125933147.100 6        40.250    23533617.864 6  97948024.387 6        36.500  
R22  19987126.068 7 106692627.744 7        43.000    19987127.168 6  82983192.921 6        36.000  
R24  23900339.864 6 127805867.240 6        38.250    23900341.544 6  99404559.065 6        36.000  
> 2021 11 07 00 23  0.0000000  0 17                     
G05  21368572.038 8 112292630.518 8        48.000    21368578.198 8  87500777.317 8        52.000  
G15  24954835.294 6 131138539.262 6        36.250    24954842.654 4 102185906.515 4        27.250  
G16  23364266.446 7 122780055.784 7        42.000    23364271.386 4  95672802.535 4        27.500  
G18  20787093.322 8 109236927.943 8        48.000    20787099.342 7  85119720.791 7        43.000  
G20  23162676.786 6 121720688.827 6        40.750    23162680.926 4  94847333.450 4        26.000  
G23  24153927.900 6 126929739.052 6        39.750    24153934.320 4  98906338.485 4        25.250  
G25  24652821.636 5 129551439.861 5        31.750    24652832.516 4 100949217.571 4        27.500  
G26  21605429.476 7 113537315.386 7        46.000    21605438.496 8  88470672.064 8        50.250  
G29  20935233.762 8 110015420.243 8        50.250    20935239.822 9  85726335.086 9        55.000  
R07  21234942.880 8 113672330.062 8        49.750    21234945.940 7  88411816.093 7        46.500  
R08  23747036.584 6 127164299.950 6        36.500    23747040.064 6  98905585.936 6        38.500  
R12  23324530.988 7 124595444.132 7        43.000    23324533.828 6  96907600.598 6        41.750  
R13  21012960.440 6 112208028.833 6        40.000    21012962.780 6  87272940.905 6        39.000  
R14  21851573.936 8 116481191.424 8        49.000    21851576.076 7  90596530.226 7        44.250  
R21  23574615.224 6 126152543.212 6        39.750    23574618.124 6  98118665.753 6        38.250  
R22  20008551.708 7 106806999.234 7        42.250    20008552.648 6  83072148.520 6        37.000  
R24  23858909.424 6 127584321.777 6        40.250    23858911.644 6  99232246.021 6        36.000  
> 2021 11 07 00 24  0.0000000  0 17                     
G05  21381658.358 8 112361397.710 8        48.750    21381664.318 8  87554362.150 8        52.000  
G15  24915170.274 5 130930099.523 5        33.500    24915177.194 4 102023485.960 4        25.250  
G16  23331958.166 6 122610274.850 6        41.750    23331963.146 4  95540505.705 4        25.750  
G18  20766372.802 8 109128042.242 8        48.000    20766378.822 7  85034874.827 7        43.250  
G20  23195212.486 6 121891666.772 6        39.750    23195217.106 4  94980562.996 4        26.000  
G23  24109878.540 6 126698257.898 6        39.500    24109885.180 4  98725963.603 4        24.750  
G25  24698207.136 6 129789934.606 6        36.750    24698217.116 5 101135057.542 5        35.500  
G26  21602732.196 7 113523137.892 7        46.250    21602740.496 8  88459624.665 8        50.000  
G29  20955968.422 8 110124380.335 8        50.500    20955974.262 9  85811239.041 9        55.750  
R07  21206059.320 8 113517713.954 8        50.250    21206062.820 7  88291559.145 7        46.750  
R08  23696555.264 6 126893964.435 6        37.250    23696556.864 6  98695325.075 6        38.500  
R12  23374848.248 7 124864233.215 7        44.000    23374851.448 6  97116658.718 6        41.500  
R13  21038673.400 6 112345330.907 6        39.750    21038674.100 6  87379731.376 6        38.500  
R14  21829076.456 8 116361272.017 8        49.000    21829078.796 7  90503259.566 7        43.500  
R21  23615668.504 6 126372224.868 6        40.750    23615671.004 6  98289529.241 6        37.000  
R22  20030266.248 7 106922912.024 7        43.000    20030267.188 6  83162302.918 6        36.750  
R24  23817519.844 6 127362995.443 6        38.250    23817523.164 6  99060103.435 6        38.750  
> 2021 11 07 00 25  0.0000000  0 18                     
G05  21395205.718 8 112432590.103 8        48.500    21395211.678 8  87609836.751 8        52.000  
G13  24978833.754 5 131264660.680 5        34.750    24978838.754 2 102284174.348 2        16.250  
G15  24875569.976 6 130721992.966 6        36.000    24875576.116 4 101861325.062 4        29.500  
G16  23299962.486 6 122442137.378 6        40.750    23299967.966 4  95409489.484 4        25.750  
G18  20745956.762 8 109020755.259 8        49.500    20745962.862 7  84951274.621 7        43.500  
G20  23228006.786 6 122064001.858 6        40.000    23228012.106 4  95114850.078 4        26.250  
G23  24065911.740 6 126467214.238 6        37.750    24065919.180 4  98545929.656 4        25.750  
G25  24743611.516 6 130028537.190 6        38.250    24743621.356 6 101320981.551 6        36.500  
G26  21600493.056 7 113511371.618 7        47.000    21600501.576 8  88450456.130 8        50.000  
G29  20977014.022 8 110234974.936 8        50.500    20977019.802 9  85897416.641 9        55.000  
R07  21177671.100 8 113365751.423 8        50.000    21177674.440 7  88173366.080 7        46.250  
R08  23646127.504 6 126623927.208 6        36.750    23646128.964 6  98485296.204 6        37.500  
R12  23425247.544 7 125133452.729 7        42.000    23425250.224 6  97326051.592 6        39.250  
R13  21064914.440 6 112485457.966 6        39.750    21064916.260 6  87488719.052 6        38.500  
R14  21807127.256 8 116244266.317 8        49.000    21807128.836 7  90412255.143 7        44.000  
R21  23656774.404 6 126592185.360 6        41.500    23656774.964 6  98460609.570 6        37.000  
R22  20052267.968 7 107040358.816 7        43.000    20052269.248 6  83253650.417 6        36.500  
R24  23776171.864 6 127141897.757 6        39.750    23776176.464 6  98888138.726 6        36.250  
> 2021 11 07 00 26  0.0000000  0 18                     
G05  21409212.718 8 112506196.607 8        48.500    21409218.378 8  87667192.474 8        52.000  
G13  24944621.934 5 131084875.262 5        34.000    24944627.874 2 102144081.933 2        15.500  
G15  24836036.336 6 130514246.702 6        36.000    24836043.476 4 101699444.854 4        28.000  
G16  23268283.506 6 122275664.142 6        40.000    23268288.406 4  95279770.095 4        25.000  
G18  20725846.462 8 108915073.816 8        50.250    20725852.362 7  84868925.465 7        44.000  
G20  23261055.086 6 122237675.333 6        40.500    23261060.266 4  95250180.053 4        25.500  
G23  24022033.780 6 126236628.524 6        37.500    24022039.960 4  98366252.585 4        25.000  
G25  24789033.296 5 130267229.102 5        35.750    24789043.516 5 101506975.181 5        34.000  
G26  21598713.356 7 113502019.383 7        47.750    21598721.876 8  88443168.662 8        50.000  
G29  20998369.200 8 110347198.946 8        50.250    20998375.200 9  85984863.923 9        55.000  
R07  21149784.180 8 113216471.555 8        50.000    21149787.680 7  88057259.541 7        46.750  
R08  23595762.424 6 126354222.286 6        36.500    23595763.104 6  98275525.831 6        37.250  
R12  23475720.144 7 125403070.852 7        42.250    23475722.484 6  97535754.576 6        38.750  
R13  21091682.000 6 112628383.412 6        40.750    21091681.420 6  87599883.256 6        38.500  
R14  21785727.716 8 116130196.601 8        49.000    21785730.176 7  90323534.245 7        44.250  
R21  23697930.644 7 126812416.773 7        42.000    23697931.244 6  98631900.570 6        38.000  
R22  20074555.168 7 107159331.018 7        42.500    20074556.648 6  83346184.348 6        37.250  
R24  23734871.044 6 126921038.455 6        40.500    23734874.024 6  98716359.349 6        38.000  
> 2021 11 07 00 27  0.0000000  0 18                     
G05  21423676.398 8 112582203.930 8        49.250    21423682.218 8  87726418.965 8        52.000  
G13  24910577.134 5 130905970.536 5        35.000    24910583.314 3 102004675.675 3        18.250  
G15  24796576.776 6 130306885.339 6        37.000    24796583.796 5 101537864.620 5        30.500  
G16  23236925.506 6 122110876.798 6        41.000    23236930.506 4  95151364.346 4        25.750  
G18  20706042.682 8 108811003.924 8        50.750    20706048.462 7  84787832.086 7        43.750  
G20  23294355.526 6 122412667.415 6        40.000    23294360.466 4  95386537.534 4        26.500  
G23  23978244.762 6 126006520.403 6        37.250    23978252.002 3  98186947.615 3        22.750  
G25  24834468.456 5 130505991.310 5        32.000    24834478.216 5 101693023.569 5        30.000  
G26  21597393.116 7 113495082.913 7        47.750    21597401.736 8  88437763.606 8        50.000  
G29  21020033.740 8 110461046.189 8        50.500    21020039.620 9  86073576.053 9        55.250  
R07  21122404.320 8 113069902.066 8        50.500    21122407.420 7  87943261.064 7        46.500  
R08  23545464.124 5 126084881.551 5        35.250    23545465.064 6  98066038.630 6        37.000  
R12  23526260.684 6 125673055.406 6        41.250    23526264.644 6  97745742.548 6        37.250  
R13  21118964.120 6 112774081.238 6        40.500    21118965.980 6  87713203.752 6        38.750  
R14  21764884.056 8 116019084.451 8        49.500    21764885.756 7  90237113.684 7        44.750  
R21  23739133.644 6 127032910.627 6        39.750    23739135.944 6  98803395.726 6        36.750  
R22  20097126.208 7 107279818.660 7        42.500    20097127.808 6  83439896.959 6        37.000  
R24  23693615.304 7 126700425.193 7        42.250    23693618.344 6  98544771.338 6        37.500  
> 2021 11 07 00 28  0.0000000  0 18                     
G05  21438595.198 8 112660602.096 8        50.000    21438600.818 8  87787508.454 8        51.750  
G13  24876704.836 5 130727973.328 5        33.250    24876711.316 2 101865976.612 2        16.750  
G15  24757195.696 6 130099935.949 6        36.750    24757202.516 5 101376605.396 5        30.500  
G16  23205892.686 6 121947797.997 6        41.500    23205897.526 4  95024289.963 4        27.000  
G18  20686546.642 8 108708552.659 8        49.250    20686552.682 7  84707999.946 7        44.000  
G20  23327902.826 6 122588959.677 6        39.500    23327907.906 4  95523908.146 4        25.000  
G23  23934551.522 6 125776910.832 6        39.500    23934558.902 4  98008031.138 4        26.250  
G25  24879912.156 5 130744805.976 5        32.250    24879922.996 4 101879112.858 4        25.750  
G26  21596533.616 8 113490564.801 8        48.000    21596542.156 8  88434242.992 8        50.250  
G29  21042005.380 8 110576510.853 8        49.500    21042011.840 9  86163548.504 9        54.750  
R07  21095535.740 8 112926071.573 8        50.250    21095538.960 7  87831392.932 7        46.500  
R08  23495242.024 6 125815938.978 6        36.500    23495242.324 6  97856861.094 6        38.250  
R12  23576866.424 7 125943375.113 7        42.000    23576868.984 6  97955991.190 6        38.000  
R13  21146763.440 6 112922524.542 6        39.750    21146764.960 6  87828659.620 6        38.250  
R14  21744598.396 8 115910951.470 8        50.000    21744600.196 7  90153010.240 7        44.250  
R21  23780386.264 6 127253659.808 6        40.750    23780388.324 6  98975089.473 6        37.000  
R22  20119981.088 7 107401814.256 7        42.500    20119981.168 6  83534782.411 6        37.500  
R24  23652407.684 6 126480067.883 6        41.250    23652410.544 6  98373382.428 6        38.250  
> 2021 11 07 00 29  0.0000000  0 18                     
G05  21453965.658 8 112741374.558 8        48.250    21453971.198 8  87850448.051 8        51.500  
G13  24843010.436 5 130550906.849 5        33.500    24843016.916 2 101728002.839 2        17.250  
G15  24717898.116 6 129893421.823 6        38.000    24717904.096 5 101215685.382 5        31.500  
G16  23175188.746 6 121786445.123 6        41.250    23175193.506 4  94898560.470 4        28.000  
G18  20667359.244 8 108607722.336 8        49.500    20667365.324 7  84629430.889 7        44.500  
G20  23361692.966 6 122766529.725 6        38.750    23361698.306 3  95662274.364 3        23.500  
G23  23890956.882 6 125547816.063 6        41.750    23890963.322 4  97829515.787 4        27.750  
G25  24925362.894 5 130983650.665 5        34.000    24925373.254 4 102065225.602 4        25.500  
G26  21596133.096 7 113488462.616 7        47.750    21596142.196 8  88432604.917 8        50.000  
G29  21064284.260 8 110693584.036 8        50.000    21064290.160 9  86254774.359 9        54.750  
R07  21069182.460 8 112785002.923 8        50.750    21069185.840 7  87721672.916 7        46.500  
R08  23445098.464 6 125547423.675 6        36.500    23445099.424 6  97648015.948 6        38.500  
R12  23627528.004 7 126213994.696 7        42.750    23627529.404 6  98166473.068 6        39.000  
R13  21175070.740 6 113073682.778 6        39.500    21175071.780 6  87946227.110 6        38.000  
R14  21724874.556 8 115805814.213 8        49.000    21724876.556 7  90071236.823 7        44.750  
R21  23821684.684 6 127474652.649 6        39.000    23821686.864 5  99146972.642 5        35.750  
R22  20143113.988 7 107525304.438 7        42.000    20143115.868 6  83630830.329 6        36.500  
R24  23611247.624 6 126259971.376 6        41.500    23611251.684 6  98202196.339 6        38.000  
> 2021 11 07 00 30  0.0000000  0 17                     
G05  21469785.098 8 112824507.485 8        49.000    21469790.878 8  87915226.955 8        51.500  
G13  24809498.336 5 130374797.079 5        34.750    24809504.476 2 101590774.575 2        17.250  
G15  24678687.056 6 129687368.598 6        37.500    24678693.976 5 101055124.511 5        31.750  
G16  23144815.806 7 121626839.517 7        42.000    23144821.106 4  94774192.449 4        27.250  
G18  20648481.664 8 108508518.956 8        48.500    20648487.504 7  84552129.573 7        44.500  
G20  23395722.684 6 122945358.264 6        39.750    23395728.484 3  95801621.296 3        23.500  
G23  23847463.222 6 125319256.207 6        40.750    23847470.102 4  97651417.236 4        24.250  
G26  21596193.256 7 113488777.380 7        46.500    21596202.016 8  88432850.177 8        50.000  
G29  21086867.200 8 110812258.713 8        50.500    21086873.100 9  86347248.114 9        54.500  
R07  21043350.500 8 112646722.815 8        50.750    21043353.500 7  87614121.740 7        46.500  
R08  23395041.504 6 125279369.649 6        36.750    23395041.864 6  97439529.565 6        39.500  
R12  23678238.644 7 126484882.426 7        42.500    23678240.584 6  98377163.476 6        39.250  
R13  21203881.060 6 113227528.589 6        38.750    21203882.040 6  88065884.919 6        37.500  
R14  21705717.136 8 115703693.142 8        49.250    21705719.356 7  89991809.303 7        44.500  
R21  23863025.484 6 127695881.472 6        39.750    23863027.324 5  99319039.542 5        35.000  
R22  20166527.188 7 107650280.485 7        42.750    20166528.188 6  83728033.915 6        37.250  
R24  23570137.824 6 126040144.806 6        41.000    23570141.544 6  98031220.197 6        38.250  
> 2021 11 07 00 31  0.0000000  0 18                     
G05  21486051.318 7 112909988.914 7        47.250    21486057.598 8  87981835.869 8        51.500  
G13  24776172.636 5 130199670.920 5        35.000    24776178.036 2 101454312.709 2        17.250  
G15  24639569.076 6 129481802.619 6        36.000    24639575.076 4 100894943.270 4        29.250  
G16  23114781.266 6 121469002.945 6        40.750    23114786.246 4  94651202.920 4        26.500  
G18  20629914.824 8 108410948.967 8        48.500    20629920.404 7  84476101.045 7        44.500  
G20  23429988.424 6 123125426.820 6        39.750    23429993.584 3  95941934.438 3        21.500  
G23  23804074.842 6 125091251.895 6        40.750    23804082.002 4  97473751.600 4        25.250  
G25  25016269.014 5 131461356.222 5        35.000    25016277.674 5 102437463.629 5        31.250  
G26  21596713.576 7 113491510.266 7        46.500    21596722.156 8  88434979.689 8        49.750  
G29  21109753.980 8 110932529.340 8        50.000    21109759.920 9  86440965.480 9        54.500  
R07  21018045.100 8 112511258.974 8        50.750    21018048.060 7  87508761.008 7        46.750  
R08  23345076.128 6 125011809.962 6        36.250    23345077.168 6  97231427.719 6        38.750  
R12  23728992.204 6 126756006.854 6        41.000    23728996.184 6  98588037.992 6        40.000  
R13  21233189.600 6 113384033.580 6        38.500    21233190.140 6  88187610.990 6        37.250  
R14  21687128.876 8 115604608.082 8        49.000    21687131.116 7  89914743.154 7        45.250  
R21  23904410.304 6 127917339.107 6        41.000    23904412.684 5  99491284.182 5        35.000  
R22  20190215.488 7 107776733.384 7        42.250    20190216.628 6  83826386.167 6        36.500  
R24  23529082.984 6 125820597.608 6        41.250    23529084.924 6  97860461.319 6        38.000  
> 2021 11 07 00 32  0.0000000  0 18                     
G05  21502762.338 8 112997805.719 8        48.500    21502768.098 8  88050264.557 8        51.500  
G13  24743039.356 5 130025554.209 5        35.750    24743044.796 2 101318637.370 2        16.750  
G15  24600548.176 5 129276751.566 5        35.500    24600555.676 5 100735163.307 5        31.250  
G16  23085086.286 6 121312956.729 6        40.250    23085091.566 4  94529608.456 4        28.250  
G18  20611659.764 8 108315018.481 8        48.250    20611665.404 7  84401350.038 7        44.500  
G20  23464487.164 6 123306716.193 6        39.250    23464491.704 4  96083198.907 4        24.500  
G23  23760796.302 6 124863823.600 6        39.000    23760803.462 4  97296534.816 4        26.000  
G25  25061713.994 5 131700181.178 5        33.250    25061725.394 5 102623560.917 5        31.000  
G26  21597693.656 7 113496661.848 7        46.000    21597702.496 8  88438993.894 8        50.000  
G29  21132943.120 8 111054390.623 8        50.250    21132949.140 9  86535922.307 9        54.250  
R07  20993270.340 8 112378636.912 8        51.250    20993272.560 7  87405610.547 7        47.000  
R08  23295209.308 6 124744779.159 6        36.250    23295210.708 6  97023737.174 6        38.500  
R12  23779786.804 6 127027337.752 6        40.250    23779788.904 6  98799073.062 6        38.000  
R13  21262989.440 6 113543170.133 6        39.000    21262992.040 6  88311383.832 6        37.750  
R14  21669113.476 8 115508578.205 8        49.000    21669115.836 7  89840053.277 7        46.000  
R21  23945836.664 6 128139017.856 6        37.750    23945838.884 6  99663700.956 6        36.000  
R22  20214179.248 7 107904654.787 7        42.750    20214180.848 6  83925880.584 6        36.750  
R24  23488079.304 6 125601339.396 6        41.500    23488083.624 6  97689927.275 6        39.500  
> 2021 11 07 00 33  0.0000000  0 18                     
G05  21519915.498 7 113087942.566 7        47.250    21519920.718 8  88120501.070 8        51.500  
G13  24710102.516 5 129852472.737 5        34.500    24710108.636 2 101183768.799 2        17.750  
G15  24561631.138 5 129072240.597 5        35.750    24561638.118 4 100575804.171 4        29.500  
G16  23055736.688 6 121158720.792 6        40.500    23055741.668 4  94409424.617 4        27.500  
G18  20593717.444 8 108220731.768 8        48.500    20593723.024 7  84327879.890 7        44.500  
G20  23499213.624 6 123489206.640 6        39.250    23499218.204 4  96225399.290 4        24.750  
G23  23717631.922 6 124636990.068 6        39.000    23717638.562 4  97119781.490 4        27.750  
G25  25107153.994 5 131938961.904 5        33.500    25107163.674 5 102809623.795 5        30.000  
G26  21599134.076 7 113504230.660 7        46.500    21599142.676 8  88444891.660 8        50.250  
G29  21156433.900 8 111177833.800 8        49.250    21156439.740 9  86632111.789 9        54.250  
R07  20969030.924 8 112248881.096 8        51.500    20969033.544 7  87304689.392 7        47.000  
R08  23245448.568 6 124478308.821 6        36.750    23245449.408 6  96816482.500 6        39.000  
R12  23830612.164 6 127298842.267 6        38.750    23830615.324 6  99010243.160 6        37.750  
R13  21293278.760 6 113704908.449 6        38.500    21293280.800 6  88437180.276 6        37.000  
R14  21651674.836 8 115415620.676 8        50.000    21651677.216 7  89767752.953 7        45.500  
R21  23987301.960 6 128360908.944 6        40.500    23987304.640 5  99836282.763 5        35.500  
R22  20238416.768 7 108034033.985 7        42.250    20238417.868 5  84026508.846 5        35.750  
R24  23447133.044 6 125382377.658 6        41.500    23447136.204 6  97519623.776 6        37.500  
> 2021 11 07 00 34  0.0000000  0 18                     
G05  21537506.698 8 113180386.033 8        48.500    21537512.318 8  88192534.946 8        51.500  
G13  24677368.856 5 129680452.285 5        35.750    24677374.056 2 101049726.969 2        16.250  
G15  24522821.418 5 128868296.288 5        33.750    24522828.618 4 100416886.600 4        29.000  
G16  23026734.908 6 121006315.703 6        40.500    23026739.468 4  94290667.424 4        27.000  
G18  20576089.264 8 108128094.347 8        48.750    20576094.824 7  84255694.897 7        44.500  
G20  23534165.804 6 123672878.504 6        39.000    23534170.644 3  96368520.188 3        23.500  
G23  23674583.984 6 124410771.422 6        41.000    23674590.864 4  96943507.286 4        26.750  
G25  25152580.054 5 132177680.112 5        34.000    25152590.194 4 102995637.892 4        29.250  
G26  21601034.396 7 113514216.202 7        47.000    21601042.856 8  88452672.597 8        50.000  
G29  21180224.140 8 111302853.232 8        49.500    21180230.160 9  86729529.504 9        54.250  
R07  20945330.624 8 112122016.336 8        51.000    20945333.944 7  87206016.826 7        46.750  
R08  23195798.288 6 124212433.599 6        37.500    23195798.688 6  96609690.702 6        36.750  
R12  23881465.044 6 127570489.294 6        39.250    23881468.364 6  99221524.091 6        38.250  
R13  21324050.640 6 113869218.399 6        38.750    21324049.960 6  88564976.865 6        37.750  
R14  21634816.476 8 115325753.492 8        50.000    21634818.916 7  89697856.258 7        45.500  
R21  24028806.020 6 128583004.563 6        38.750    24028809.000 5 100009023.762 5        34.250  
R22  20262924.968 7 108164862.212 7        42.500    20262926.048 5  84128264.140 5        35.500  
R24  23406243.604 6 125163721.329 6        41.500    23406246.344 6  97349557.811 6        39.000  
> 2021 11 07 00 35  0.0000000  0 18                     
G05  21555534.178 8 113275119.577 8        48.250    21555539.738 8  88266353.300 8        51.500  
G13  24644840.796 5 129509518.212 5        35.500    24644845.616 2 100916531.636 2        17.750  
G15  24484125.078 6 128664943.655 6        36.500    24484131.578 4 100258429.980 4        29.250  
G16  22998085.568 7 120855761.144 7        43.000    22998089.828 4  94173352.187 4        28.250  
G18  20558775.684 8 108037110.353 8        48.500    20558781.104 7  84184798.302 7        45.000  
G20  23569338.404 6 123857711.212 6        38.750    23569343.624 4  96512545.659 4        24.500  
G23  23631656.404 6 124185186.541 6        41.000    23631662.964 4  96767726.923 4        27.750  
G25  25197991.492 5 132416316.283 5        33.250    25198001.372 4 103181588.139 4        26.500  
G26  21603394.156 7 113526616.328 7        47.500    21603402.596 8  88462335.015 8        50.250  
G29  21204313.280 8 111429440.300 8        49.500    21204319.040 9  86828168.757 9        54.250  
R07  20922175.244 8 111998065.918 8        51.250    20922179.024 7  87109610.974 7        46.500  
R08  23146264.768 6 123947185.782 6        38.000    23146265.588 6  96403386.834 6        38.000  
R12  23932338.704 6 127842247.166 6        39.500    23932343.004 6  99432891.314 6        38.250  
R13  21355295.480 6 114036069.796 6        38.500    21355296.220 6  88694750.138 6        37.750  
R14  21618540.876 8 115238992.779 8        49.750    21618542.176 7  89630375.699 7        45.500  
R21  24070346.540 6 128805296.269 6        39.750    24070349.300 5 100181917.242 5        35.750  
R22  20287702.428 7 108297128.856 7        42.500    20287704.088 6  84231138.199 6        36.750  
R24  23365413.088 7 124945378.711 7        42.250    23365415.168 6  97179735.866 6        39.750  
> 2021 11 07 00 36  0.0000000  0 18                     
G05  21573994.278 7 113372128.917 7        47.500    21573999.778 8  88341945.007 8        51.000  
G13  24612524.256 5 129339696.473 5        34.500    24612530.376 3 100784203.053 3        18.500  
G15  24445547.178 6 128462209.983 6        36.000    24445554.098 5 100100455.717 5        31.500  
G16  22969791.628 7 120707077.210 7        42.500    22969796.468 4  94057494.543 4        28.000  
G18  20541777.444 8 107947785.044 8        49.500    20541783.104 7  84115194.193 7        45.500  
G20  23604727.764 6 124043685.717 6        40.000    23604732.304 3  96657460.843 3        22.500  
G23  23588853.784 6 123960255.499 6        40.750    23588860.524 4  96592456.060 4        29.000  
G25  25243383.232 5 132654852.409 5        35.000    25243392.732 4 103367460.421 4        27.750  
G26  21606212.856 7 113541429.585 7        47.750    21606221.496 8  88473877.800 8        50.000  
G29  21228699.100 8 111557587.992 8        49.500    21228704.580 8  86928024.075 8        53.750  
R07  20899569.604 8 111877053.157 8        51.250    20899572.424 7  87015489.950 7        46.000  
R08  23096853.908 6 123682598.881 6        37.500    23096856.308 6  96197597.082 6        39.750  
R12  23983226.624 6 128114084.794 6        38.000    23983230.764 6  99644320.585 6        36.000  
R13  21387011.360 6 114205431.993 6        38.250    21387011.760 6  88826476.248 6        37.000  
R14  21602849.996 8 115155355.413 8        49.750    21602852.216 7  89565324.402 7        45.500  
R21  24111922.880 6 129027776.492 6        39.250    24111924.440 5 100354957.364 5        35.500  
R22  20312749.028 7 108430824.701 7        42.250    20312751.068 6  84335123.848 6        36.000  
R24  23324641.068 6 124727359.164 6        40.250    23324644.328 6  97010165.193 6        39.250  
> 2021 11 07 00 37  0.0000000  0 18                     
G05  21592884.216 7 113471397.514 7        47.750    21592889.736 8  88419297.167 8        50.500  
G13  24580424.958 5 129171011.897 5        35.500    24580431.338 2 100652760.588 2        17.250  
G15  24407090.078 6 128260120.983 6        37.250    24407096.898 5  99942983.808 5        32.000  
G16  22941858.108 7 120560283.911 7        42.250    22941863.088 4  93943110.162 4        28.750  
G18  20525095.444 8 107860122.734 8        50.000    20525101.344 7  84046885.913 7        45.000  
G20  23640331.464 6 124230782.597 6        39.500    23640335.864 4  96803250.622 4        25.000  
G23  23546178.744 6 123735997.560 6        40.000    23546185.424 4  96417709.697 4        27.500  
G25  25288752.232 5 132893269.422 5        34.500    25288762.412 4 103553239.866 4        28.250  
G26  21609490.516 7 113558653.902 7        47.500    21609499.416 8  88487299.337 8        50.250  
G29  21253380.000 8 111687288.665 8        49.250    21253385.800 8  87029089.515 8        53.500  
R07  20877516.484 8 111759001.133 8        50.750    20877519.424 7  86923671.738 7        46.750  
R08  23047574.848 6 123418706.365 6        37.250    23047575.668 6  95992347.394 6        41.750  
R12  24034126.540 6 128385971.025 6        40.000    24034128.500 6  99855787.591 6        39.250  
R13  21419191.620 6 114377275.031 6        37.250    21419193.180 6  88960131.899 6        36.250  
R14  21587748.536 8 115074856.234 8        50.750    21587750.856 7  89502713.926 7        45.500  
R21  24153531.280 6 129250436.831 6        38.500    24153534.460 5 100528137.640 5        34.250  
R22  20338061.108 7 108565940.221 7        42.500    20338061.808 6  84440213.682 6        36.500  
R24  23283933.668 7 124509671.122 7        42.250    23283935.888 6  96840852.340 6        40.250  
> 2021 11 07 00 38  0.0000000  0 17                     
G05  21612201.616 8 113572911.872 8        48.750    21612207.256 8  88498399.280 8        50.500  
G13  24548546.778 6 129003491.185 6        37.000    24548552.918 2 100522225.016 2        17.250  
G15  24368761.798 6 128058703.102 6        37.250    24368768.318 5  99786034.815 5        33.250  
G16  22914288.028 7 120415401.658 7        42.500    22914292.688 4  93830214.911 4        29.500  
G18  20508731.644 8 107774128.532 8        50.500    20508737.404 7  83979877.463 7        45.250  
G20  23676144.364 6 124418982.751 6        38.500    23676148.864 3  96949900.080 3        23.250  
G23  23503635.304 6 123512432.935 6        40.750    23503642.424 4  96243503.549 4        28.250  
G25  25334096.132 5 133131549.657 5        34.750    25334104.612 4 103738912.776 4        27.250  
G26  21613226.776 8 113578287.148 8        48.000    21613235.136 8  88502597.973 8        50.000  
G29  21278355.520 8 111818535.496 8        49.500    21278361.260 8  87131359.762 8        53.250  
R07  20856021.024 8 111643933.396 8        51.500    20856024.264 7  86834174.637 7        47.250  
R08  22998429.948 6 123155542.241 6        37.750    22998431.428 6  95787664.309 6        41.000  
R13  21451831.980 6 114551566.664 6        38.500    21451831.420 6  89095692.026 6        36.750  
R14  21573239.000 8 114997511.590 8        50.500    21573240.860 7  89442556.982 7        44.750  
R21  24195173.240 6 129473270.204 6        38.750    24195175.600 5 100701452.444 5        35.250  
R22  20363635.448 7 108702465.989 7        42.000    20363637.808 6  84546400.393 6        37.000  
R24  23243288.028 7 124292324.311 7        42.000    23243290.928 6  96671804.872 6        39.000  
> 2021 11 07 00 39  0.0000000  0 16                     
G05  21631943.296 7 113676654.507 7        47.750    21631949.376 8  88579237.703 8        51.000  
G13  24516894.678 6 128837158.674 6        37.750    24516900.398 2 100392615.275 2        17.750  
G15  24330565.858 6 127857982.292 6        37.000    24330572.938 5  99629629.025 5        33.500  
G16  22887084.268 7 120272448.647 7        42.750    22887089.888 4  93718822.966 4        29.500  
G18  20492685.724 8 107689805.928 8        51.000    20492691.344 7  83914171.564 7        45.750  
G20  23712164.022 6 124608265.137 6        39.000    23712169.122 3  97097392.846 3        23.000  
G23  23461228.644 6 123289580.318 6        41.000    23461234.364 4  96069852.213 4        29.000  
G25  25379408.472 5 133369673.664 5        33.500    25379418.212 4 103924463.988 4        26.500  
G26  21617420.456 8 113600325.553 8        48.000    21617428.936 8  88519770.762 8        50.000  
G29  21303623.258 8 111951319.199 8        49.250    21303629.298 8  87234827.560 8        53.250  
R07  20835086.784 8 111531870.082 8        51.500    20835089.404 7  86747014.296 7        47.000  
R08  22949428.848 6 122893139.230 6        38.500    22949429.128 6  95583573.151 6        40.000  
R13  21484923.680 6 114728276.282 6        37.250    21484924.780 6  89233132.805 6        37.000  
R14  21559324.320 8 114923334.664 8        50.000    21559325.160 7  89384863.828 7        44.250  
R22  20389473.924 6 108840391.989 6        41.750    20389475.844 6  84653676.168 6        36.500  
R24  23202707.208 7 124075326.622 7        42.000    23202710.708 6  96503028.981 6        40.500  
> 2021 11 07 00 40  0.0000000  0 15                     
G05  21652106.036 8 113782608.720 8        48.250    21652111.416 8  88661799.443 8        50.750  
G13  24485473.598 6 128672038.991 6        37.750    24485479.258 3 100263950.660 3        19.000  
G15  24292507.658 6 127657984.250 6        38.000    24292513.678 5  99473786.353 5        33.250  
G16  22860252.168 7 120131443.759 7        42.500    22860257.648 4  93608949.032 4        29.500  
G18  20476958.484 8 107607158.456 8        50.500    20476963.864 7  83849770.947 7        45.750  
G20  23748385.442 6 124798609.892 6        38.750    23748390.482 3  97245713.431 3        22.750  
G23  23418959.524 6 123067458.521 6        40.750    23418966.764 4  95896770.387 4        28.750  
G26  21622071.076 8 113624765.136 8        48.250    21622079.876 8  88538814.582 8        50.000  
G29  21329182.138 8 112085631.628 8        50.000    21329188.238 8  87339486.571 8        53.000  
R07  20814717.324 8 111422832.079 8        51.500    20814720.684 7  86662206.980 7        47.750  
R08  22900575.568 6 122631530.827 6        39.500    22900575.368 6  95380099.993 6        39.500  
R13  21518462.640 6 114907371.277 6        37.250    21518463.260 6  89372428.868 6        36.750  
R14  21546005.240 8 114852338.850 8        50.250    21546007.100 7  89329644.854 7        44.000  
R22  20415574.144 6 108979707.674 6        41.750    20415575.184 5  84762032.833 5        35.750  
R24  23162195.728 7 123858685.953 7        43.250    23162197.508 6  96334530.743 6        39.500  
> 2021 11 07 00 41  0.0000000  0 15                     
G05  21672686.536 8 113890760.362 8        48.250    21672692.316 8  88746073.455 8        51.000  
G13  24454289.398 6 128508160.174 6        38.250    24454294.018 3 100136252.985 3        18.500  
G15  24254591.620 6 127458737.820 6        38.500    24254598.260 5  99318529.421 5        32.250  
G16  22833794.908 7 119992408.992 7        42.250    22833799.588 5  93500610.260 5        30.500  
G18  20461550.784 8 107526193.102 8        51.000    20461556.904 7  83786681.073 7        46.000  
G20  23784805.562 6 124990000.494 6        39.000    23784810.782 3  97394848.942 3        22.750  
G23  23376834.846 7 122846090.000 7        42.500    23376841.286 5  95724275.480 5        30.500  
G26  21627178.276 7 113651605.019 7        47.500    21627187.116 8  88559728.765 8        50.000  
G29  21355030.938 8 112221467.800 8        50.500    21355036.798 8  87445332.912 8        53.000  
R07  20794917.864 8 111316842.831 8        51.000    20794920.824 7  86579770.921 7        47.500  
R08  22851875.248 6 122370753.294 6        38.500    22851877.328 6  95177273.045 6        39.750  
R13  21552441.220 6 115088821.048 6        36.500    21552443.560 6  89513556.435 6        37.000  
R14  21533285.600 8 114784540.385 8        50.000    21533288.280 7  89276912.706 7        44.750  
R22  20441931.484 7 109120406.215 7        42.000    20441931.764 5  84871465.013 5        35.750  
R24  23121750.928 7 123642415.324 7        42.500    23121753.548 6  96166320.318 6        38.500  
> 2021 11 07 00 43  0.0000000  1 15                     
G05  21715088.616 7 114113586.738 7        47.500    21715094.496 8  88919704.401 8        50.500  
G13  24392645.558 6 128184223.796 6        39.000    24392651.218 3  99883835.133 3        19.750  
G15  24179210.780 6 127062604.757 6        37.500    24179216.800 5  99009854.365 5        32.500  
G16  22782018.390 7 119720322.964 7        43.000    22782023.410 5  93288595.170 5        30.000  
G18  20431699.344 8 107369321.507 8        51.500    20431704.944 7  83664443.501 7        46.000  
G20  23858228.242 6 125375836.501 6        37.500    23858232.982 3  97695500.339 3        21.750  
G23  23293028.606 7 122405687.635 7        42.250    23293035.226 4  95381104.929 4        29.000  
G26  21638759.756 7 113712466.262 7        47.750    21638768.776 8  88607153.104 8        49.750  
G29  21407591.838 8 112497676.387 8        50.000    21407597.858 8  87660560.377 8        53.000  
R07  20757041.684 8 111114088.557 8        51.500    20757044.484 7  86422073.199 7        47.500  
R08  22754970.612 6 121851823.231 6        38.750    22754971.132 6  94773660.893 6        41.500  
R13  21621699.116 6 115458655.713 6        37.500    21621701.476 6  89801205.524 6        37.500  
R14  21509656.640 8 114658581.872 8        50.000    21509659.060 7  89178944.949 7        44.750  
R22  20495415.464 6 109405910.093 6        41.500    20495415.884 6  85093523.574 6        36.500  
R24  23041076.308 6 123211015.493 6        41.750    23041080.388 6  95830787.302 6        40.500  
> 2021 11 07 00 44  0.0000000  0 15                     
G05  21736903.836 8 114228226.401 8        48.000    21736909.436 8  89009034.015 8        50.000  
G13  24362195.138 6 128024215.930 6        36.750    24362202.258 2  99759153.720 2        17.750  
G15  24141753.660 6 126865769.854 6        38.000    24141760.700 5  98856476.574 5        31.750  
G16  22756706.590 6 119587307.995 6        41.500    22756711.470 4  93184947.152 4        29.250  
G18  20417256.084 8 107293421.934 8        50.250    20417261.924 7  83605300.993 7        46.000  
G20  23895221.902 6 125570242.250 6        37.000    23895227.042 3  97846985.316 3        21.750  
G23  23251354.706 6 122186691.823 6        41.500    23251361.506 4  95210458.928 4        28.750  
G26  21645232.016 7 113746477.425 7        47.500    21645240.856 8  88633655.300 8        50.000  
G29  21434300.138 8 112638030.481 8        50.000    21434306.138 8  87769927.187 8        52.500  
R07  20738972.244 8 111017361.253 8        51.750    20738975.124 7  86346840.875 7        47.500  
R08  22706774.752 6 121593737.853 6        40.500    22706775.432 6  94572927.875 6        41.500  
R13  21656966.156 6 115646973.743 6        36.500    21656967.196 6  89947675.046 6        37.000  
R14  21498749.980 8 114600444.609 8        49.500    21498752.180 7  89133727.082 7        45.000  
R22  20522538.824 6 109550695.651 6        41.250    20522539.544 5  85206134.558 5        35.250  
R24  23000850.468 7 122995904.330 7        43.500    23000853.508 6  95663478.711 6        40.500  
> 2021 11 07 00 46  0.0000000  1 15                     
G05  21781745.976 7 114463871.668 7        47.750    21781751.276 8  89192653.710 8        50.000  
G13  24302067.918 6 127708242.477 6        36.750    24302074.398 3  99512940.825 3        18.500  
G15  24067334.800 6 126474695.260 6        37.500    24067341.380 5  98551743.246 5        32.000  
G16  22707252.090 7 119327425.595 7        42.750    22707257.170 5  92982441.375 5        30.000  
G18  20389338.104 8 107146712.390 8        51.000    20389343.984 7  83490981.890 7        46.750  
G20  23969757.742 6 125961931.106 6        38.250    23969762.722 3  98152197.373 3        21.000  
G23  23168485.166 7 121751207.349 7        42.500    23168491.946 5  94871120.481 5        30.500  
G26  21659534.016 7 113821634.135 7        47.250    21659542.796 8  88692218.944 8        50.000  
G29  21488565.458 8 112923194.810 8        49.750    21488571.118 8  87992133.129 8        52.000  
R07  20704587.644 8 110833297.928 8        51.750    20704590.424 7  86203680.551 7        47.250  
R08  22610929.872 6 121080496.169 6        40.000    22610930.952 6  94173739.990 6        40.000  
R13  21728740.536 6 116030245.795 6        36.000    21728742.456 6  90245775.415 6        36.000  
R14  21478764.440 8 114493906.837 8        50.500    21478766.240 7  89050864.374 7        45.500  
R22  20577537.064 6 109844284.883 6        41.250    20577539.624 5  85434481.724 5        35.750  
R24  22920624.288 7 122566904.617 7        43.000    22920627.768 6  95329812.417 6        40.750  
> 2021 11 07 00 47  0.0000000  0 15                     
G05  21804765.976 7 114584843.074 7        47.000    21804771.036 8  89286917.151 8        49.750  
G13  24272400.160 6 127552329.066 6        37.750    24272405.440 3  99391449.934 3        19.000  
G15  24030382.600 6 126280510.209 6        37.500    24030389.140 5  98400430.332 5        33.000  
G16  22683117.350 7 119200595.850 7        42.000    22683122.350 5  92883613.011 5        30.000  
G18  20375864.966 8 107075910.801 8        51.250    20375870.806 7  83435811.833 7        46.750  
G20  24007292.700 6 126159176.627 6        37.250    24007297.500 3  98305895.185 3        19.500  
G23  23127296.526 7 121534759.112 7        43.250    23127302.866 5  94702459.564 5        31.000  
G26  21667361.756 7 113862769.807 7        47.750    21667370.636 8  88724272.706 8        49.750  
G29  21516118.818 8 113067989.742 8        49.750    21516124.718 8  88104960.330 8        51.750  
R07  20688279.444 8 110745998.586 8        52.000    20688282.004 7  86135781.083 7        47.250  
R08  22563293.112 6 120825409.479 6        38.750    22563295.092 6  93975339.261 6        39.750  
R13  21765236.816 6 116225133.622 6        36.750    21765238.076 6  90397354.796 6        36.000  
R14  21469688.140 8 114445527.646 8        50.500    21469690.580 7  89013236.104 7        46.000  
R22  20605410.564 6 109993070.555 6        41.000    20605411.104 6  85550203.917 6        36.250  
R24  22880629.768 7 122353036.798 7        42.250    22880633.248 6  95163470.865 6        41.250  
> 2021 11 07 00 48  0.0000000  0 15                     
G05  21828181.016 7 114707889.472 7        47.000    21828186.376 8  89382797.465 8        49.500  
G13  24242999.580 6 127397830.183 6        37.750    24243004.540 3  99271061.249 3        18.500  
G15  23993609.880 6 126087261.774 6        39.750    23993615.300 5  98249847.238 5        35.500  
G16  22659381.630 6 119075864.280 6        41.750    22659386.970 5  92786419.578 5        30.500  
G18  20362716.706 8 107006815.311 8        50.500    20362722.306 7  83381971.200 7        47.000  
G20  24045000.180 6 126357330.590 6        36.500    24045005.300 3  98460300.852 3        20.250  
G23  23086276.026 6 121319198.897 6        40.750    23086283.446 5  94534490.631 5        30.000  
G26  21675639.596 7 113906268.442 7        47.250    21675648.196 8  88758167.730 8        49.750  
G29  21543950.418 8 113214247.871 8        49.500    21543956.798 8  88218927.693 8        51.500  
R07  20672564.344 8 110661876.615 8        52.250    20672567.464 8  86070352.898 8        48.000  
R08  22515856.912 6 120571390.681 6        40.000    22515858.972 6  93777769.113 6        41.250  
R13  21802130.676 6 116422144.760 6        37.250    21802132.216 6  90550585.638 6        36.000  
R14  21461226.960 8 114400419.691 8        49.750    21461228.360 7  88978152.158 7        45.000  
R22  20633529.064 6 110143170.651 6        41.000    20633530.744 5  85666948.407 5        35.500  
R24  22840716.688 7 122139603.304 7        44.000    22840719.788 6  94997467.132 6        41.000  
> 2021 11 07 00 49  0.0000000  0 16                     
G05  21851987.236 8 114832993.460 8        48.000    21851992.716 8  89480281.103 8        49.500  
G13  24213873.140 6 127244771.568 6        37.250    24213878.680 3  99151794.894 3        19.500  
G15  23957017.802 6 125894977.682 6        38.250    23957024.362 5  98100015.528 5        33.000  
G16  22636049.430 7 118953249.168 7        42.250    22636054.510 5  92690875.337 5        30.500  
G18  20349893.486 8 106939430.133 8        50.750    20349899.306 7  83329463.279 7        47.000  
G20  24082877.340 6 126556374.208 6        37.250    24082881.700 3  98615399.744 3        20.250  
G23  23045430.108 7 121104547.159 7        42.000    23045436.348 5  94367229.635 5        31.250  
G26  21684365.636 7 113952124.409 7        46.500    21684374.116 8  88793899.649 8        49.500  
G29  21572059.858 8 113361961.140 8        49.500    21572065.818 8  88334028.929 8        52.000  
R07  20657446.424 8 110580948.528 8        51.750    20657449.284 7  86007408.854 7        47.500  
R08  22468627.772 6 120318474.938 6        41.000    22468628.712 7  93581056.919 7        42.500  
R13  21839414.976 5 116621246.096 5        35.500    21839418.136 5  90705442.204 5        35.500  
R14  21453379.400 8 114358592.789 8        50.250    21453381.260 7  88945620.112 7        45.750  
R15  24116410.560 6 128870785.744 6        40.250    24116412.120 6 100232869.312 6        38.250  
R22  20661892.804 6 110294576.569 6        41.000    20661894.104 5  85784708.555 5        35.250  
R24  22800886.748 7 121926614.389 7        42.750    22800890.028 6  94831809.098 6        41.000  
> 2021 11 07 00 50  0.0000000  0 16                     
G05  21876181.996 7 114960137.467 7        47.000    21876187.696 8  89579354.351 8        49.500  
G13  24185025.820 6 127093178.070 6        37.500    24185030.840 3  99033670.080 3        18.500  
G15  23920616.642 6 125703685.418 6        37.000    23920622.762 5  97950956.846 5        33.000  
G16  22613122.050 7 118832768.134 7        42.500    22613127.510 5  92596994.013 5        30.000  
G18  20337396.886 8 106873758.741 8        50.250    20337402.506 7  83278290.782 7        47.500  
G20  24120920.340 6 126756288.936 6        37.500    24120924.240 3  98771177.398 3        20.500  
G23  23004759.728 7 120890823.803 7        43.000    23004766.068 5  94200692.004 5        31.250  
G26  21693539.136 7 114000331.301 7        45.750    21693547.636 8  88831463.440 8        49.500  
G29  21600443.996 8 113511121.554 8        49.250    21600450.096 8  88450257.807 8        51.750  
R07  20642927.564 8 110503230.651 8        51.750    20642931.244 8  85946961.634 8        48.000  
R08  22421609.752 6 120066697.206 6        41.250    22421611.192 7  93385229.836 7        42.500  
R13  21877085.156 5 116822402.756 5        35.500    21877087.856 6  90861897.307 6        36.500  
R14  21446149.980 8 114320054.750 8        50.500    21446151.720 7  88915646.066 7        45.250  
R15  24075570.700 6 128652552.269 6        40.750    24075573.060 6 100063132.250 6        37.000  
R22  20690498.584 6 110447279.152 6        41.000    20690500.564 5  85903477.208 5        35.500  
R24  22761142.132 7 121714080.047 7        43.250    22761144.732 6  94666504.711 6        40.250  
> 2021 11 07 00 51  0.0000000  0 16                     
G05  21900760.774 7 115089298.496 7        47.500    21900766.254 8  89679999.319 8        49.250  
G13  24156460.920 6 126943069.369 6        38.250    24156467.220 3  98916702.339 3        19.250  
G15  23884408.082 6 125513406.585 6        40.000    23884413.302 5  97802687.634 5        34.750  
G16  22590604.290 7 118714433.695 7        43.500    22590608.750 5  92504785.358 5        32.250  
G18  20325225.366 8 106809799.170 8        51.000    20325231.386 7  83228452.162 7        47.500  
G20  24159122.320 6 126957051.284 6        37.250    24159128.300 3  98927615.544 3        19.500  
G23  22964268.628 7 120678043.189 7        42.500    22964274.888 5  94034888.967 5        31.000  
G26  21703157.616 7 114050876.852 7        46.500    21703166.176 8  88870849.573 8        49.500  
G29  21629101.176 8 113661714.835 8        49.750    21629107.056 8  88567603.206 8        51.500  
R07  20629011.584 8 110428733.043 8        52.500    20629014.604 8  85889019.067 8        48.250  
R08  22374809.292 6 119816087.008 6        40.750    22374811.632 7  93190310.853 7        42.250  
R13  21915133.896 5 117025577.006 5        35.250    21915135.956 6  91019921.647 6        36.250  
R14  21439537.240 8 114284807.547 8        50.250    21439540.060 7  88888231.585 7        46.000  
R15  24035030.640 7 128435921.435 7        43.250    24035032.820 6  99894641.660 6        37.000  
R22  20719345.384 6 110601264.110 6        40.750    20719347.184 5  86023243.268 5        35.000  
R24  22721483.472 7 121502005.960 7        44.000    22721486.172 6  94501558.274 6        41.000  
> 2021 11 07 00 52  0.0000000  0 16                     
G05  21925719.534 7 115220459.874 7        47.250    21925725.114 8  89782202.994 8        49.000  
G13  24128184.700 6 126794472.316 6        38.750    24128189.000 3  98800912.481 3        19.500  
G15  23848396.682 5 125324170.419 5        35.750    23848402.862 5  97655231.082 5        33.500  
G16  22568498.350 7 118598265.634 7        42.500    22568503.170 5  92414264.801 5        31.000  
G18  20313381.226 8 106747557.041 8        50.500    20313387.086 7  83179951.815 7        47.500  
G20  24197485.360 6 127158644.626 6        36.750    24197490.280 3  99084701.251 3        21.250  
G23  22923961.768 7 120466227.428 7        43.000    22923967.688 5  93869837.803 5        31.250  
G26  21713220.296 7 114103756.345 7        46.000    21713228.876 8  88912054.359 8        49.500  
G29  21658029.736 8 113813734.259 8        48.500    21658035.276 8  88686059.878 8        51.000  
R07  20615699.284 8 110357472.595 8        52.250    20615702.104 7  85833594.288 7        47.750  
R08  22328234.712 6 119566681.259 6        40.500    22328236.092 6  92996328.710 6        41.000  
R13  21953553.716 5 117230736.154 5        35.750    21953556.076 6  91179489.807 6        36.000  
R14  21433544.880 8 114252860.296 8        50.500    21433546.300 7  88863383.721 7        46.000  
R15  23994798.780 7 128220928.126 7        43.250    23994799.960 5  99727424.594 5        35.500  
R22  20748431.004 6 110756524.860 6        41.000    20748432.844 5  86144001.639 5        35.750  
R24  22681912.192 7 121290404.818 7        44.000    22681915.552 6  94336979.652 6        40.500  
> 2021 11 07 00 53  0.0000000  0 17                     
G05  21951056.274 7 115353604.419 7        47.250    21951061.394 8  89885952.001 8        48.500  
G13  24100199.520 6 126647411.959 6        38.500    24100204.860 3  98686319.993 3        21.500  
G15  23812590.582 6 125136004.599 6        39.750    23812597.062 6  97508608.447 6        37.500  
G16  22546807.830 7 118484281.324 7        42.500    22546812.570 5  92325445.870 5        31.250  
G18  20301864.646 8 106687036.029 8        50.500    20301870.346 7  83132792.592 7        47.500  
G20  24236001.980 6 127361051.296 6        37.000    24236006.820 3  99242420.668 3        18.500  
G23  22883841.388 7 120255396.795 7        43.250    22883848.048 5  93705554.232 5        31.250  
G26  21723725.576 7 114158962.687 7        46.250    21723734.096 8  88955072.267 8        49.000  
G27  24988648.414 5 131316229.255 5        33.250    24988656.234 3 102324364.913 3        18.500  
G29  21687227.536 8 113967171.820 8        48.750    21687233.656 8  88805621.587 8        51.000  
R07  20602994.684 8 110289463.991 8        52.500    20602997.544 7  85780698.722 7        47.250  
R08  22281892.492 7 119318515.406 7        42.500    22281892.552 6  92803310.854 6        40.500  
R13  21992339.336 5 117437847.653 5        35.500    21992340.216 5  91340576.469 5        35.000  
R14  21428171.660 8 114224219.743 8        50.000    21428173.740 7  88841107.722 7        45.500  
R15  23954877.484 7 128007605.892 7        42.500    23954879.604 5  99561507.216 5        35.750  
R22  20777754.244 6 110913052.721 6        41.000    20777755.084 5  86265745.513 5        35.000  
R24  22642432.132 7 121079287.328 7        43.500    22642436.232 7  94172777.247 7        43.000  
> 2021 11 07 00 54  0.0000000  0 17                     
G05  21976766.054 7 115488711.300 7        47.250    21976771.454 8  89991230.090 8        48.000  
G13  24072511.200 6 126501912.032 6        38.750    24072516.960 3  98572943.475 3        20.000  
G15  23776992.602 6 124948934.754 6        39.500    23776999.022 6  97362839.883 6        37.000  
G16  22525535.610 7 118372496.483 7        44.000    22525540.450 5  92238340.797 5        31.500  
G18  20290675.526 8 106628237.640 8        51.000    20290681.386 7  83086975.667 7        47.750  
G20  24274669.540 6 127564250.979 6        37.500    24274674.580 3  99400758.067 3        20.500  
G23  22843912.568 7 120045569.417 7        43.000    22843919.388 5  93542052.444 5        33.000  
G26  21734671.796 7 114216486.523 7        46.500    21734680.856 8  88999896.021 8        49.250  
G27  24946459.734 5 131094520.268 5        34.000    24946467.094 2 102151604.653 2        17.250  
G29  21716693.676 8 114122017.409 8        49.000    21716699.656 8  88926280.478 8        50.750  
R07  20590899.664 8 110224719.395 8        52.000    20590902.924 7  85730341.839 7        47.000  
R08  22235785.832 6 119071622.411 6        41.250    22235787.592 7  92611282.994 7        42.750  
R13  22031483.656 5 117646874.469 5        35.500    22031485.276 5  91503152.849 5        34.250  
R14  21423420.240 8 114198889.668 8        50.750    21423421.860 7  88821406.551 7        45.500  
R15  23915275.004 6 127795986.748 6        41.000    23915278.224 6  99396914.627 6        37.250  
R22  20807311.204 6 111070837.260 6        40.750    20807314.224 5  86388466.798 5        35.500  
R24  22603044.512 7 120868662.925 7        44.500    22603047.072 7  94008958.319 7        42.250  
> 2021 11 07 00 55  0.0000000  0 17                     
G05  22002846.354 7 115625763.011 7        47.750    22002851.434 7  90098023.639 7        47.750  
G13  24045124.840 6 126357996.763 6        39.000    24045130.560 3  98460801.740 3        20.750  
G15  23741607.202 6 124762988.826 6        39.250    23741612.642 5  97217947.006 5        33.750  
G16  22504685.290 7 118262928.305 7        43.500    22504690.630 5  92152962.982 5        32.000  
G18  20279815.006 8 106571165.351 8        51.750    20279820.886 8  83042503.760 8        48.000  
G20  24313484.958 5 127768225.803 5        35.500    24313490.158 3  99559699.425 3        19.250  
G23  22804178.828 7 119836765.525 7        42.500    22804185.008 5  93379348.180 5        33.000  
G26  21746057.976 7 114276320.146 7        46.000    21746066.656 8  89046519.611 8        49.250  
G27  24904310.674 5 130873030.657 5        34.000    24904318.974 3 101979015.375 3        19.000  
G29  21746425.576 8 114278262.013 8        48.500    21746432.176 8  89048029.495 8        50.250  
R07  20579416.864 8 110163252.189 8        52.000    20579419.924 8  85682534.025 8        48.000  
R08  22189925.072 6 118826037.807 6        41.500    22189926.372 7  92420272.799 7        42.250  
R13  22070979.296 5 117857784.296 5        34.500    22070981.456 5  91667193.763 5        35.000  
R14  21419290.280 8 114176875.348 8        50.000    21419292.260 7  88804284.304 7        45.500  
R15  23875999.044 6 127586104.063 6        41.000    23876001.324 6  99233672.672 6        37.500  
R22  20837104.664 6 111229870.199 6        41.250    20837105.484 5  86512159.058 5        35.750  
R24  22563751.052 7 120658543.135 7        44.500    22563753.752 7  93845531.872 7        42.000  
> 2021 11 07 00 56  0.0000000  0 17                     
G05  22029292.354 7 115764736.434 7        46.500    22029297.374 7  90206314.634 7        47.750  
G13  24018045.100 6 126215686.109 6        39.000    24018050.160 3  98349910.336 3        20.750  
G15  23706441.302 6 124578190.149 6        40.000    23706447.102 6  97073948.104 6        36.000  
G16  22484259.292 7 118155588.977 7        43.250    22484264.072 5  92069321.945 5        31.250  
G18  20269282.426 8 106515817.977 8        52.000    20269288.506 7  82999375.955 7        47.750  
G20  24352442.958 6 127972953.787 6        36.750    24352448.058 3  99719227.669 3        19.000  
G23  22764642.830 7 119629000.669 7        43.750    22764648.610 5  93217453.549 5        33.000  
G26  21757881.016 7 114338451.045 7        46.500    21757889.856 8  89094933.293 8        49.250  
G27  24862206.576 5 130651770.439 5        33.250    24862214.316 2 101806604.840 2        17.250  
G29  21776422.156 8 114435893.392 8        48.250    21776428.276 8  89170859.120 8        50.500  
R07  20568548.184 8 110105070.229 8        52.500    20568551.544 7  85637281.391 7        47.500  
R08  22144313.536 7 118581792.831 7        42.000    22144314.876 7  92230304.542 7        43.000  
R13  22110819.096 5 118070536.316 5        34.000    22110823.376 5  91832667.478 5        35.750  
R14  21415782.480 8 114158176.728 8        50.500    21415784.120 7  88789740.923 7        46.250  
R15  23837050.284 6 127377985.901 6        39.750    23837054.624 6  99071803.050 6        37.250  
R22  20867128.804 6 111390138.270 6        40.750    20867129.724 5  86636811.985 5        34.500  
R24  22524552.572 7 120448934.544 7        43.500    22524556.092 7  93682503.011 7        42.250  
> 2021 11 07 00 57  0.0000000  0 17                     
G05  22056100.594 7 115905616.659 7        47.000    22056106.274 7  90316091.437 7        47.500  
G13  23991274.880 6 126075008.103 6        39.000    23991279.960 3  98240291.137 3        21.500  
G15  23671499.364 6 124394568.497 6        39.250    23671505.924 6  96930866.408 6        36.500  
G16  22464261.332 7 118050498.183 7        43.750    22464266.152 5  91987433.005 5        30.750  
G18  20259080.106 8 106462201.518 8        51.500    20259085.706 8  82957596.893 8        48.000  
G20  24391542.178 5 128178419.998 5        35.000    24391546.998 3  99879331.222 3        18.250  
G23  22725307.670 7 119422297.824 7        44.250    22725313.910 5  93056386.460 5        32.000  
G26  21770140.496 7 114402873.668 7        46.000    21770149.336 8  89145132.723 8        49.250  
G27  24820148.976 5 130430757.290 5        35.750    24820156.616 3 101634386.773 3        19.000  
G29  21806681.216 8 114594905.014 8        48.500    21806687.176 8  89294764.268 8        50.000  
R07  20558296.044 8 110050188.827 8        52.250    20558298.804 8  85594595.875 8        48.000  
R08  22098961.396 7 118338925.059 7        42.000    22098961.116 7  92041407.436 7        43.000  
R13  22151003.776 5 118285101.151 5        34.000    22151004.396 5  91999551.149 5        35.250  
R14  21412896.980 8 114142801.101 8        50.250    21412899.800 7  88777782.087 7        46.250  
R15  23798443.444 7 127171668.827 7        42.750    23798444.924 6  98911334.283 6        38.500  
R22  20897381.844 6 111551635.929 6        40.250    20897383.864 5  86762421.260 5        35.000  
R24  22485454.232 7 120239851.379 7        45.000    22485456.252 7  93519882.830 7        42.750  
> 2021 11 07 00 58  0.0000000  0 17                     
G05  22083268.054 7 116048381.989 7        45.500    22083274.014 7  90427337.153 7        47.000  
G13  23964818.882 6 125935984.718 6        39.250    23964824.702 3  98131961.239 3        20.750  
G15  23636786.644 6 124212149.818 6        40.500    23636791.944 6  96788722.077 6        36.000  
G16  22444694.252 7 117947670.201 7        43.500    22444698.712 5  91907307.310 5        32.500  
G18  20249206.506 8 106410317.063 8        51.500    20249212.406 8  82917167.458 8        48.250  
G20  24430778.218 6 128384605.178 6        36.500    24430782.478 2 100039994.900 2        17.750  
G23  22686179.170 7 119216674.960 7        44.500    22686185.430 5  92896160.913 5        33.250  
G26  21782833.256 7 114469577.318 7        45.750    21782842.216 8  89197109.580 8        49.000  
G27  24778141.816 5 130210003.875 5        35.500    24778148.876 3 101462371.125 3        19.000  
G29  21837201.056 8 114755286.523 8        48.250    21837206.756 8  89419736.848 8        50.000  
R07  20548661.224 8 109998617.185 8        52.250    20548665.184 7  85554484.617 7        47.500  
R08  22053870.156 7 118097468.151 7        42.500    22053870.456 7  91853607.660 7        42.000  
R13  22191516.032 5 118501441.718 5        35.500    22191518.292 5  92167815.968 5        34.750  
R14  21410636.640 8 114130749.389 8        50.250    21410639.240 7  88768408.523 7        45.500  
R15  23760176.624 7 126967184.245 7        43.000    23760178.504 6  98752290.838 6        38.750  
R22  20927864.664 6 111714352.668 6        40.750    20927865.864 5  86888978.707 5        34.500  
R24  22446453.832 7 120031303.080 7        45.000    22446456.912 7  93357678.651 7        42.000  
> 2021 11 07 00 59  0.0000000  0 17                     
G05  22110790.214 7 116193013.382 7        45.750    22110796.114 7  90540036.944 7        47.000  
G13  23938682.642 6 125798638.596 6        39.000    23938688.982 3  98024938.260 3        22.000  
G15  23602306.404 6 124030960.386 6        39.750    23602313.404 6  96647535.582 6        36.000  
G16  22425559.892 7 117847119.695 7        44.250    22425564.532 5  91828956.259 5        31.750  
G18  20239663.226 8 106360166.178 8        51.750    20239668.986 8  82878088.853 8        48.500  
G20  24470147.038 6 128591489.860 6        36.750    24470151.998 3 100201203.706 3        18.500  
G23  22647259.430 7 119012150.580 7        44.750    22647265.310 5  92736791.322 5        32.750  
G26  21795959.036 7 114538551.448 7        46.000    21795967.756 8  89250855.652 8        49.000  
G27  24736186.456 5 129989523.917 5        35.250    24736192.916 3 101290568.523 3        20.500  
G29  21867978.736 7 114917026.937 7        47.750    21867985.196 8  89545768.307 8        49.500  
R07  20539648.104 8 109950364.757 8        52.250    20539650.844 8  85516954.965 8        48.000  
R08  22009048.676 7 117857455.672 7        42.750    22009049.936 7  91666931.332 7        42.000  
R13  22232355.452 5 118719521.787 5        35.250    22232357.652 5  92337433.760 5        33.500  
R14  21408999.540 8 114122022.381 8        50.250    21409001.660 7  88761620.863 7        45.000  
R15  23722259.344 7 126764562.866 7        45.000    23722260.764 6  98594696.486 6        36.500  
R22  20958573.284 6 111878278.915 6        41.250    20958574.144 5  87016476.900 5        34.500  
R24  22407556.472 7 119823300.252 7        44.750    22407558.632 6  93195898.716 6        41.500  
> 2021 11 07 01 00  0.0000000  0 17                     
G05  22138663.894 7 116339490.107 7        46.000    22138669.794 7  90654174.664 7        46.750  
G13  23912870.562 6 125662993.416 6        38.500    23912875.802 3  97919240.713 3        20.750  
G15  23568066.104 6 123851026.374 6        40.000    23568073.064 6  96507327.321 6        37.000  
G16  22406861.372 7 117748861.415 7        44.500    22406866.652 5  91752391.371 5        32.500  
G18  20230449.946 8 106311750.583 8        51.750    20230455.826 8  82840362.423 8        48.500  
G20  24509645.818 6 128799055.510 6        38.000    24509649.958 3 100362943.170 3        19.500  
G23  22608552.070 7 118808743.565 7        44.000    22608558.490 5  92578292.400 5        33.500  
G26  21809514.516 7 114609785.637 7        46.500    21809523.216 8  89306362.800 8        48.750  
G27  24694284.556 5 129769331.404 5        35.500    24694291.856 3 101118989.911 3        19.750  
G29  21899014.054 7 115080117.302 7        47.000    21899020.434 8  89672851.667 8        49.250  
R07  20531255.524 8 109905440.016 8        52.750    20531258.784 8  85482013.527 8        48.000  
R08  21964504.416 7 117618922.545 7        42.750    21964505.856 7  91481405.591 7        42.250  
R13  22273514.652 5 118939307.157 5        34.500    22273515.512 5  92508377.872 5        34.500  
R14  21407986.480 8 114116621.460 8        50.500    21407988.420 7  88757420.149 7        45.750  
R15  23684695.664 6 126563837.099 6        41.500    23684696.604 6  98438576.491 6        37.000  
R22  20989506.640 6 112043405.096 6        40.750    20989508.620 5  87144908.353 5        34.750  
R24  22368762.792 7 119615853.669 7        45.250    22368765.512 7  93034551.442 7        42.500  
> 2021 11 07 01 01  0.0000000  0 17                     
G05  22166884.994 7 116487792.899 7        45.750    22166890.954 7  90769735.283 7        46.750  
G13  23887386.082 6 125529072.014 6        39.500    23887391.942 3  97814886.440 3        21.500  
G15  23534069.324 6 123672374.627 6        40.250    23534076.404 6  96368118.192 6        37.500  
G16  22388602.832 7 117652909.820 7        44.500    22388607.952 5  91677623.905 5        32.500  
G18  20221567.786 8 106265072.389 8        51.750    20221573.166 8  82803989.804 8        48.750  
G20  24549269.138 6 129007284.223 6        37.250    24549274.478 2 100525199.224 2        17.250  
G23  22570061.130 7 118606473.056 7        44.500    22570067.770 5  92420679.078 5        34.000  
G26  21823497.836 7 114683269.496 7        46.750    21823506.556 8  89363622.932 8        48.500  
G27  24652440.236 5 129549440.914 5        33.000    24652447.956 3 100947646.633 3        19.500  
G29  21930303.814 7 115244547.617 7        47.000    21930310.354 8  89800979.156 8        49.000  
R07  20523486.844 8 109863851.983 8        52.250    20523489.544 7  85449667.285 7        47.500  
R08  21920244.396 7 117381902.870 7        43.750    21920244.236 7  91297056.957 7        43.250  
R13  22314986.992 5 119160760.632 5        34.500    22314987.912 5  92680619.420 5        33.750  
R14  21407597.220 8 114114546.829 8        50.250    21407599.280 7  88755806.536 7        46.000  
R15  23647492.824 6 126365039.090 6        41.000    23647495.004 6  98283955.884 6        37.500  
R22  21020663.720 6 112209721.722 6        40.250    21020664.580 5  87274265.705 5        34.250  
R24  22330075.392 7 119408974.303 7        45.500    22330078.232 7  92873645.319 7        42.750  
> 2021 11 07 01 02  0.0000000  0 17                     
G05  22195449.572 7 116637900.560 7        46.000    22195455.272 7  90886702.289 7        47.000  
G13  23862234.282 6 125396895.961 6        40.750    23862239.322 3  97711892.127 3        21.500  
G15  23500322.504 6 123495030.591 6        41.250    23500328.584 6  96229928.079 6        37.250  
G16  22370785.092 7 117559279.192 7        45.000    22370790.452 5  91604664.966 5        32.750  
G18  20213015.846 8 106220132.219 8        52.500    20213021.386 8  82768971.500 8        48.750  
G20  24589016.536 6 129216156.475 6        38.000    24589022.596 2 100687956.807 2        17.750  
G23  22531790.230 7 118405356.910 7        44.000    22531796.710 5  92263965.256 5        34.000  
G26  21837907.416 7 114758991.055 7        46.500    21837916.236 8  89422626.723 8        48.750  
G27  24610656.436 5 129329865.852 5        33.750    24610663.876 3 100776549.190 3        19.750  
G29  21961847.214 7 115410306.260 7        47.000    21961853.434 8  89930141.703 8        49.000  
R07  20516342.204 8 109825607.755 8        52.500    20516345.284 8  85419921.798 8        48.500  
R08  21876270.976 7 117146429.573 7        43.000    21876270.936 7  91113911.098 7        44.250  
R13  22356763.472 5 119383847.458 5        33.000    22356764.492 5  92854131.321 5        33.500  
R14  21407832.080 8 114115797.104 8        50.000    21407833.540 7  88756778.962 7        45.500  
R15  23610656.684 6 126168199.484 6        41.000    23610659.204 6  98130858.539 6        37.750  
R22  21052042.000 6 112377218.875 6        40.250    21052043.420 5  87404541.254 5        34.000  
R24  22291495.732 7 119202671.828 7        45.000    22291498.072 7  92713187.907 7        42.750  
> 2021 11 07 01 03  0.0000000  0 18                     
G05  22224353.472 7 116789790.195 7        45.750    22224358.552 7  91005057.865 7        46.750  
G10  25365554.532 5 133296906.339 5        34.500    25365564.372 5 103867746.258 5        31.250  
G13  23837416.262 6 125266485.180 6        38.500    23837423.382 3  97610273.425 3        21.000  
G15  23466827.864 6 123319018.359 6        41.000    23466834.684 6  96092775.789 6        36.250  
G16  22353412.072 7 117467979.930 7        44.250    22353416.832 5  91533522.704 5        32.500  
G18  20204794.406 8 106176928.722 8        52.500    20204800.006 8  82735306.444 8        48.750  
G20  24628883.316 5 129425652.016 5        35.750    24628887.656 2 100851200.012 2        15.500  
G23  22493741.810 7 118205410.964 7        45.000    22493748.110 5  92108163.287 5        34.750  
G26  21852739.576 7 114836936.056 7        46.250    21852748.636 8  89483363.083 8        48.500  
G27  24568934.798 5 129110617.961 5        33.500    24568942.498 3 100605706.735 3        19.250  
G29  21993640.434 7 115577380.958 7        47.750    21993646.434 8  90060329.753 8        48.750  
R07  20509822.684 8 109790711.008 8        52.500    20509826.004 8  85392779.909 8        48.500  
R08  21832591.176 7 116912533.903 7        43.000    21832592.636 7  90931992.299 7        43.500  
R13  22398838.212 5 119608527.151 5        33.500    22398840.612 5  93028882.125 5        33.750  
R14  21408689.660 8 114120368.230 8        49.750    21408690.860 7  88760334.295 7        45.500  
R15  23574193.464 7 125973347.172 7        43.750    23574194.744 6  97979306.826 6        38.750  
R22  21083637.620 6 112545884.483 6        40.500    21083639.160 5  87535725.614 5        34.000  
R24  22253025.192 7 118996954.872 7        44.500    22253027.872 7  92553185.865 7        42.500  
> 2021 11 07 01 04  0.0000000  0 18                     
G05  22253592.932 7 116943447.358 7        46.250    22253598.652 7  91124790.716 7        46.500  
G10  25322116.632 5 133068635.245 5        35.000    25322126.032 4 103689872.706 4        29.750  
G13  23812942.162 6 125137867.436 6        39.750    23812947.722 3  97510051.840 3        22.000  
G15  23433593.184 6 123144368.661 6        40.250    23433599.824 6  95956685.160 6        37.500  
G16  22336485.692 7 117379030.903 7        45.000    22336490.272 5  91464211.774 5        33.250  
G18  20196904.606 8 106135468.710 8        52.000    20196910.486 8  82702999.939 8        49.000  
G20  24668864.416 6 129635757.817 6        36.500    24668869.856 2 101014918.797 2        17.250  
G23  22455920.392 7 118006659.335 7        44.750    22455926.612 5  91953291.925 5        34.500  
G26  21867994.116 7 114917098.296 7        46.000    21868002.896 8  89545827.146 8        48.500  
G27  24527280.178 5 128891717.280 5        35.500    24527287.118 3 100435134.711 3        20.000  
G29  22025683.074 7 115745766.715 7        46.250    22025689.354 8  90191539.406 8        48.750  
R07  20503931.784 8 109759173.974 8        52.500    20503934.584 8  85368251.119 8        48.750  
R08  21789215.536 7 116680255.599 7        43.750    21789216.256 7  90751331.422 7        44.250  
R13  22441206.192 5 119834770.689 5        34.750    22441207.492 5  93204849.272 5        33.000  
R14  21410170.520 8 114128263.587 8        50.250    21410172.320 7  88766475.110 7        46.000  
R15  23538107.884 7 125780518.702 7        45.000    23538110.364 6  97829329.136 6        40.750  
R22  21115453.440 6 112715714.486 6        39.750    21115454.980 5  87667815.598 5        34.000  
R24  22214667.872 7 118791839.945 7        46.000    22214670.912 7  92393652.075 7        43.250  
> 2021 11 07 01 05  0.0000000  0 18                     
G05  22283165.612 7 117098850.142 7        45.500    22283170.312 7  91245883.802 7        46.250  
G10  25278693.772 6 132840451.904 6        36.750    25278704.372 5 103512067.507 5        30.750  
G13  23788812.662 6 125011063.551 6        39.500    23788818.022 3  97411243.688 3        22.000  
G15  23400622.984 6 122971107.073 6        40.000    23400628.904 6  95821676.184 6        36.500  
G16  22320008.672 7 117292444.566 7        45.500    22320013.552 5  91396741.903 5        33.750  
G18  20189346.826 8 106095752.190 8        52.000    20189352.786 8  82672052.016 8        49.250  
G20  24708959.516 5 129846454.428 5        34.750    24708964.496 2 101179097.905 2        16.250  
G23  22418330.532 7 117809119.343 7        44.250    22418336.172 5  91799364.734 5        34.000  
G26  21883667.976 7 114999464.565 7        45.750    21883676.556 8  89610008.634 8        48.250  
G27  24485693.578 6 128673177.297 6        36.500    24485700.438 3 100264843.850 3        20.750  
G29  22057973.314 7 115915450.909 7        46.750    22057978.894 8  90323760.840 8        48.250  
R07  20498668.144 8 109731000.921 8        52.500    20498671.864 8  85346338.767 8        48.000  
R08  21746147.756 7 116449627.250 7        44.000    21746148.396 7  90571953.865 7        44.500  
R13  22483861.272 5 120062540.306 5        35.500    22483862.492 5  93382003.356 5        34.500  
R14  21412274.960 8 114139479.646 8        49.750    21412276.340 7  88775198.711 7        45.750  
R15  23502406.224 7 125589744.059 7        45.000    23502409.164 6  97680948.929 6        40.000  
R22  21147484.040 6 112886698.163 6        40.500    21147485.580 5  87800802.900 5        34.000  
R24  22176424.536 7 118587336.869 7        45.500    22176427.696 7  92234594.168 7        43.000  
> 2021 11 07 01 06  0.0000000  0 18                     
G05  22313065.612 7 117255975.511 7        46.000    22313070.272 7  91368319.161 7        46.250  
G10  25235291.452 6 132612369.935 6        38.250    25235300.972 4 103334341.292 4        27.500  
G13  23765031.062 6 124886093.037 6        38.750    23765036.462 3  97313864.092 3        22.250  
G15  23367920.966 6 122799257.471 6        40.250    23367927.266 6  95687767.423 6        37.750  
G16  22303983.792 7 117208231.774 7        45.750    22303988.412 5  91331121.536 5        33.000  
G18  20182120.826 8 106057777.924 8        52.500    20182126.346 8  82642461.685 8        49.250  
G20  24749161.616 5 130057721.726 5        33.500    24749167.016 2 101343721.691 2        16.250  
G23  22380972.992 7 117612807.099 7        44.750    22380979.012 5  91646394.195 5        34.500  
G26  21899757.954 7 115084020.120 7        45.750    21899767.054 8  89675896.069 8        48.250  
G27  24444177.738 5 128455010.561 5        35.250    24444184.498 3 100094843.765 3        21.750  
G29  22090507.674 7 116086422.119 7        46.500    22090513.594 8  90456985.125 8        48.000  
R07  20494034.364 8 109706194.274 8        52.250    20494037.584 8  85327044.723 8        48.250  
R08  21703392.476 7 116220680.549 7        42.500    21703393.616 7  90393884.241 7        44.500  
R13  22526792.792 5 120291798.460 5        33.500    22526794.872 5  93560315.203 5        34.250  
R14  21415000.360 8 114154010.493 8        49.750    21415002.600 7  88786500.466 7        45.500  
R15  23467095.604 7 125401052.233 7        44.250    23467097.644 6  97534188.665 6        40.250  
R22  21179729.660 6 113058824.067 6        39.750    21179730.680 5  87934678.603 5        33.000  
R24  22138297.936 7 118383454.630 7        45.500    22138300.016 7  92076019.144 7        42.750  
> 2021 11 07 01 07  0.0000000  0 18                     
G05  22343289.892 7 117414804.657 7        46.000    22343294.532 7  91492082.144 7        46.250  
G10  25191911.612 6 132384406.675 6        37.750    25191921.352 4 103156707.540 4        29.750  
G13  23741603.082 6 124762978.857 6        39.250    23741608.762 3  97217931.024 3        22.500  
G15  23335492.886 6 122628846.492 6        41.250    23335499.706 6  95554979.707 6        37.750  
G16  22288412.812 7 117126406.111 7        45.500    22288417.472 5  91267361.276 5        33.000  
G18  20175226.246 8 106021548.094 8        52.250    20175232.046 8  82614230.654 8        49.250  
G20  24789470.616 5 130269543.464 5        33.500    24789474.996 2 101508777.630 2        17.250  
G23  22343853.192 7 117417742.206 7        45.500    22343859.492 5  91494395.626 5        34.250  
G26  21916263.034 7 115170753.574 7        45.250    21916271.894 8  89743480.554 8        48.000  
G27  24402736.218 5 128237233.283 5        35.750    24402742.438 3  99925147.207 3        21.500  
G29  22123285.254 7 116258670.134 7        45.750    22123291.534 7  90591204.327 7        47.750  
R07  20490030.684 8 109684759.245 8        52.500    20490033.404 8  85310373.057 8        48.500  
R08  21660958.996 7 115993449.938 7        44.500    21660959.896 7  90217149.345 7        43.750  
R13  22569998.732 5 120522509.940 5        33.500    22569999.652 5  93739757.379 5        35.250  
R14  21418348.360 8 114171853.659 8        50.500    21418350.100 7  88800378.480 7        45.500  
R15  23432179.364 6 125214475.250 6        40.500    23432183.024 6  97389073.357 6        39.000  
R22  21212187.360 6 113232083.627 6        40.250    21212187.920 5  88069436.035 5        34.000  
R24  22100289.476 7 118180205.635 7        46.500    22100291.856 7  91917936.633 7        43.500  
> 2021 11 07 01 08  0.0000000  0 18                     
G05  22373833.592 7 117575315.348 7        45.000    22373839.052 7  91617155.412 7        46.000  
G10  25148556.914 5 132156576.843 5        35.000    25148566.714 4 102979177.776 4        29.000  
G13  23718532.922 6 124641740.649 6        40.000    23718537.902 3  97123459.694 3        22.500  
G15  23303343.986 7 122459898.909 7        43.000    23303349.286 6  95423332.262 6        39.500  
G16  22273297.992 7 117046977.850 7        44.500    22273302.632 5  91205469.131 5        33.500  
G18  20168664.046 8 105987062.002 8        52.500    20168669.686 8  82587358.375 8        49.500  
G20  24829880.056 5 130481900.107 5        32.250    24829885.916 2 101674250.273 2        16.250  
G23  22306974.412 7 117223941.400 7        44.500    22306980.452 6  91343382.051 6        36.000  
G26  21933179.574 7 115259650.397 7        45.500    21933188.594 8  89812750.793 8        48.000  
G27  24361371.158 6 128019858.917 6        36.250    24361377.978 3  99755764.589 3        22.500  
G29  22156303.854 7 116432182.653 7        46.250    22156309.954 7  90726408.854 7        47.750  
R07  20486656.104 8 109666698.187 8        52.500    20486658.604 8  85296325.579 8        48.000  
R08  21618852.596 7 115767968.559 7        44.250    21618852.696 7  90041774.969 7        43.750  
R13  22613468.332 5 120754637.523 5        32.500    22613469.812 5  93920300.969 5        32.750  
R14  21422315.100 8 114193002.779 8        49.750    21422317.900 7  88816827.789 7        45.000  
R15  23397665.684 6 125030041.758 6        39.250    23397668.184 6  97245625.118 6        36.750  
R22  21244854.700 6 113406465.903 6        40.000    21244855.560 5  88205066.668 5        34.500  
R24  22062401.336 7 117977600.258 7        45.500    22062403.116 7  91760354.698 7        43.500  
> 2021 11 07 01 09  0.0000000  0 18                     
G05  22404694.032 7 117737487.069 7        46.000    22404699.572 7  91743522.997 7        46.000  
G10  25105230.974 5 131928897.503 5        33.250    25105241.034 5 102801765.432 5        30.750  
G13  23695822.622 6 124522400.693 6        40.250    23695828.442 3  97030467.587 3        22.500  
G15  23271476.926 6 122292441.863 6        41.500    23271482.226 6  95292846.330 6        37.750  
G16  22258641.932 7 116969960.452 7        45.250    22258646.572 5  91145455.576 5        33.000  
G18  20162433.606 8 105954321.534 8        53.000    20162439.386 8  82561846.332 8        49.750  
G20  24870389.436 5 130694774.920 5        33.500    24870394.236 2 101840126.665 2        17.250  
G23  22270339.152 7 117031423.970 7        45.250    22270345.692 5  91193368.530 5        35.250  
G26  21950505.954 7 115350698.437 7        46.750    21950514.394 8  89883697.294 8        48.000  
G27  24320085.818 6 127802903.795 6        36.750    24320092.858 3  99586708.682 3        22.500  
G29  22189561.072 7 116606950.416 7        46.500    22189567.272 7  90862591.498 7        47.500  
R07  20483913.704 8 109652014.974 8        52.500    20483916.404 8  85284905.313 8        48.000  
R08  21577077.160 7 115544269.784 7        43.750    21577079.140 7  89867787.095 7        44.250  
R13  22657196.692 5 120988146.435 5        34.250    22657198.412 5  94101918.929 5        32.250  
R14  21426901.960 8 114217453.499 8        49.750    21426904.580 7  88835845.008 7        45.250  
R15  23363558.628 7 124847783.941 7        42.500    23363561.368 6  97103869.072 6        36.250  
R22  21277731.620 6 113581963.327 6        39.500    21277733.380 5  88341564.649 5        33.500  
R24  22024636.316 7 117775651.208 7        45.500    22024638.136 7  91603283.248 7        42.750  
> 2021 11 07 01 10  0.0000000  0 18                     
G05  22435866.132 7 117901299.657 7        45.750    22435872.052 7  91871169.180 7        45.500  
G10  25061936.434 6 131701384.518 6        37.500    25061946.634 5 102624482.697 5        35.000  
G13  23673478.604 6 124404979.456 6        40.250    23673484.004 3  96938970.557 3        22.500  
G15  23239899.806 7 122126500.047 7        42.250    23239906.146 6  95163541.091 6        39.000  
G16  22244446.952 7 116895365.471 7        45.000    22244451.772 5  91087329.605 5        33.000  
G18  20156535.386 8 105923326.759 8        52.500    20156541.306 8  82537694.564 8        49.500  
G20  24910993.454 5 130908150.151 5        31.500    24910997.774 2 102006393.069 2        15.500  
G23  22233952.232 7 116840207.515 7        44.750    22233958.072 6  91044368.750 6        36.000  
G26  21968238.474 7 115443883.593 7        44.750    21968246.954 8  89956309.081 8        48.000  
G27  24278882.640 5 127586382.773 5        34.750    24278890.480 3  99417991.027 3        22.250  
G29  22223054.472 7 116782961.825 7        46.500    22223061.112 7  90999743.221 7        47.000  
R07  20481801.464 8 109640711.240 8        52.750    20481804.684 8  85276113.545 8        48.000  
R08  21535642.380 7 115322387.682 7        44.500    21535643.960 7  89695212.154 7        45.500  
R13  22701177.992 5 121223000.183 5        34.250    22701178.072 5  94284582.907 5        32.000  
R14  21432107.880 8 114245199.542 8        50.500    21432109.300 7  88857425.261 7        45.250  
R15  23329864.428 7 124667731.318 7        44.750    23329867.348 6  96963828.126 6        37.500  
R22  21310813.240 6 113758565.334 6        39.500    21310816.300 5  88478921.741 5        34.250  
R24  21986994.456 7 117574369.405 7        46.250    21986996.736 7  91446730.768 7        43.250  
> 2021 11 07 01 11  0.0000000  0 17                     
G05  22467347.112 7 118066731.406 7        45.500    22467352.792 7  92000077.038 7        45.250  
G10  25018677.914 6 131474053.956 6        39.750    25018687.234 6 102447342.055 6        36.750  
G13  23651502.484 6 124289498.157 6        40.000    23651507.784 3  96848985.126 3        22.500  
G15  23208614.886 7 121962099.345 7        42.000    23208621.046 6  95035436.727 6        38.750  
G16  22230714.732 7 116823203.376 7        45.000    22230719.692 5  91031099.415 5        33.000  
G18  20150969.366 8 105894078.007 8        53.000    20150975.406 8  82514903.336 8        49.750  
G23  22197815.312 7 116650309.890 7        45.000    22197821.712 6  90896396.618 6        36.000  
G26  21986374.154 7 115539191.814 7        45.500    21986383.174 7  90030575.215 7        47.250  
G27  24237766.680 6 127370310.989 6        36.250    24237773.160 3  99249623.421 3        21.500  
G29  22256783.112 7 116960205.708 7        46.000    22256789.412 7  91137855.327 7        47.000  
R07  20480321.704 8 109632788.181 8        53.000    20480324.564 8  85269951.172 8        48.250  
R08  21494553.120 7 115102354.477 7        43.750    21494554.120 7  89524075.271 7        45.500  
R13  22745403.952 5 121459162.288 5        34.500    22745405.432 5  94468264.503 5        30.750  
R14  21437929.500 8 114276233.545 8        50.250    21437931.140 7  88881562.821 7        45.750  
R15  23296587.948 7 124489913.496 7        44.500    23296589.988 6  96825525.399 6        37.500  
R22  21344103.700 6 113936263.135 6        39.250    21344104.680 5  88617131.110 5        33.000  
R24  21949480.896 7 117373766.606 7        46.000    21949483.356 7  91290706.389 7        43.000  
> 2021 11 07 01 12  0.0000000  0 18                     
G05  22499132.030 7 118233761.429 7        45.250    22499137.850 7  92130230.300 7        45.250  
G10  24975454.774 6 131246921.588 6        39.000    24975465.354 5 102270355.825 5        34.500  
G13  23629899.664 6 124175976.413 6        39.500    23629905.824 3  96760526.684 3        22.000  
G15  23177628.446 6 121799264.947 6        41.750    23177634.346 6  94908552.826 6        38.250  
G16  22217448.052 7 116753485.049 7        45.500    22217452.992 5  90976773.440 5        33.250  
G18  20145735.966 8 105866575.337 8        52.250    20145741.806 8  82493472.687 8        49.750  
G20  24992473.674 5 131336330.381 5        32.750    24992477.754 2 102340039.892 2        16.250  
G23  22161933.254 7 116461748.649 7        45.500    22161939.954 5  90749465.834 5        35.500  
G26  22004912.694 7 115636608.700 7        44.500    22004921.154 7  90106484.464 7        47.250  
G27  24196737.040 6 127154703.802 6        37.000    24196744.440 3  99081617.809 3        22.750  
G29  22290744.152 7 117138670.849 7        46.000    22290750.192 7  91276919.054 7        46.500  
R07  20479473.504 8 109628246.332 8        52.250    20479476.124 8  85266418.625 8        48.000  
R08  21453816.300 7 114884203.700 7        45.000    21453815.600 7  89354402.478 7        44.500  
R13  22789866.748 5 121696595.621 5        33.250    22789867.868 5  94652934.813 5        32.000  
R14  21444366.520 8 114310548.224 8        50.250    21444368.860 7  88908252.004 7        44.500  
R15  23263735.268 7 124314360.295 7        44.000    23263738.328 6  96688984.078 6        39.750  
R22  21377595.300 6 114115046.367 6        39.000    21377595.840 5  88756184.727 5        34.000  
R24  21912096.216 7 117173853.961 7        46.500    21912098.816 7  91135218.823 7        44.000  
> 2021 11 07 01 13  0.0000000  0 17                     
G05  22531216.650 7 118402368.556 7        44.750    22531222.310 7  92261612.486 7        45.000  
G10  24932274.474 6 131020003.731 6        36.500    24932283.454 4 102093536.742 4        27.750  
G13  23608674.844 6 124064434.286 6        40.750    23608679.904 3  96673610.769 3        23.000  
G15  23146945.526 7 121638021.983 7        42.500    23146950.806 6  94782909.025 6        38.250  
G16  22204648.032 7 116686220.837 7        44.500    22204653.192 5  90924359.774 5        33.500  
G18  20140834.546 8 105840819.016 8        53.000    20140840.546 8  82473402.832 8        49.750  
G23  22126309.114 7 116274541.668 7        45.250    22126315.474 6  90603590.301 6        36.250  
G26  22023848.634 7 115736119.736 7        45.000    22023857.474 7  90184025.527 7        47.000  
G27  24155800.040 6 126939576.822 6        38.500    24155806.940 3  98913986.396 3        23.000  
G29  22324935.312 7 117318346.258 7        45.000    22324941.292 7  91416925.846 7        46.500  
R07  20479256.404 8 109627085.785 8        52.250    20479259.584 8  85265515.989 8        48.000  
R08  21413434.380 7 114667968.146 7        45.000    21413435.360 7  89186219.305 7        44.750  
R13  22834563.428 5 121935265.506 5        32.250    22834564.468 5  94838566.889 5        32.500  
R14  21451417.780 8 114348135.499 8        49.500    21451419.380 7  88937486.544 7        44.500  
R15  23231311.988 7 124141100.983 7        43.500    23231315.508 6  96554226.883 6        40.250  
R22  21411289.980 6 114294906.136 6        39.500    21411290.240 5  88896075.635 5        33.500  
R24  21874842.696 7 116974643.798 7        46.500    21874845.236 7  90980277.607 7        44.250  
> 2021 11 07 01 14  0.0000000  0 17                     
G05  22563597.850 7 118572532.324 7        44.000    22563603.310 7  92394207.644 7        44.250  
G10  24889136.694 5 130793316.680 5        32.750    24889145.534 4 101916897.485 4        24.250  
G13  23587828.484 6 123954892.008 6        41.000    23587834.644 3  96588253.135 3        23.000  
G15  23116569.366 7 121478396.145 7        42.250    23116575.706 6  94658525.314 6        39.500  
G16  22192317.212 7 116621421.546 7        45.000    22192322.292 5  90873866.817 5        34.000  
G18  20136265.546 8 105816809.442 8        52.500    20136271.606 8  82454694.077 8        49.750  
G23  22090946.134 7 116088706.840 7        45.500    22090951.894 5  90458783.987 5        35.750  
G26  22043180.594 7 115837710.497 7        44.750    22043189.514 7  90263187.139 7        46.750  
G27  24114957.480 6 126724946.084 6        38.750    24114964.120 3  98746741.661 3        22.500  
G29  22359354.592 7 117499220.569 7        45.000    22359360.512 7  91557866.831 7        46.500  
R07  20479671.804 8 109629306.201 8        52.000    20479674.304 8  85267242.997 8        48.000  
R08  21373417.620 7 114453680.684 7        44.500    21373419.240 7  89019551.319 7        45.750  
R13  22879481.988 5 122175135.296 5        33.500    22879483.668 5  95025132.188 5        32.250  
R14  21459081.420 8 114388986.535 8        50.250    21459083.600 7  88969259.579 7        45.250  
R15  23199324.488 7 123970165.648 7        43.500    23199326.968 6  96421277.203 6        41.000  
R22  21445182.460 6 114475832.915 6        38.750    21445184.040 5  89036796.444 5        33.000  
R24  21837722.736 7 116776148.775 7        47.000    21837725.656 7  90825892.631 7        44.000  
> 2021 11 07 01 15  0.0000000  0 17                     
G05  22596271.550 7 118744232.592 7        44.250    22596276.510 7  92528000.054 7        43.500  
G10  24846047.036 6 130566877.887 6        38.250    24846056.976 5 101740451.765 5        33.500  
G13  23567368.744 6 123847370.561 6        41.000    23567374.524 3  96504470.225 3        23.000  
G15  23086505.686 7 121320413.243 7        42.500    23086511.806 6  94535421.782 6        39.500  
G16  22180457.374 7 116559097.858 7        44.750    22180462.334 5  90825302.908 5        34.000  
G18  20132029.586 8 105794547.577 8        53.000    20132035.346 8  82437347.178 8        49.750  
G23  22055847.114 7 115904262.781 7        45.000    22055853.494 6  90315061.353 6        36.250  
G26  22062906.534 7 115941366.891 7        45.250    22062914.814 7  90343958.347 7        46.750  
G27  24074211.980 6 126510828.453 6        39.250    24074218.540 4  98579896.751 4        25.500  
G29  22394000.212 7 117681284.005 7        45.250    22394005.912 7  91699734.393 7        46.000  
R07  20480717.544 8 109634907.301 8        53.000    20480720.664 8  85271599.414 8        48.750  
R08  21333771.460 7 114241375.116 7        45.750    21333771.860 7  88854424.788 7        45.750  
R13  22924620.008 5 122416170.199 5        34.000    22924621.108 5  95212603.715 5        31.500  
R14  21467355.880 8 114433093.037 8        50.000    21467357.400 7  89003564.626 7        45.000  
R15  23167775.928 7 123801583.668 7        43.500    23167778.708 6  96290157.987 6        41.250  
R22  21479274.320 6 114657818.841 6        38.750    21479275.920 5  89178341.037 5        34.000  
R24  21800739.536 7 116578381.658 7        47.000    21800742.116 7  90672073.792 7        44.500  
> 2021 11 07 01 16  0.0000000  0 17                     
G05  22629232.590 7 118917445.587 7        44.250    22629237.510 7  92662971.227 7        43.000  
G10  24803008.216 6 130340700.935 6        40.000    24803016.936 6 101564210.041 6        37.000  
G13  23547295.404 6 123741886.980 6        41.250    23547301.424 3  96422275.276 3        23.750  
G15  23056759.728 7 121164095.687 7        43.000    23056765.928 6  94413615.942 6        39.500  
G16  22169069.754 7 116499256.743 7        44.250    22169074.914 5  90778673.468 5        33.750  
G18  20128125.386 8 105774030.728 8        53.250    20128130.986 8  82421360.027 8        49.750  
G23  22021016.454 7 115721224.327 7        45.000    22021022.534 6  90172434.024 6        36.750  
G26  22083020.994 7 116047071.068 7        45.000    22083029.494 7  90426325.211 7        46.250  
G27  24033567.260 6 126297237.242 6        39.250    24033573.820 4  98413462.052 4        25.000  
G29  22428869.372 7 117864522.310 7        45.500    22428875.272 7  91842517.452 7        45.750  
R07  20482394.504 8 109643884.009 8        52.750    20482397.504 8  85278581.313 8        48.750  
R08  21294499.720 7 114031081.540 7        45.250    21294500.880 7  88690863.153 7        45.000  
R13  22969971.008 5 122658332.093 5        34.000    22969970.608 5  95400951.807 5        32.000  
R14  21476237.880 8 114480442.371 8        49.750    21476240.320 7  89040391.875 7        44.250  
R15  23136674.048 7 123635381.309 7        43.500    23136675.988 6  96160889.521 6        41.250  
R22  21513563.900 6 114840851.808 6        38.750    21513564.060 5  89320700.007 5        32.750  
R24  21763894.516 7 116381352.236 7        47.000    21763896.596 7  90518828.704 7        44.250  
> 2021 11 07 01 17  0.0000000  0 17                     
G05  22662477.710 7 119092150.578 7        44.000    22662482.910 7  92799104.985 7        43.000  
G10  24760020.436 6 130114802.712 6        41.750    24760029.816 6 101388185.540 6        39.500  
G13  23527613.444 6 123638460.657 6        40.250    23527619.064 3  96341683.327 3        22.500  
G15  23027335.808 7 121009468.980 7        43.250    23027341.228 6  94293127.644 6        40.250  
G16  22158156.434 7 116441907.761 7        45.000    22158161.874 5  90733985.943 5        34.000  
G18  20124553.146 8 105755259.269 8        52.750    20124558.866 8  82406732.920 8        49.750  
G23  21986456.274 7 115539609.487 7        45.250    21986462.534 6  90030916.001 6        37.250  
G26  22103522.794 7 116154808.071 7        45.250    22103531.494 7  90510276.098 7        46.250  
G27  23993025.740 6 126084189.260 6        39.500    23993032.860 4  98247450.651 4        25.750  
G29  22463959.592 7 118048924.489 7        45.000    22463965.652 7  91986207.413 7        45.250  
R07  20484701.624 8 109656234.551 8        52.250    20484704.604 8  85288187.292 8        48.250  
R08  21255611.400 7 113822832.689 7        45.250    21255612.220 7  88528891.850 7        45.500  
R13  23015522.168 5 122901585.041 5        33.250    23015524.188 5  95590148.505 5        31.250  
R14  21485727.500 8 114531024.054 8        50.000    21485728.980 7  89079733.186 7        44.750  
R15  23106022.188 7 123471587.671 7        43.250    23106024.388 6  96033494.495 6        40.250  
R22  21548046.580 6 115024922.874 6        39.000    21548048.020 5  89463866.361 5        32.500  
R24  21727189.996 7 116185073.314 7        47.750    21727190.956 7  90366167.331 7        43.000  
> 2021 11 07 01 18  0.0000000  0 17                     
G05  22696003.050 7 119268326.864 7        43.500    22696008.750 7  92936385.226 7        43.250  
G10  24717089.476 6 129889199.541 6        40.250    24717099.076 6 101212390.956 6        37.750  
G13  23508327.524 6 123537110.385 6        39.750    23508332.724 3  96262709.159 3        22.500  
G15  22998237.288 7 120856558.144 7        43.750    22998243.628 6  94173976.383 6        41.000  
G16  22147719.534 7 116387059.374 7        45.500    22147724.474 5  90691246.944 5        34.750  
G18  20121313.146 8 105738232.985 8        53.500    20121319.086 8  82393465.696 8        50.000  
G23  21952170.194 7 115359435.546 7        46.000    21952176.434 6  89890520.761 6        37.500  
G26  22124408.374 7 116264562.127 7        45.000    22124416.874 7  90595798.715 7        46.500  
G27  23952590.042 6 125871700.700 6        39.250    23952597.382 4  98081875.171 4        26.000  
G29  22499269.550 7 118234479.802 7        45.750    22499275.750 7  92130795.944 7        45.000  
R07  20487638.724 8 109671955.544 8        52.750    20487641.484 8  85300414.735 8        48.250  
R08  21217110.440 7 113616661.264 7        46.000    21217110.960 7  88368536.339 7        45.750  
R13  23061274.488 5 123145894.057 5        32.000    23061275.328 4  95780166.574 4        29.500  
R14  21495820.500 8 114584827.015 8        49.250    21495822.620 7  89121579.935 7        45.000  
R15  23075826.528 7 123310231.332 7        44.500    23075828.748 6  95907995.182 6        39.000  
R22  21582721.440 6 115210023.110 6        38.500    21582722.680 5  89607833.221 5        32.250  
R24  21690626.736 7 115989557.294 7        47.500    21690629.196 7  90214099.319 7        43.500  
> 2021 11 07 01 19  0.0000000  0 17                     
G05  22729804.430 7 119445953.387 7        43.500    22729809.490 7  93074795.516 7        43.000  
G10  24674217.936 6 129663907.670 6        36.250    24674226.996 5 101036838.959 5        31.750  
G13  23489440.164 6 123437854.899 6        40.500    23489445.924 3  96185367.256 3        22.250  
G15  22969470.488 7 120705388.128 7        42.500    22969476.188 6  94056181.610 6        40.500  
G16  22137760.314 7 116334720.732 7        45.500    22137764.854 5  90650463.584 5        35.000  
G18  20118405.166 8 105722951.568 8        53.250    20118411.146 8  82381558.109 8        50.000  
G23  21918161.314 7 115180719.822 7        45.500    21918167.994 6  89751261.778 6        37.750  
G26  22145674.314 7 116376317.370 7        44.000    22145683.114 7  90682880.697 7        46.000  
G27  23912264.482 6 125659788.128 6        40.000    23912271.662 4  97916748.492 4        26.750  
G29  22534797.090 7 118421175.773 7        44.250    22534802.970 7  92276273.285 7        45.000  
R07  20491203.344 8 109691042.938 8        52.500    20491206.984 8  85315260.492 8        48.250  
R08  21179003.360 7 113412599.260 7        45.500    21179003.980 7  88209821.465 7        45.750  
R13  23107217.448 5 123391222.871 5        31.500    23107216.788 5  95970977.845 5        30.250  
R14  21506516.260 8 114641839.552 8        49.750    21506518.180 7  89165923.006 7        45.000  
R15  23046092.208 7 123151340.162 7        46.000    23046093.468 6  95784413.167 6        38.500  
R22  21617588.276 6 115396143.298 6        38.750    21617589.136 5  89752593.344 5        32.000  
R24  21654209.516 7 115794817.534 7        47.000    21654211.656 7  90062635.074 7        43.750  
> 2021 11 07 01 20  0.0000000  0 17                     
G05  22763877.330 7 119625008.834 7        43.000    22763882.930 7  93214319.245 7        43.000  
G10  24631408.096 5 129438943.467 5        35.500    24631417.816 4 100861542.294 4        29.000  
G13  23470954.284 6 123340712.649 6        41.000    23470959.564 3  96109672.007 3        22.500  
G15  22941039.488 7 120555982.777 7        43.000    22941045.488 6  93939761.908 6        40.250  
G16  22128279.234 7 116284899.301 7        45.250    22128283.674 5  90611641.686 5        35.000  
G18  20115829.066 8 105709414.437 8        53.000    20115835.026 8  82371009.692 8        50.000  
G23  21884434.116 7 115003479.300 7        46.000    21884440.076 6  89613152.297 6        37.500  
G26  22167318.394 7 116490057.378 7        45.500    22167327.314 7  90771509.241 7        46.000  
G27  23872051.402 6 125448467.905 6        39.750    23872058.602 4  97752083.364 4        25.750  
G29  22570539.290 7 118609001.524 7        44.250    22570545.010 7  92422630.958 7        45.000  
R07  20495397.964 8 109713491.810 8        52.750    20495400.744 7  85332720.736 7        47.750  
R08  21141296.080 7 113210677.906 7        46.000    21141296.340 7  88052771.563 7        46.000  
R13  23153344.388 5 123637535.701 5        33.250    23153344.428 5  96162554.403 5        31.250  
R14  21517810.860 8 114702048.650 8        50.000    21517813.000 7  89212752.300 7        45.500  
R15  23016824.088 7 122994941.635 7        46.000    23016825.868 6  95662769.910 6        38.000  
R22  21652645.556 6 115583274.158 6        38.500    21652644.336 5  89898139.559 5        32.000  
R24  21617939.036 7 115600865.956 7        46.000    21617941.796 7  89911783.899 7        44.750  
> 2021 11 07 01 21  0.0000000  0 17                     
G05  22798218.228 7 119805472.109 7        43.000    22798224.148 7  93354939.967 7        43.250  
G10  24588664.896 6 129214323.600 6        38.500    24588673.236 5 100686513.853 5        33.000  
G13  23452874.524 6 123245701.807 6        41.750    23452880.304 3  96035637.626 3        23.000  
G15  22912948.868 7 120408365.838 7        43.000    22912955.128 6  93824735.752 6        41.000  
G16  22119278.814 7 116237603.070 7        46.500    22119284.114 5  90574787.476 5        35.000  
G18  20113585.206 8 105697621.357 8        53.500    20113590.986 8  82361820.290 8        50.000  
G23  21850990.176 7 114827731.304 7        46.500    21850996.256 6  89476205.831 6        38.000  
G26  22189337.352 7 116605766.023 7        44.500    22189345.752 7  90861671.796 7        45.500  
G27  23831955.122 6 125237757.002 6        39.750    23831961.402 4  97587893.055 4        25.750  
G29  22606494.050 7 118797945.612 7        44.000    22606500.270 7  92569860.066 7        45.000  
R07  20500218.384 8 109739297.569 8        52.250    20500221.804 7  85352791.888 7        47.750  
R08  21103993.720 7 113010929.856 7        46.250    21103995.160 7  87897411.992 7        45.750  
R13  23199646.088 5 123884797.041 5        32.000    23199648.828 5  96354868.696 5        31.250  
R14  21529703.620 8 114765441.288 8        49.500    21529705.440 7  89262057.691 7        44.750  
R15  22988028.188 7 122841063.401 7        45.000    22988029.808 6  95543086.883 6        40.250  
R22  21687887.276 6 115771406.875 6        38.250    21687888.956 5  90044465.020 5        33.000  
R24  21581819.300 7 115407716.065 7        47.500    21581821.660 7  89761556.229 7        45.000  
> 2021 11 07 01 22  0.0000000  0 17                     
G05  22832823.168 7 119987320.896 7        43.250    22832828.548 7  93496640.326 7        43.000  
G10  24545989.498 6 128990062.828 6        41.750    24545998.278 6 100511765.240 6        37.750  
G13  23435203.264 6 123152838.756 6        40.750    23435208.904 4  95963276.830 4        26.000  
G15  22885203.108 7 120262561.088 7        42.750    22885209.328 6  93711121.704 6        41.250  
G16  22110760.134 7 116192838.242 7        46.250    22110765.514 5  90539905.778 5        34.500  
G18  20111672.466 8 105687569.858 8        53.500    20111678.146 8  82353987.962 8        50.250  
G23  21817833.676 7 114653490.863 7        47.250    21817839.436 6  89340434.073 6        38.250  
G26  22211726.532 7 116723424.843 7        43.750    22211735.692 7  90953353.969 7        45.500  
G27  23791975.982 6 125027670.417 6        39.750    23791983.162 4  97424189.234 4        25.250  
G29  22642659.550 7 118987994.469 7        44.250    22642665.310 7  92717950.007 7        45.000  
R07  20505665.104 8 109768451.822 8        52.500    20505667.924 8  85375467.429 8        48.000  
R08  21067103.840 7 112813385.110 7        46.500    21067104.740 7  87743766.111 7        46.000  
R13  23246121.148 5 124132970.155 5        32.750    23246123.828 5  96547892.169 5        31.750  
R14  21542190.240 8 114832002.167 8        49.750    21542192.180 7  89313827.247 7        45.750  
R15  22959708.208 7 122689731.102 7        44.250    22959710.408 6  95425384.014 6        40.500  
R22  21723316.576 6 115960530.268 6        38.000    21723317.696 5  90191560.965 5        33.250  
R24  21545851.460 8 115215379.403 8        48.000    21545853.800 7  89611961.072 7        44.500  
> 2021 11 07 01 23  0.0000000  0 18                     
G05  22867687.788 7 120170535.138 7        43.500    22867692.828 7  93639404.685 7        42.750  
G10  24503385.718 6 128766178.469 6        40.500    24503394.758 6 100337309.955 6        39.000  
G13  23417944.084 6 123062141.697 6        41.000    23417949.704 4  95892603.866 4        25.000  
G15  22857807.008 7 120118592.336 7        43.000    22857812.728 6  93598938.306 6        41.500  
G16  22102725.074 7 116150612.487 7        46.500    22102730.294 5  90507002.599 5        35.000  
G18  20110091.026 8 105679260.334 8        53.500    20110096.966 8  82347513.007 8        50.250  
G23  21784966.376 7 114480775.875 7        45.750    21784972.796 6  89205850.992 6        38.000  
G26  22234484.872 7 116843017.666 7        44.250    22234493.352 7  91046543.155 7        45.000  
G27  23752120.622 6 124818226.141 6        39.000    23752127.362 4  97260985.933 4        25.500  
G29  22679032.610 7 119179137.146 7        44.000    22679038.250 7  92866892.289 7        44.500  
R01  24050515.520 5 128563792.084 5        34.250    24050520.840 5  99994084.498 5        31.250  
R07  20511735.584 8 109800949.675 8        52.000    20511738.244 8  85400743.543 8        48.750  
R08  21030631.140 7 112618074.735 7        46.500    21030632.140 7  87591858.098 7        46.250  
R13  23292761.388 5 124382020.739 5        31.500    23292762.748 5  96741598.116 5        31.000  
R14  21555269.000 8 114901717.180 8        50.250    21555270.700 7  89368050.026 7        46.000  
R15  22931870.128 7 122540972.084 7        43.000    22931871.908 6  95309682.625 6        40.500  
R22  21758930.356 6 116150636.175 6        37.750    21758930.956 5  90339421.119 5        32.000  
R24  21510038.120 7 115023870.043 7        47.500    21510040.320 7  89463009.354 7        44.750  
> 2021 11 07 01 24  0.0000000  0 18                     
G05  22902807.388 7 120355091.999 7        42.750    22902812.588 6  93783215.216 6        41.500  
G10  24460855.598 6 128542685.286 6        38.250    24460865.598 6 100163159.532 6        37.750  
G13  23401099.884 6 122973626.066 6        40.750    23401105.444 3  95823630.643 3        23.500  
G15  22830764.468 7 119976483.081 7        43.000    22830770.768 6  93488203.863 6        41.500  
G16  22095173.914 7 116110930.314 7        46.000    22095178.694 5  90476081.416 5        35.000  
G18  20108840.746 8 105672690.157 8        53.000    20108846.546 8  82342393.393 8        50.250  
G23  21752393.396 7 114309601.250 7        47.000    21752399.236 6  89072468.190 6        38.750  
G26  22257606.932 7 116964526.215 7        44.000    22257615.572 7  91141225.125 7        45.000  
G27  23712389.582 6 124609439.422 6        39.750    23712396.722 4  97098295.006 4        25.750  
G29  22715611.470 7 119371360.350 7        44.000    22715617.530 7  93016676.555 7        44.250  
R01  23997991.080 5 128283011.655 5        35.750    23997994.120 5  99775699.751 5        30.500  
R07  20518429.124 8 109836781.626 8        52.500    20518432.084 8  85428612.832 8        48.000  
R08  20994580.940 7 112425028.769 7        46.000    20994582.080 7  87441711.290 7        46.250  
R13  23339557.588 5 124631910.926 5        30.750    23339559.928 4  96935957.036 4        29.750  
R14  21568936.080 8 114974570.170 8        49.500    21568938.340 7  89424713.455 7        46.500  
R15  22904518.188 7 122394811.051 7        44.500    22904519.988 6  95196001.886 6        41.500  
R22  21794724.596 6 116341714.130 6        38.250    21794726.356 5  90488037.288 5        31.750  
R24  21474381.620 7 114833199.585 7        47.750    21474384.480 7  89314710.111 7        45.000  
> 2021 11 07 01 25  0.0000000  0 18                     
G05  22938178.568 7 120540970.570 7        42.000    22938184.448 6  93928055.665 6        41.500  
G10  24418403.878 6 128319599.537 6        37.000    24418413.358 5  99989326.614 5        35.750  
G13  23384675.244 6 122887309.332 6        41.250    23384679.484 3  95756370.893 3        23.750  
G15  22804079.848 7 119836255.463 7        43.500    22804086.208 6  93378935.617 6        41.000  
G16  22088108.034 7 116073797.902 7        46.250    22088112.794 5  90447147.063 5        34.500  
G18  20107921.446 8 105667858.365 8        51.750    20107927.106 8  82338628.365 8        50.250  
G23  21720116.096 7 114139983.446 7        46.750    21720122.376 6  88940298.507 6        39.250  
G26  22281090.572 7 117087932.787 7        43.750    22281099.372 7  91237386.068 7        44.750  
G27  23672786.544 6 124401327.350 6        40.000    23672794.144 4  96936129.743 4        27.250  
G29  22752393.610 7 119564652.757 7        43.500    22752399.750 7  93167293.947 7        43.750  
R01  23945475.524 5 128002292.829 5        33.500    23945480.224 5  99557362.961 5        32.750  
R07  20525744.624 8 109875939.852 8        52.750    20525747.024 8  85459069.259 8        48.000  
R08  20958959.664 7 112234277.653 7        46.500    20958960.364 7  87293349.356 7        46.500  
R13  23386506.164 5 124882605.017 5        32.250    23386505.324 4  97130941.277 4        28.500  
R14  21583189.120 8 115050545.230 8        48.750    21583190.280 7  89483805.160 7        46.000  
R15  22877656.408 7 122251273.912 7        44.500    22877658.868 7  95084361.947 7        42.000  
R22  21830701.236 6 116533754.641 6        39.000    21830702.196 5  90637402.140 5        32.250  
R24  21438885.500 8 114643381.305 8        48.500    21438887.440 7  89167073.695 7        44.500  
> 2021 11 07 01 26  0.0000000  0 19                     
G05  22973797.548 7 120728149.521 7        42.500    22973803.908 6  94073909.421 6        41.750  
G07  25453691.272 5 133759978.315 5        34.500    25453695.772 3 104228628.584 3        20.250  
G10  24376032.718 6 128096937.781 6        38.750    24376041.858 5  99815824.046 5        35.250  
G13  23368670.426 6 122803207.544 6        40.500    23368675.526 4  95690837.049 4        24.500  
G15  22777757.950 7 119697933.245 7        44.250    22777763.890 7  93271152.099 7        42.000  
G16  22081527.614 7 116039221.233 7        46.250    22081533.234 5  90420204.206 5        35.000  
G18  20107332.766 8 105664763.901 8        53.000    20107338.166 8  82336217.114 8        50.250  
G23  21688138.236 7 113971938.849 7        47.250    21688144.296 6  88809354.688 6        38.000  
G26  22304931.852 7 117213219.830 7        43.000    22304940.532 7  91335012.313 7        44.250  
G27  23633316.184 6 124193907.128 6        39.750    23633323.344 4  96774503.601 4        26.750  
G29  22789376.728 7 119759001.739 7        44.000    22789383.088 7  93318734.665 7        43.500  
R01  23892978.984 5 127721664.615 5        34.750    23892982.604 5  99339096.677 5        34.000  
R07  20533680.024 8 109918415.934 8        52.750    20533682.464 8  85492106.226 8        48.500  
R08  20923772.644 7 112045852.407 7        46.500    20923772.864 7  87146796.448 7        46.250  
R13  23433596.024 5 125134068.655 5        32.000    23433596.804 4  97326524.066 4        28.500  
R14  21598023.496 8 115129626.423 8        49.000    21598026.176 7  89545312.723 7        45.500  
R15  22851291.428 7 122110386.793 7        44.500    22851293.288 6  94974783.122 6        41.750  
R22  21866855.196 6 116726748.528 6        38.500    21866855.756 5  90787508.482 5        31.750  
R24  21403548.960 8 114454428.509 8        48.250    21403552.220 7  89020110.427 7        46.000  
> 2021 11 07 01 27  0.0000000  0 19                     
G05  23009660.888 7 120916608.375 7        42.750    23009665.868 6  94220760.481 6        41.250  
G07  25443688.092 5 133707416.594 5        33.750    25443693.452 3 104187671.378 3        19.500  
G10  24333745.898 6 127874716.409 6        40.250    24333753.518 5  99642664.573 5        34.500  
G13  23353091.566 6 122721336.932 6        41.500    23353096.586 4  95627041.785 4        24.750  
G15  22751803.370 7 119561540.444 7        44.500    22751808.930 7  93164872.003 7        42.000  
G16  22075435.394 7 116007205.898 7        46.000    22075440.974 5  90395257.184 5        35.250  
G18  20107074.406 8 105663405.608 8        53.000    20107079.746 8  82335158.708 8        50.500  
G23  21656463.016 7 113805483.698 7        47.500    21656468.996 6  88679649.398 6        39.250  
G26  22329127.932 7 117340369.454 7        44.000    22329136.552 7  91434089.924 7        45.000  
G27  23593980.824 6 123987196.103 6        40.500    23593987.704 4  96613430.092 4        27.750  
G29  22826558.948 7 119954395.684 7        44.500    22826565.108 7  93470989.632 7        42.750  
R01  23840503.824 6 127441156.217 6        37.750    23840507.544 5  99120923.568 5        34.500  
R07  20542232.724 8 109964200.098 8        52.750    20542235.204 8  85527716.138 8        48.750  
R08  20889025.484 7 111859782.818 7        47.000    20889026.104 7  87002075.716 7        46.750  
R13  23480826.244 5 125386267.644 5        32.000    23480826.064 4  97522678.748 4        29.750  
R14  21613438.256 8 115211796.511 8        48.500    21613440.736 7  89609222.778 7        46.000  
R15  22825427.188 7 121972174.624 7        45.000    22825428.768 6  94867284.800 6        40.750  
R22  21903186.956 6 116920687.251 6        38.000    21903188.356 5  90938349.657 5        32.250  
R24  21368379.200 8 114266354.689 8        48.750    21368381.180 7  88873830.798 7        44.750  
> 2021 11 07 01 28  0.0000000  0 19                     
G05  23045762.628 7 121106325.715 7        42.500    23045768.828 7  94368592.158 7        42.500  
G07  25434060.112 5 133656821.018 5        33.500    25434065.992 2 104148246.289 2        17.250  
G10  24291545.398 6 127652951.587 6        39.500    24291553.658 5  99469860.856 5        35.750  
G13  23337939.006 6 122641713.591 6        41.000    23337944.606 4  95564997.634 4        24.500  
G15  22726219.790 7 119427098.709 7        44.000    22726225.990 6  93060112.240 6        41.500  
G16  22069831.654 7 115977756.194 7        45.750    22069836.774 5  90372309.370 5        35.000  
G18  20107145.886 8 105663782.029 8        52.750    20107151.366 8  82335452.029 8        50.250  
G23  21625093.036 7 113640633.848 7        47.250    21625099.036 6  88551194.998 6        39.000  
G26  22353674.252 7 117469363.494 7        43.500    22353683.512 7  91534604.724 7        44.750  
G27  23554782.904 6 123781211.522 6        41.500    23554790.504 4  96452922.606 4        26.000  
G29  22863938.268 7 120150822.228 7        44.500    22863944.248 7  93624049.223 7        43.000  
R01  23788055.904 6 127160796.335 6        36.500    23788060.944 5  98902865.952 5        34.500  
R07  20551401.304 8 110013283.388 8        52.250    20551404.664 8  85565892.039 8        48.000  
R08  20854723.324 7 111676098.651 7        47.000    20854724.544 7  86859210.297 7        47.000  
R13  23528185.104 5 125639166.454 5        31.500    23528187.364 5  97719377.728 5        31.000  
R14  21629428.536 8 115297037.524 8        48.500    21629431.816 7  89675521.322 7        45.750  
R15  22800067.128 7 121836661.992 7        46.000    22800069.528 6  94761886.125 6        41.000  
R22  21939694.296 6 117115560.634 6        38.000    21939694.216 5  91089917.815 5        32.500  
R24  21333375.340 7 114079173.691 7        47.500    21333377.760 7  88728245.603 7        45.500  
> 2021 11 07 01 29  0.0000000  0 19                     
G05  23082100.248 7 121297279.119 7        42.500    23082105.808 7  94517387.030 7        42.250  
G07  25424806.972 5 133608198.571 5        32.250    25424813.092 2 104110358.502 2        17.250  
G10  24249434.680 6 127431658.790 6        40.750    24249442.760 6  99297424.974 6        37.250  
G13  23323218.206 7 122564351.657 7        42.000    23323223.266 4  95504715.665 4        24.500  
G15  22701012.110 7 119294630.616 7        45.250    22701018.170 7  92956890.376 7        42.000  
G16  22064716.474 7 115950876.172 7        46.000    22064721.614 5  90351363.909 5        35.000  
G18  20107546.846 8 105665890.811 8        53.500    20107552.586 8  82337095.233 8        50.000  
G23  21594031.336 7 113477404.238 7        47.750    21594037.556 6  88424003.121 6        39.000  
G26  22378568.892 7 117600182.762 7        44.000    22378577.392 7  91636541.784 7        44.500  
G27  23515725.964 6 123575969.940 6        40.500    23515734.264 4  96292994.110 4        26.750  
G29  22901510.868 7 120348268.346 7        43.500    22901516.988 7  93777903.292 7        43.000  
R01  23735642.644 5 126880613.774 5        35.500    23735647.604 5  98684946.197 5        32.000  
R07  20561184.164 8 110065652.968 8        52.250    20561187.484 7  85606623.940 7        47.750  
R08  20820873.244 7 111494828.637 7        47.750    20820873.444 7  86718222.559 7        47.500  
R13  23575670.064 5 125892728.568 5        31.750    23575671.804 5  97916592.596 5        30.500  
R14  21645993.516 8 115385331.174 8        49.250    21645995.216 7  89744194.147 7        45.000  
R15  22775218.872 7 121703872.700 7        46.250    22775219.792 6  94658605.590 6        40.000  
R22  21976372.156 6 117311359.375 6        37.500    21976373.816 5  91242205.695 5        31.500  
R24  21298540.720 8 113892897.609 8        48.250    21298542.860 7  88583364.231 7        45.000  
> 2021 11 07 01 30  0.0000000  0 19                     
G05  23118669.106 7 121489448.259 7        42.000    23118673.926 6  94667129.211 6        41.500  
G07  25415931.232 5 133561556.242 5        32.750    25415937.032 2 104074013.884 2        17.250  
G10  24207416.360 6 127210853.913 6        40.500    24207425.340 6  99125369.302 6        38.000  
G13  23308929.366 6 122489266.123 6        40.000    23308934.526 4  95446207.461 4        24.000  
G15  22676183.770 7 119164157.810 7        43.750    22676189.070 6  92855223.283 6        41.500  
G16  22060090.714 7 115926569.200 7        46.000    22060096.114 5  90332423.401 5        35.500  
G18  20108277.686 8 105669730.030 8        52.500    20108283.266 8  82340086.842 8        50.250  
G23  21563281.178 8 113315810.268 8        48.500    21563287.138 6  88298085.777 6        39.500  
G26  22403805.992 7 117732808.306 7        42.750    22403815.232 7  91739886.335 7        44.000  
G27  23476814.924 6 123371488.522 6        40.750    23476822.004 4  96133657.941 4        27.250  
G29  22939275.008 7 120546721.282 7        42.500    22939281.448 7  93932541.886 7        43.000  
R01  23683266.704 5 126600637.202 5        35.250    23683270.264 4  98467186.670 4        29.000  
R07  20571579.284 8 110121297.834 8        52.250    20571582.144 8  85649903.289 8        48.250  
R08  20787477.724 8 111316001.894 8        48.000    20787479.124 7  86579135.142 7        47.000  
R13  23623271.464 5 126146919.062 5        32.250    23623272.344 4  98114296.251 4        29.750  
R14  21663125.956 8 115476657.732 8        49.500    21663128.416 7  89815225.912 7        45.000  
R15  22750881.992 7 121573830.023 7        45.750    22750884.192 6  94557461.317 6        40.000  
R22  22013223.256 6 117508073.401 6        37.250    22013224.876 5  91395205.481 5        31.250  
R24  21263878.120 8 113707540.714 8        49.000    21263880.640 7  88439197.757 7        45.750  
> 2021 11 07 01 31  0.0000000  0 19                     
G05  23155464.506 7 121682812.006 7        42.500    23155469.886 6  94817802.248 6        41.500  
G07  25407434.312 5 133516900.575 5        34.250    25407439.092 2 104039217.288 2        16.750  
G10  24165494.580 6 126990553.691 6        39.000    24165503.320 6  98953706.897 6        37.500  
G13  23295077.246 6 122416472.261 6        41.500    23295082.786 4  95389484.984 4        25.750  
G15  22651739.110 7 119035702.958 7        43.500    22651745.550 6  92755128.620 6        41.250  
G16  22055956.074 7 115904839.471 7        46.500    22055961.314 5  90315491.141 5        35.250  
G18  20109337.306 8 105675298.539 8        53.500    20109342.886 8  82344425.942 8        50.250  
G23  21532845.138 8 113155867.843 8        48.000    21532851.158 6  88173455.354 6        39.250  
G26  22429384.312 7 117867221.898 7        44.000    22429393.372 7  91844624.170 7        43.750  
G27  23438051.544 6 123167785.310 6        40.000    23438058.704 4  95974928.187 4        28.000  
G29  22977228.768 7 120746169.398 7        43.750    22977235.408 7  94087955.947 7        42.500  
R01  23630934.644 6 126320897.051 6        36.750    23630940.064 5  98249611.097 5        33.500  
R07  20582584.164 8 110180206.649 8        51.500    20582587.124 8  85695721.256 8        48.250  
R08  20754545.264 8 111139647.798 8        48.000    20754545.684 7  86441970.878 7        47.250  
R13  23670983.764 5 126401704.170 5        31.250    23670984.804 5  98312462.353 5        30.750  
R14  21680823.916 8 115570998.812 8        49.500    21680826.036 7  89888602.304 7        44.750  
R15  22727064.732 7 121446558.106 7        45.000    22727066.812 6  94458472.060 6        39.750  
R22  22050244.896 6 117705694.219 6        37.500    22050246.316 5  91548910.535 5        31.500  
R24  21229390.140 8 113523117.152 8        49.500    21229391.780 7  88295757.215 7        46.000  
> 2021 11 07 01 32  0.0000000  0 19                     
G05  23192482.986 7 121877345.213 7        42.000    23192488.586 7  94969386.590 7        42.000  
G07  25399314.052 5 133474235.170 5        34.250    25399320.672 2 104005971.513 2        17.250  
G10  24123670.740 6 126770770.461 6        40.250    24123680.120 6  98782447.350 6        38.250  
G13  23281663.106 6 122345980.387 6        41.000    23281668.746 4  95334556.297 4        26.500  
G15  22627683.190 7 118909284.149 7        44.500    22627688.870 7  92656620.504 7        43.000  
G16  22052311.334 7 115885686.293 7        46.000    22052316.454 5  90300566.589 5        35.000  
G18  20110724.846 8 105682590.586 8        53.000    20110730.506 8  82350108.063 8        50.000  
G23  21502725.438 8 112997588.534 8        48.250    21502731.318 6  88050120.859 6        39.000  
G26  22455298.412 7 118003400.695 7        43.500    22455306.872 7  91950737.480 7        43.750  
G27  23399438.484 6 122964874.212 6        39.750    23399446.304 4  95816815.658 4        28.000  
G29  23015369.128 7 120946596.482 7        43.000    23015375.428 7  94244132.851 7        42.000  
R01  23578653.444 6 126041418.689 6        36.750    23578658.544 5  98032239.100 5        35.500  
R07  20594195.464 8 110242363.072 8        53.000    20594198.524 8  85744065.159 8        48.250  
R08  20722078.264 8 110965790.726 8        48.500    20722079.324 7  86306748.734 7        47.000  
R13  23718801.284 5 126657044.704 5        31.750    23718802.724 4  98511060.446 4        29.500  
R14  21699083.576 8 115668330.007 8        48.750    21699085.496 7  89964304.336 7        44.500  
R15  22703769.712 7 121322076.611 7        45.000    22703771.792 6  94361653.131 6        40.750  
R22  22087434.276 6 117904208.797 6        36.750    22087433.076 5  91703310.758 5        31.000  
R24  21195078.320 8 113339637.096 8        49.500    21195080.700 7  88153050.532 7        46.250  
> 2021 11 07 01 33  0.0000000  0 19                     
G05  23229721.326 6 122073034.641 6        41.500    23229726.486 6  95121871.865 6        39.750  
G07  25391577.352 6 133433572.166 6        36.250    25391582.432 3 103974286.122 3        19.500  
G10  24081950.880 6 126551527.050 6        40.750    24081959.280 6  98611608.420 6        38.750  
G13  23268691.366 6 122277811.536 6        41.000    23268696.126 3  95281437.736 3        23.750  
G15  22604018.330 7 118784929.964 7        44.500    22604025.010 7  92559721.168 7        42.750  
G16  22049158.594 7 115869118.506 7        47.000    22049163.554 5  90287656.615 5        35.000  
G18  20112441.246 8 105691610.828 8        53.500    20112446.966 8  82357136.831 8        50.000  
G23  21472926.138 8 112840993.971 8        48.000    21472932.358 6  87928099.154 6        39.500  
G26  22481545.672 7 118141332.078 7        43.000    22481554.432 7  92058216.451 7        43.500  
G27  23360981.726 6 122762779.450 6        40.750    23360988.946 4  95659339.237 4        29.000  
G29  23053694.228 7 121147996.389 7        43.250    23053700.328 7  94401067.790 7        42.000  
R01  23526427.584 6 125762239.361 6        38.250    23526430.124 6  97815099.726 6        36.500  
R07  20606411.924 8 110307760.350 8        52.000    20606414.844 7  85794929.717 7        47.500  
R08  20690084.624 7 110794465.859 7        47.750    20690085.464 7  86173496.105 7        47.000  
R13  23766715.844 5 126912912.867 5        31.500    23766717.964 4  98710068.935 4        28.500  
R14  21717900.516 8 115768638.205 8        49.250    21717902.816 7  90042321.810 7        44.500  
R15  22681002.332 7 121200414.200 7        44.000    22681003.932 6  94267026.819 6        40.000  
R22  22124787.996 6 118103614.515 6        37.000    22124789.056 5  91858404.092 5        31.500  
R24  21160946.600 8 113157120.996 8        48.750    21160949.380 7  88011093.572 7        45.500  
> 2021 11 07 01 34  0.0000000  0 19                     
G05  23267175.606 6 122269855.930 6        40.750    23267180.246 6  95275239.085 6        39.750  
G07  25384221.212 6 133394914.782 6        36.500    25384226.912 3 103944163.395 3        20.750  
G10  24040335.040 6 126332837.306 6        40.750    24040343.660 6  98441200.904 6        37.750  
G13  23256163.226 6 122211976.439 6        41.250    23256168.466 4  95230137.691 4        25.750  
G15  22580751.950 7 118662659.104 7        44.500    22580757.630 7  92464445.204 7        43.000  
G16  22046497.594 7 115855136.775 7        46.500    22046503.054 5  90276761.757 5        35.500  
G18  20114485.766 8 105702354.874 8        52.500    20114491.646 8  82365508.817 8        50.000  
G23  21443450.118 7 112686096.743 7        47.750    21443456.358 6  87807400.067 6        39.750  
G26  22508122.850 7 118280994.344 7        43.500    22508131.430 7  92167044.172 7        44.000  
G27  23322682.986 6 122561516.579 6        41.250    23322689.606 4  95502511.037 4        29.250  
G29  23092201.486 7 121350354.076 7        43.500    23092207.906 6  94558749.074 6        41.000  
R01  23474261.804 6 125483385.816 6        37.500    23474265.584 5  97598213.742 5        35.500  
R07  20619231.464 8 110376382.057 8        52.500    20619234.364 8  85848302.164 8        48.500  
R08  20658568.564 8 110625698.184 8        48.500    20658569.124 7  86042232.406 7        47.000  
R13  23814726.284 4 127169272.151 4        29.250    23814725.544 4  98909459.380 4        28.250  
R14  21737272.696 8 115871899.669 8        48.750    21737274.936 7  90122636.279 7        44.750  
R15  22658766.752 7 121081590.657 7        45.000    22658768.052 6  94174608.552 6        39.500  
R22  22162309.416 6 118303899.341 6        37.500    22162309.816 5  92014181.148 5        31.500  
R24  21126997.860 8 112975580.754 8        49.000    21126999.900 7  87869895.629 7        46.500  
> 2021 11 07 01 35  0.0000000  0 19                     
G05  23304839.806 6 122467786.573 6        40.000    23304845.706 6  95429470.775 6        39.750  
G07  25377247.132 6 133358267.342 6        37.000    25377252.912 3 103915606.930 3        20.250  
G10  23998827.800 6 126114714.941 6        40.000    23998836.020 6  98271235.469 6        37.250  
G13  23244080.706 6 122148486.238 6        40.500    23244086.286 4  95180664.814 4        25.250  
G15  22557884.590 7 118542489.844 7        45.000    22557889.670 7  92370806.842 7        43.250  
G16  22044329.694 7 115843740.435 7        47.750    22044334.374 5  90267881.496 5        35.500  
G18  20116857.426 8 105714818.271 8        52.500    20116863.146 8  82375220.559 8        50.000  
G23  21414299.978 8 112532909.398 8        48.500    21414306.038 6  87688033.343 6        40.250  
G26  22535024.790 7 118422365.608 7        43.000    22535033.750 7  92277203.555 7        43.250  
G27  23284544.826 7 122361101.103 7        42.500    23284551.746 4  95346343.136 4        29.500  
G29  23130888.346 7 121553655.286 7        42.500    23130894.626 6  94717165.556 6        40.750  
R01  23422162.944 5 125204885.883 5        34.500    23422165.924 5  97381602.800 5        32.250  
R07  20632649.784 8 110448212.076 8        52.000    20632652.664 7  85904169.963 7        47.750  
R08  20627534.664 8 110459513.468 8        48.250    20627535.744 7  85912977.646 7        47.000  
R13  23862818.804 5 127426086.477 5        30.750    23862818.964 4  99109203.769 4        27.500  
R14  21757193.296 8 115978090.414 8        49.500    21757195.496 7  90205229.055 7        44.500  
R15  22637063.912 7 120965625.271 7        44.500    22637066.952 6  94084413.282 6        40.500  
R22  22199991.052 6 118505051.974 6        37.250    22199991.972 5  92170633.156 5        31.000  
R24  21093233.260 8 112795028.331 8        49.750    21093235.720 7  87729465.981 7        46.500  
> 2021 11 07 01 36  0.0000000  0 19                     
G05  23342712.066 6 122666805.613 6        40.000    23342716.926 6  95584550.546 6        39.000  
G07  25370657.032 5 133323634.117 5        35.250    25370662.292 3 103888620.022 3        19.500  
G10  23957431.502 6 125897176.329 6        39.500    23957440.802 6  98101724.944 6        38.250  
G13  23232447.826 6 122087354.321 6        41.500    23232453.246 4  95133029.592 4        25.750  
G15  22535421.230 7 118424443.748 7        45.250    22535426.390 7  92278822.892 7        43.500  
G16  22042652.714 7 115834931.469 7        46.750    22042658.254 6  90261017.358 6        36.000  
G18  20119555.926 8 105728999.005 8        52.500    20119561.746 8  82386270.490 8        50.000  
G23  21385477.418 8 112381446.721 8        48.500    21385483.518 6  87570010.515 6        40.250  
G26  22562248.930 7 118565426.384 7        43.000    22562257.150 7  92388679.460 7        43.750  
G27  23246571.566 6 122161551.341 6        41.500    23246578.786 4  95190849.815 4        29.500  
G29  23169752.566 6 121757887.303 6        41.250    23169758.906 6  94876307.365 6        41.000  
R01  23370135.268 6 124926770.140 6        38.000    23370139.988 5  97165290.584 5        31.500  
R07  20646664.264 8 110523235.375 8        51.750    20646667.384 7  85962521.428 7        47.500  
R08  20596987.944 8 110295939.255 8        48.250    20596988.924 7  85785753.279 7        47.750  
R13  23910989.364 5 127683321.303 5        31.750    23910991.644 4  99309275.241 4        29.500  
R14  21777659.716 8 116087188.952 8        48.500    21777662.496 7  90290083.469 7        45.000  
R15  22615902.432 7 120852539.709 7        44.250    22615904.592 6  93996457.885 6        41.500  
R22  22237835.192 6 118707063.219 6        36.000    22237835.872 5  92327752.964 5        31.000  
R24  21059656.440 8 112615477.945 8        50.250    21059659.120 7  87589815.693 7        46.250  
> 2021 11 07 01 37  0.0000000  0 19                     
G05  23380787.466 6 122866892.504 6        40.250    23380792.806 6  95740462.396 6        39.750  
G07  25364450.532 5 133291021.328 5        35.500    25364456.332 3 103863207.520 3        19.250  
G10  23916149.822 6 125680237.534 6        40.000    23916157.962 6  97932681.824 6        39.000  
G13  23221266.806 6 122028593.463 6        40.500    23221272.046 4  95087241.917 4        27.500  
G15  22513366.030 7 118308541.506 7        45.250    22513371.590 7  92188509.476 7        44.000  
G16  22041469.154 7 115828710.831 7        46.500    22041474.654 6  90256170.116 6        36.000  
G18  20122581.066 8 105744894.881 8        53.750    20122586.586 8  82398656.888 8        50.000  
G23  21356985.998 8 112231723.346 8        49.250    21356991.818 6  87453342.983 6        39.750  
G26  22589789.010 7 118710156.987 7        42.750    22589798.550 7  92501456.515 7        42.000  
G27  23208766.746 6 121962885.435 6        41.500    23208774.386 4  95036045.209 4        29.500  
G29  23208791.286 7 121963037.229 7        42.000    23208798.106 6  95036164.407 6        41.000  
R01  23318185.848 6 124649068.307 6        39.750    23318189.268 5  96949300.306 5        34.750  
R07  20661272.824 8 110601436.991 8        51.250    20661276.324 8  86023344.912 8        48.000  
R08  20566934.144 8 110135002.355 8        48.500    20566935.224 7  85660580.176 7        47.500  
R13  23959233.784 5 127940942.837 5        32.000    23959236.364 4  99509647.468 4        28.000  
R14  21798668.016 8 116199172.337 8        48.500    21798670.256 7  90377181.629 7        45.000  
R15  22595282.612 7 120742354.936 7        44.250    22595285.032 7  93910758.648 7        42.000  
R22  22275836.792 6 118909924.052 6        37.000    22275838.572 5  92485533.589 5        30.750  
R24  21026269.820 8 112436944.288 8        49.750    21026272.120 7  87450956.193 7        45.500  
> 2021 11 07 01 38  0.0000000  0 19                     
G05  23419062.364 6 123068026.339 6        40.750    23419067.924 6  95897190.067 6        40.000  
G07  25358629.652 5 133260431.832 5        33.000    25358635.232 2 103839371.535 2        16.750  
G10  23874984.702 6 125463914.516 6        40.500    23874993.042 6  97764118.526 6        40.000  
G13  23210538.106 7 121972214.539 7        42.000    23210542.866 4  95043310.313 4        27.000  
G15  22491721.610 7 118194802.440 7        45.250    22491727.470 7  92099881.633 7        43.250  
G16  22040778.074 7 115825078.679 7        46.500    22040783.674 5  90253339.858 5        35.750  
G18  20125931.586 8 105762502.910 8        52.750    20125937.366 8  82412377.434 8        49.750  
G23  21328828.318 8 112083753.003 8        49.000    21328833.878 6  87338041.448 6        39.750  
G26  22617645.190 7 118856536.717 7        43.000    22617653.510 7  92615518.613 7        42.000  
G27  23171134.126 6 121765121.038 6        41.750    23171141.126 5  94881943.104 5        30.750  
G29  23248002.286 6 122169092.020 6        41.250    23248009.066 6  95196726.556 6        40.750  
R01  23266318.628 6 124371810.658 6        38.000    23266321.568 6  96733655.596 6        36.000  
R07  20676471.984 8 110682799.614 8        51.750    20676475.364 7  86086626.952 7        47.000  
R08  20537377.444 8 109976728.337 8        49.500    20537378.324 7  85537478.205 7        47.000  
R13  24007545.880 5 128198917.032 5        31.250    24007546.060 4  99710293.979 4        27.500  
R14  21820212.856 8 116314017.591 8        48.250    21820214.736 7  90466505.680 7        45.500  
R15  22575210.292 7 120635090.424 7        45.500    22575211.692 6  93827330.729 6        41.250  
R22  22313997.432 6 119113624.500 6        36.500    22313997.932 4  92643967.245 4        29.250  
R24  20993075.780 8 112259441.887 8        50.000    20993078.560 7  87312898.786 7        46.000  
> 2021 11 07 01 39  0.0000000  0 19                     
G05  23457531.544 6 123270186.116 6        39.750    23457536.644 6  96054717.156 6        37.500  
G07  25353195.392 6 133231870.131 6        36.250    25353200.492 3 103817115.605 3        18.250  
G10  23833940.222 6 125248223.112 6        40.750    23833948.222 6  97596047.392 6        40.750  
G13  23200264.046 6 121918229.678 6        41.500    23200269.826 4  95001244.173 4        25.500  
G15  22470493.512 7 118083247.092 7        45.000    22470499.272 7  92012955.412 7        43.500  
G16  22040579.594 7 115824034.832 7        46.250    22040584.754 5  90252526.479 5        35.250  
G18  20129607.506 8 105781820.525 8        52.750    20129613.366 8  82427430.128 8        49.750  
G23  21301006.538 8 111937549.684 8        49.000    21301012.398 6  87224116.820 6        40.500  
G26  22645810.310 7 119004545.311 7        43.500    22645818.830 7  92730849.955 7        42.250  
G27  23133675.466 7 121568276.419 7        42.500    23133682.446 5  94728557.693 5        31.500  
G29  23287382.946 6 122376038.528 6        41.500    23287389.406 6  95357983.560 6        41.250  
R01  23214539.128 6 124095027.371 6        36.750    23214543.868 6  96518379.845 6        36.000  
R07  20692259.584 8 110767307.400 8        52.000    20692262.324 7  86152355.238 7        47.500  
R08  20508323.484 8 109821143.464 8        49.000    20508324.004 7  85416467.776 7        47.500  
R13  24055916.460 4 128457209.936 4        29.750    24055915.420 4  99911188.393 4        28.250  
R14  21842289.416 8 116431700.683 8        48.500    21842291.776 7  90558036.941 7        44.500  
R15  22555687.132 7 120530766.078 7        46.000    22555689.232 6  93746189.607 6        41.500  
R22  22352314.512 6 119318155.241 6        36.000    22352314.112 4  92803046.702 4        29.750  
R24  20960077.564 8 112082984.567 8        50.750    20960080.204 7  87175654.229 7        46.250  
> 2021 11 07 01 40  0.0000000  0 18                     
G05  23496192.924 6 123473354.437 6        40.500    23496198.984 6  96213030.133 6        38.500  
G07  25348146.952 5 133205344.131 5        35.250    25348152.832 2 103796446.023 2        16.750  
G10  23793018.882 6 125033182.260 6        41.250    23793027.802 6  97428483.159 6        39.750  
G13  23190449.966 6 121866653.302 6        41.250    23190455.506 4  94961054.832 4        26.000  
G15  22449684.952 7 117973897.959 7        45.000    22449690.592 7  91927748.314 7        43.250  
G16  22040874.254 7 115825582.816 7        46.000    22040879.354 5  90253732.692 5        35.250  
G18  20133609.166 8 105802848.042 8        52.750    20133614.706 8  82443815.204 8        49.750  
G23  21273524.380 8 111793130.306 8        49.000    21273530.540 6  87111582.260 6        41.500  
G26  22674281.810 7 119154165.417 7        43.250    22674290.690 7  92847437.018 7        43.000  
G27  23096396.186 7 121372372.761 7        43.500    23096403.366 5  94575905.510 5        31.750  
G29  23326931.786 6 122583867.487 6        41.000    23326938.126 6  95519928.169 6        41.000  
R01  23162856.268 6 123818751.558 6        37.500    23162861.348 6  96303498.769 6        36.250  
R07  20708630.744 8 110854945.728 8        51.500    20708633.724 8  86220518.395 8        48.000  
R08  20479776.164 8 109668275.929 8        49.250    20479777.244 8  85297570.821 8        48.000  
R14  21864895.676 8 116552200.409 8        48.750    21864897.176 7  90651758.931 7        45.250  
R15  22536718.332 7 120429403.884 7        46.750    22536720.052 7  93667352.368 7        42.500  
R22  22390785.152 6 119523510.161 6        37.000    22390784.372 5  92962767.173 5        30.500  
R24  20927278.384 8 111907591.050 8        50.750    20927280.464 7  87039237.064 7        46.000  
> 2021 11 07 01 41  0.0000000  0 18                     
G05  23535041.504 6 123677503.450 6        41.500    23535047.124 6  96372107.292 6        39.000  
G07  25343485.832 5 133180849.738 5        35.250    25343490.892 2 103777359.475 2        16.750  
G10  23752223.262 6 124818800.842 6        40.500    23752231.722 6  97261432.773 6        39.000  
G13  23181094.526 6 121817488.995 6        41.750    23181099.526 4  94922744.987 4        25.750  
G15  22429298.232 7 117866767.064 7        45.000    22429304.252 7  91844269.697 7        43.500  
G16  22041660.174 7 115829714.193 7        47.000    22041665.234 5  90256951.939 5        34.750  
G18  20137933.886 8 105825575.553 8        52.250    20137939.746 8  82461524.963 8        49.500  
G23  21246383.060 8 111650501.375 8        49.000    21246388.980 6  87000442.869 6        40.500  
G26  22703054.930 7 119305369.315 7        43.500    22703064.270 7  92965258.214 7        43.000  
G27  23059297.408 7 121177421.356 7        42.500    23059305.388 5  94423995.326 5        32.000  
G29  23366644.226 6 122792558.559 6        41.250    23366650.366 6  95682544.562 6        39.500  
R01  23111273.488 6 123543007.247 6        37.500    23111277.228 5  96089031.069 5        34.000  
R07  20725582.924 8 110945689.444 8        51.750    20725585.684 7  86291096.849 7        47.750  
R08  20451740.784 8 109518144.189 8        49.250    20451741.224 8  85180801.734 8        48.000  
R14  21888023.316 8 116675485.563 8        48.000    21888025.136 7  90747647.353 7        45.000  
R15  22518306.072 7 120331015.501 7        47.000    22518308.412 7  93590828.053 7        42.250  
R22  22429405.372 6 119729672.784 6        36.000    22429404.952 4  93123115.859 4        29.000  
R24  20894678.624 8 111733267.895 8        50.500    20894680.824 7  86903652.385 7        46.500  
> 2021 11 07 01 42  0.0000000  0 18                     
G05  23574073.324 7 123882615.538 7        42.750    23574078.044 6  96531934.879 6        38.250  
G07  25339211.712 5 133158392.220 5        35.500    25339217.992 3 103759860.125 3        19.000  
G10  23711556.042 6 124605097.052 6        41.750    23711565.042 6  97094910.405 6        38.750  
G13  23172199.706 6 121770749.436 6        40.750    23172205.906 4  94886324.579 4        26.250  
G15  22409338.112 7 117761875.792 7        44.250    22409343.412 7  91762536.254 7        43.250  
G16  22042938.154 7 115836430.136 7        45.750    22042943.034 5  90262185.145 5        35.500  
G18  20142582.286 8 105850002.600 8        52.000    20142587.966 8  82480559.026 8        49.500  
G23  21219585.260 8 111509678.766 8        49.000    21219591.600 6  86890710.988 6        41.250  
G26  22732125.750 7 119458138.648 7        42.000    22732134.930 7  93084299.212 7        42.500  
G27  23022385.348 7 120983442.959 7        42.500    23022392.548 5  94272843.354 5        31.500  
G29  23406518.664 6 123002101.009 6        40.750    23406525.024 6  95845824.377 6        38.750  
R01  23059794.908 6 123267827.110 6        41.000    23059798.428 5  95875002.114 5        31.500  
R07  20743111.684 8 111039523.131 8        51.500    20743114.144 7  86364078.611 7        47.000  
R08  20424220.024 8 109370775.164 8        49.250    20424220.924 8  85066181.435 8        48.000  
R14  21911670.116 8 116801532.944 8        49.000    21911671.556 7  90845684.187 7        44.500  
R15  22500454.392 7 120235621.292 7        47.750    22500456.652 7  93516632.578 7        42.250  
R22  22468175.852 5 119936636.045 5        35.500    22468176.292 4  93284087.253 4        29.500  
R24  20862283.104 8 111560032.956 8        50.750    20862285.324 7  86768914.116 7        46.250  
> 2021 11 07 01 43  0.0000000  0 18                     
G05  23613284.124 6 124088669.911 6        41.750    23613289.884 6  96692496.730 6        39.750  
G07  25335326.812 5 133137975.522 5        35.250    25335332.092 3 103743951.011 3        18.500  
G10  23671021.604 7 124392087.227 7        42.000    23671030.644 6  96928928.785 6        38.750  
G13  23163770.006 6 121726445.650 6        41.500    23163774.906 4  94851802.143 4        27.000  
G15  22389808.112 7 117659243.535 7        45.750    22389813.592 7  91682563.084 7        43.750  
G16  22044708.114 7 115845729.736 7        46.250    22044712.794 5  90269431.576 5        34.500  
G18  20147553.146 8 105876126.482 8        52.000    20147559.366 8  82500915.299 8        49.500  
G23  21193134.100 8 111370676.031 8        49.250    21193140.040 6  86782397.201 6        41.750  
G26  22761490.750 6 119612452.859 6        41.750    22761499.830 7  93204544.019 7        42.500  
G27  22985660.988 7 120790456.348 7        42.250    22985668.448 5  94122464.184 5        30.750  
G29  23446553.204 6 123212482.019 6        40.500    23446559.204 6  96009757.613 6        38.750  
R01  23008429.068 6 122993241.952 6        40.250    23008432.108 5  95661435.867 5        33.750  
R07  20761213.684 8 111136427.937 8        51.000    20761216.964 7  86439449.029 7        47.250  
R08  20397221.044 8 109226193.666 8        49.500    20397221.344 8  84953729.192 8        48.500  
R14  21935829.076 8 116930317.652 8        48.750    21935830.456 7  90945850.048 7        44.000  
R15  22483166.692 7 120143239.355 7        47.500    22483169.152 7  93444779.985 7        42.500  
R22  22507095.512 6 120144390.646 6        36.000    22507096.352 5  93445674.102 5        30.000  
R24  20830093.804 8 111387901.450 8        50.500    20830096.304 7  86635034.056 7        47.000  
> 2021 11 07 01 44  0.0000000  0 18                     
G05  23652670.724 6 124295648.135 6        41.500    23652674.884 6  96853778.476 6        37.500  
G07  25331829.892 5 133119602.864 5        34.250    25331835.372 2 103729634.638 2        16.250  
G10  23630622.544 7 124179787.919 7        42.000    23630631.484 6  96763500.841 6        40.750  
G13  23155804.206 6 121684588.045 6        41.000    23155809.246 4  94819185.841 4        26.500  
G15  22370710.632 7 117558889.208 7        44.250    22370716.832 7  91604364.927 7        43.500  
G16  22046969.174 7 115857612.228 7        45.500    22046973.994 5  90278690.663 5        34.250  
G18  20152847.146 8 105903944.927 8        52.500    20152852.786 8  82522592.016 8        49.250  
G23  21167031.760 8 111233507.035 8        48.250    21167037.520 6  86675512.306 6        41.250  
G26  22791146.188 7 119768291.732 7        42.500    22791155.128 7  93325976.858 7        42.000  
G27  22949129.508 6 120598480.856 6        40.750    22949136.108 5  93972872.898 5        31.750  
G29  23486743.744 6 123423689.238 6        39.750    23486750.504 6  96174334.634 6        38.500  
R01  22957176.688 6 122719283.317 6        37.000    22957182.548 6  95448357.045 6        37.500  
R07  20779887.024 8 111236385.251 8        51.000    20779890.144 7  86517193.623 7        47.500  
R08  20370745.608 8 109084424.191 8        50.500    20370746.828 8  84843464.080 8        48.000  
R14  21960497.676 8 117061814.311 8        48.500    21960500.316 7  91048125.194 7        44.500  
R15  22466444.792 7 120053887.342 7        47.000    22466447.892 7  93375283.979 7        42.250  
R22  22546162.172 6 120352928.202 6        36.750    22546162.552 5  93607869.986 5        30.250  
R24  20798113.024 8 111216889.454 8        51.000    20798115.984 7  86502024.747 7        47.000  
> 2021 11 07 01 45  0.0000000  0 18                     
G05  23692229.042 6 124503528.996 6        41.750    23692234.262 6  97015763.537 6        38.750  
G07  25328723.552 5 133103276.602 5        35.750    25328729.512 2 103716912.912 2        17.250  
G10  23590362.244 7 123968214.939 7        43.000    23590370.804 7  96598638.864 7        43.000  
G13  23148305.966 6 121645185.760 6        41.500    23148311.526 4  94788482.762 4        26.000  
G15  22352050.852 7 117460830.559 7        44.000    22352056.952 7  91527955.602 7        44.000  
G16  22049721.094 7 115872074.934 7        46.750    22049725.834 5  90289960.280 5        34.000  
G18  20158462.546 8 105933454.765 8        51.750    20158468.346 8  82545586.687 8        49.000  
G23  21141280.520 8 111098184.609 8        48.750    21141286.400 6  86570066.266 6        40.750  
G26  22821087.488 7 119925634.129 7        42.000    22821096.828 7  93448581.282 7        42.250  
G27  22912793.528 7 120407535.078 7        43.000    22912800.188 5  93824083.971 5        32.000  
G29  23527090.464 6 123635709.441 6        40.750    23527096.784 6  96339545.139 6        39.500  
R01  22906052.648 6 122445982.272 6        39.000    22906055.348 6  95235789.692 6        37.500  
R07  20799126.424 8 111339375.474 8        51.000    20799129.104 7  86597297.121 7        47.000  
R08  20344801.428 8 108945489.867 8        49.750    20344801.628 8  84735404.071 8        48.500  
R14  21985669.496 8 117195996.766 8        48.250    21985671.936 7  91152489.298 7        43.500  
R15  22450294.512 7 119967581.883 7        47.000    22450296.392 6  93308157.532 6        41.500  
R22  22585373.472 6 120562239.482 6        36.500    22585373.292 4  93770667.571 4        29.500  
R24  20766344.944 8 111047011.093 8        51.000    20766347.504 7  86369897.141 7        46.750  
> 2021 11 07 01 46  0.0000000  0 18                     
G05  23731955.002 6 124712291.518 6        39.500    23731960.422 6  97178435.632 6        37.000  
G07  25326006.672 5 133088997.469 5        33.750    25326012.452 3 103705786.297 3        18.500  
G10  23550242.064 7 123757383.244 7        43.000    23550250.764 7  96434354.488 7        42.750  
G13  23141276.386 6 121608246.665 6        41.250    23141281.766 4  94759699.066 4        27.000  
G15  22333831.252 7 117365084.514 7        44.250    22333836.932 7  91453348.326 7        44.000  
G16  22052963.514 7 115889113.512 7        46.750    22052968.654 5  90303237.091 5        34.000  
G18  20164399.186 8 105964651.814 8        52.000    20164405.026 8  82569896.084 8        49.000  
G23  21115883.220 8 110964720.479 8        48.750    21115889.180 6  86466068.271 6        41.000  
G26  22851310.868 7 120084457.872 7        42.500    22851319.648 6  93572340.000 6        41.000  
G27  22876657.348 7 120217636.811 7        43.000    22876664.148 5  93676111.299 5        33.000  
G29  23567588.324 6 123848528.813 6        40.250    23567595.124 6  96505378.383 6        39.500  
R01  22855054.668 6 122173368.315 6        40.250    22855057.628 6  95023756.721 6        36.000  
R07  20818928.384 8 111445377.144 8        51.250    20818931.524 7  86679742.877 7        47.500  
R08  20319389.608 8 108809413.073 8        50.000    20319390.588 8  84629566.598 8        48.250  
R14  22011340.156 7 117332837.273 7        47.500    22011343.216 7  91258920.769 7        43.750  
R15  22434716.652 7 119884337.811 7        46.750    22434718.212 7  93243412.145 7        42.000  
R22  22624727.112 6 120772314.228 6        37.000    22624727.752 4  93934059.017 4        29.500  
R24  20734792.404 8 110878281.771 8        51.500    20734794.584 7  86238663.230 7        47.000  
> 2021 11 07 01 47  0.0000000  0 18                     
G05  23771845.382 6 124921915.605 6        39.250    23771850.082 6  97341779.085 6        36.500  
G07  25323679.312 5 133076767.010 5        35.250    25323684.992 2 103696256.061 2        17.750  
G10  23510265.564 6 123547307.920 6        40.750    23510274.084 6  96270659.498 6        41.000  
G13  23134717.906 6 121573778.754 6        40.500    23134723.046 4  94732840.941 4        26.250  
G15  22316055.112 7 117271668.116 7        44.000    22316060.772 7  91380556.350 7        44.500  
G16  22056695.654 7 115908724.905 7        45.750    22056700.334 5  90318518.694 5        34.250  
G18  20170656.106 8 105997532.277 8        51.250    20170662.006 8  82595517.225 8        49.000  
G23  21090841.960 8 110833126.679 8        48.750    21090847.600 7  86363527.683 7        42.000  
G26  22881811.588 6 120244741.055 6        41.500    22881820.368 6  93697235.962 6        41.000  
G27  22840724.048 7 120028804.209 7        43.250    22840730.348 5  93528969.017 5        33.750  
G29  23608236.624 6 124062133.556 6        41.000    23608242.944 6  96671823.610 6        39.000  
R01  22804189.608 6 121901472.413 6        40.500    22804193.228 5  94812282.139 5        33.750  
R07  20839288.804 8 111554369.268 8        52.500    20839291.824 7  86764514.531 7        47.000  
R08  20294515.828 8 108676216.053 8        49.750    20294516.908 8  84525968.951 8        48.000  
R14  22037505.496 7 117472307.939 7        47.750    22037507.296 7  91367397.933 7        44.000  
R15  22419714.192 7 119804170.208 7        46.500    22419716.392 6  93181059.564 6        41.000  
R22  22664223.652 5 120983142.402 5        34.500    22664222.192 4  94098036.410 4        28.500  
R24  20703456.224 8 110710716.206 8        50.500    20703458.764 7  86108334.472 7        46.500  
> 2021 11 07 01 48  0.0000000  0 18                     
G05  23811895.522 6 125132381.570 6        39.250    23811900.902 4  97505778.538 4        27.000  
G07  25321742.712 6 133066587.762 6        36.250    25321748.632 3 103688324.224 3        18.500  
G10  23470436.924 6 123338005.428 6        40.750    23470445.164 6  96107566.727 6        40.500  
G13  23128630.866 6 121541790.683 6        41.000    23128635.686 4  94707915.194 4        25.250  
G15  22298725.132 7 117180599.978 7        44.750    22298731.092 7  91309594.187 7        45.000  
G16  22060916.414 7 115930906.134 7        47.000    22060921.394 5  90335802.756 5        34.250  
G18  20177232.626 8 106032093.360 8        51.500    20177238.526 8  82622447.940 8        48.750  
G23  21066158.280 8 110703416.042 8        49.000    21066164.680 7  86262454.471 7        42.000  
G26  22912586.308 6 120406462.845 6        41.250    22912594.468 6  93823252.931 6        40.500  
G27  22804995.548 7 119841056.750 7        42.250    22805003.348 5  93382672.292 5        33.000  
G29  23649031.244 6 124276511.485 6        40.250    23649037.224 6  96838871.312 6        37.750  
R01  22753465.672 6 121630325.926 6        39.250    22753468.792 5  94601390.422 5        34.000  
R07  20860204.784 8 111666330.857 8        52.000    20860207.484 7  86851595.782 7        46.500  
R08  20270184.968 8 108545921.137 8        50.250    20270184.848 8  84424628.488 8        48.250  
R14  22064157.176 7 117614381.682 7        47.000    22064159.476 7  91477899.701 7        43.500  
R15  22405290.872 7 119727094.093 7        45.750    22405292.312 6  93121111.486 6        40.750  
R22  22703855.472 5 121194714.797 5        35.750    22703857.332 4  94262592.696 4        28.500  
R24  20672341.244 8 110544330.069 8        52.000    20672343.684 7  85978923.038 7        47.500  
> 2021 11 07 01 49  0.0000000  0 18                     
G05  23852102.322 6 125343669.318 6        40.750    23852107.322 4  97670418.334 4        26.750  
G07  25320194.312 5 133058459.194 5        34.750    25320201.572 3 103681990.212 3        18.250  
G10  23430757.684 7 123129490.602 7        42.000    23430766.024 6  95945087.715 6        41.250  
G13  23123016.846 6 121512289.602 6        39.500    23123022.446 4  94684927.357 4        26.000  
G15  22281844.892 7 117091894.430 7        44.500    22281850.772 7  91240473.003 7        44.750  
G16  22065625.374 7 115955651.560 7        46.000    22065630.414 5  90355084.902 5        34.500  
G18  20184128.646 8 106068330.700 8        51.500    20184134.326 8  82650684.836 8        48.750  
G23  21041835.660 8 110575599.801 8        49.000    21041841.760 6  86162857.431 6        41.750  
G26  22943629.948 6 120569600.847 6        41.000    22943639.068 6  93950373.421 6        40.750  
G27  22769478.870 7 119654412.418 7        42.250    22769485.950 5  93237235.184 5        32.250  
G29  23689970.122 6 124491647.379 6        39.000    23689976.482 6  97006509.653 6        36.000  
R01  22702887.712 6 121359959.446 6        39.500    22702892.552 6  94391105.459 6        36.000  
R07  20881670.604 8 111781239.736 8        51.750    20881673.324 7  86940969.352 7        46.500  
R08  20246398.328 8 108418548.905 8        50.000    20246399.068 8  84325561.226 8        48.500  
R14  22091293.496 8 117759030.062 8        48.000    22091295.196 7  91590403.976 7        43.500  
R15  22391447.132 7 119653123.489 7        45.250    22391449.912 6  93063578.839 6        40.500  
R22  22743627.872 5 121407022.276 5        35.250    22743629.612 4  94427720.689 4        29.500  
R24  20641449.864 8 110379138.112 8        51.250    20641452.024 7  85850440.415 7        47.000  
> 2021 11 07 01 50  0.0000000  0 18                     
G05  23892460.942 6 125555757.736 6        38.500    23892467.082 4  97835682.021 4        27.000  
G07  25319038.672 5 133052382.342 5        33.250    25319044.412 2 103677255.021 2        16.250  
G10  23391230.944 7 122921778.751 7        42.000    23391239.704 6  95783234.368 6        41.500  
G13  23117877.146 6 121485282.453 6        40.750    23117882.926 4  94663882.830 4        27.000  
G15  22265417.212 7 117005568.078 7        43.750    22265423.232 7  91173205.736 7        44.750  
G16  22070821.414 7 115982957.299 7        46.250    22070826.714 5  90376362.100 5        34.500  
G18  20191342.566 8 106106240.429 8        51.000    20191348.486 8  82680224.880 8        48.750  
G23  21017875.960 8 110449689.448 8        48.750    21017881.900 7  86064745.498 7        42.250  
G26  22974939.988 7 120734132.978 7        42.000    22974948.668 6  94078580.254 6        41.500  
G27  22734175.230 7 119468889.810 7        43.000    22734182.470 5  93092672.121 5        33.000  
G29  23731051.222 6 124707528.464 6        39.250    23731057.282 6  97174728.637 6        36.750  
R01  22652461.672 6 121090403.732 6        39.000    22652466.172 6  94181451.104 6        36.500  
R07  20903682.584 8 111899073.152 8        51.500    20903685.664 7  87032617.581 7        47.250  
R08  20223162.488 8 108294120.251 8        50.500    20223162.968 8  84228783.402 8        48.250  
R14  22118906.456 7 117906224.055 7        47.750    22118909.496 7  91704888.146 7        44.000  
R15  22378188.892 7 119582271.333 7        45.750    22378190.352 6  93008471.611 6        40.750  
R22  22783537.752 5 121620054.109 5        35.750    22783537.652 4  94593412.040 4        29.750  
R24  20610784.444 8 110215155.784 8        51.250    20610786.624 7  85722898.613 7        46.750  
> 2021 11 07 01 51  0.0000000  0 18                     
G05  23932969.442 6 125768627.443 6        39.000    23932975.062 4  98001554.550 4        26.750  
G07  25318273.792 5 133048356.880 5        35.000    25318278.632 3 103674118.346 3        19.000  
G10  23351861.006 7 122714885.133 7        42.250    23351869.126 7  95622018.602 7        42.000  
G13  23113214.106 6 121460775.561 6        40.500    23113219.486 4  94644786.550 4        26.500  
G15  22249445.772 7 116921636.402 7        44.500    22249452.192 7  91107804.450 7        45.000  
G16  22076504.054 7 116012818.053 7        44.750    22076508.834 5  90399630.204 5        34.000  
G18  20198873.986 8 106145818.539 8        50.750    20198879.766 8  82711064.975 8        48.500  
G23  20994280.780 8 110325696.287 8        49.500    20994286.600 7  85968127.467 7        42.000  
G26  23006510.688 6 120900037.088 6        41.250    23006519.548 6  94207856.164 6        41.750  
G27  22699088.770 7 119284507.555 7        43.750    22699095.270 5  92948997.635 5        33.000  
G29  23772271.002 6 124924140.968 6        40.000    23772277.622 6  97343517.596 6        38.750  
R01  22602193.892 6 120821689.451 6        41.000    22602197.852 6  93972451.187 6        37.500  
R07  20926236.984 8 112019808.008 8        51.250    20926240.144 7  87126522.473 7        47.500  
R08  20200479.748 8 108172655.468 8        50.250    20200480.508 8  84134310.827 8        48.750  
R14  22146991.316 7 118055934.620 7        47.000    22146994.576 7  91821329.675 7        44.250  
R15  22365515.892 7 119514550.324 7        45.250    22365517.472 6  92955799.711 6        40.750  
R22  22823578.908 5 121833800.725 5        34.750    22823579.848 4  94759659.363 4        28.500  
R24  20580346.944 8 110052398.085 8        51.750    20580349.964 7  85596309.306 7        47.500  
> 2021 11 07 01 52  0.0000000  0 18                     
G05  23973622.202 6 125982258.569 6        40.000    23973627.342 4  98168020.280 4        27.000  
G07  25317897.092 5 133046382.639 5        35.000    25317903.392 3 103672580.004 3        18.250  
G10  23312648.486 7 122508824.979 7        42.750    23312657.666 7  95461452.320 7        42.500  
G13  23109027.846 6 121438774.754 6        40.750    23109032.906 4  94627643.080 4        26.500  
G15  22233932.172 7 116840115.034 7        44.000    22233938.952 7  91044281.333 7        45.000  
G16  22082671.094 7 116045227.975 7        44.500    22082676.294 5  90424884.684 5        34.250  
G18  20206722.006 8 106187060.919 8        51.250    20206728.006 8  82743201.894 8        48.500  
G23  20971052.742 8 110203631.348 8        49.000    20971058.502 7  85873011.947 7        42.000  
G26  23038337.588 6 121067291.033 6        41.250    23038347.028 6  94338183.876 6        41.000  
G27  22664222.810 7 119101284.319 7        44.250    22664229.230 5  92806226.282 5        34.500  
G29  23813627.782 6 125141471.103 6        40.250    23813634.202 6  97512865.726 6        38.750  
R01  22552088.312 6 120553847.137 6        41.000    22552092.252 6  93764129.441 6        36.500  
R07  20949328.344 8 112143421.161 8        50.750    20949331.844 7  87222666.043 7        47.500  
R08  20178353.968 8 108054174.093 8        50.500    20178354.868 8  84042158.674 8        48.750  
R14  22175543.976 7 118208132.319 7        47.000    22175546.116 7  91939705.618 7        43.500  
R15  22353431.252 7 119449972.822 7        46.000    22353432.632 6  92905572.790 6        40.000  
R22  22863753.568 5 122048252.604 5        35.000    22863753.868 5  94926455.165 5        30.500  
R24  20550143.064 8 109890880.466 8        52.000    20550145.184 7  85470684.491 7        47.250  
> 2021 11 07 01 53  0.0000000  0 18                     
G05  24014415.300 6 126196631.839 6        38.500    24014421.480 4  98335064.379 4        26.000  
G07  25317912.052 5 133046459.266 5        34.250    25317917.752 2 103672639.618 2        17.250  
G10  23273598.106 7 122303613.958 7        43.500    23273607.106 7  95301547.710 7        43.500  
G13  23105319.366 6 121419286.686 6        41.500    23105324.126 4  94612457.573 4        27.250  
G15  22218881.652 7 116761019.199 7        44.500    22218887.132 7  90982648.252 7        45.000  
G16  22089322.534 7 116080181.404 7        45.000    22089327.754 5  90452121.120 5        33.750  
G18  20214886.466 8 106229963.899 8        51.000    20214892.126 8  82776632.793 8        48.500  
G23  20948193.302 8 110083505.983 8        49.500    20948199.422 7  85779407.785 7        42.250  
G26  23070417.468 6 121235872.900 6        40.250    23070427.328 6  94469546.324 6        40.750  
G27  22629580.510 7 118919239.285 7        44.500    22629587.450 5  92664372.997 5        34.500  
G29  23855118.342 6 125359505.422 6        39.250    23855124.762 6  97682762.557 6        37.750  
R01  22502152.212 6 120286909.045 6        41.250    22502155.052 6  93556510.986 6        36.000  
R07  20972954.804 8 112269889.536 8        51.500    20972957.144 7  87321030.337 7        47.000  
R08  20156789.048 8 107938695.785 8        50.500    20156790.128 8  83952342.239 8        48.500  
R14  22204556.472 7 118362787.898 7        47.500    22204559.432 7  92059993.247 7        43.750  
R15  22341936.792 7 119388550.512 7        46.000    22341938.252 6  92857799.882 6        40.500  
R22  22904058.408 5 122263400.418 5        34.500    22904058.848 4  95093792.301 4        28.250  
R24  20520173.204 8 109730619.611 8        51.750    20520175.584 7  85346037.180 7        47.500  
> 2021 11 07 01 54  0.0000000  0 18                     
G05  24055347.300 6 126411727.199 6        39.000    24055352.880 4  98502671.150 4        25.750  
G07  25318316.312 5 133048585.879 5        33.500    25318322.132 3 103674296.679 3        18.250  
G10  23234712.386 7 122099266.864 7        44.250    23234721.166 7  95142316.282 7        43.500  
G13  23102089.306 6 121402316.140 6        40.750    23102095.046 4  94599233.773 4        26.750  
G15  22204294.152 7 116684363.266 7        45.750    22204299.892 7  90922916.383 7        44.250  
G16  22096456.594 7 116117671.610 7        44.000    22096461.594 5  90481334.258 5        34.000  
G18  20223366.086 8 106274522.926 8        51.000    20223371.506 8  82811354.107 8        48.500  
G23  20925705.322 8 109965330.504 8        48.500    20925711.422 7  85687323.012 7        42.500  
G26  23102746.646 6 121405759.970 6        41.500    23102755.726 6  94601925.812 6        40.500  
G27  22595165.690 7 118738390.839 7        43.250    22595173.230 5  92523452.143 5        34.500  
G29  23896740.282 6 125578229.904 6        38.500    23896746.802 6  97853197.167 6        37.000  
R01  22452390.692 6 120020905.515 6        41.000    22452394.012 5  93349619.397 5        35.000  
R07  20997108.140 8 112399188.126 8        50.750    20997111.100 7  87421595.926 7        46.500  
R08  20135788.708 8 107826238.858 8        50.750    20135789.508 8  83864875.769 8        48.750  
R14  22234024.712 7 118519870.954 7        47.000    22234027.532 7  92182168.924 7        43.250  
R15  22331034.752 7 119330294.074 7        46.000    22331036.612 6  92812489.315 6        41.250  
R22  22944491.288 5 122479233.843 5        33.500    22944491.808 4  95261662.685 4        27.500  
R24  20490441.324 8 109571629.962 8        52.250    20490443.664 8  85222378.585 8        48.250  
> 2021 11 07 01 55  0.0000000  0 18                     
G05  24096411.820 6 126627525.015 6        39.500    24096418.480 4  98670825.274 4        27.000  
G07  25319111.092 5 133052761.987 5        32.500    25319117.072 3 103677550.781 3        18.250  
G10  23195993.846 7 121895799.066 7        44.500    23196002.106 7  94983770.016 7        44.000  
G13  23099339.886 7 121387867.756 7        42.500    23099345.346 4  94587975.298 4        25.750  
G15  22190173.972 7 116610161.821 7        44.750    22190179.732 7  90865097.099 7        44.250  
G16  22104072.734 7 116157691.359 7        44.250    22104077.214 5  90512518.473 5        33.750  
G18  20232159.386 8 106320733.927 8        51.500    20232165.186 8  82847362.683 8        48.250  
G23  20903590.222 8 109849115.581 8        48.750    20903596.442 7  85596765.948 7        42.750  
G26  23135318.986 6 121576930.051 6        41.000    23135327.586 6  94735305.060 6        39.750  
G27  22560982.310 7 118558758.117 7        42.500    22560990.430 5  92383478.609 5        34.250  
G29  23938490.562 6 125797631.279 6        38.250    23938497.282 6  98024159.266 6        36.250  
R01  22402811.012 6 119755867.623 6        40.750    22402813.452 6  93143478.881 6        36.250  
R07  21021786.580 8 112531292.795 8        51.250    21021789.540 7  87524344.001 7        46.500  
R08  20115355.908 8 107716821.534 8        50.750    20115356.648 8  83779773.448 8        49.000  
R14  22263943.272 7 118679351.124 7        46.500    22263945.592 7  92306208.996 7        43.000  
R15  22320726.972 7 119275213.991 7        47.000    22320728.992 6  92769649.290 6        41.250  
R22  22985049.868 5 122695743.416 5        35.000    22985051.448 4  95430058.926 4        27.750  
R24  20460950.244 8 109413927.805 8        51.500    20460953.084 7  85099721.346 7        47.250  
> 2021 11 07 01 56  0.0000000  0 18                     
G05  24137606.720 6 126844006.306 6        39.500    24137612.440 3  98839511.956 3        22.750  
G07  25320294.892 5 133058985.820 5        33.500    25320301.872 2 103682400.557 2        16.750  
G10  23157445.146 7 121693225.610 7        44.500    23157453.306 7  94825920.617 7        43.250  
G13  23097071.946 7 121375946.143 7        42.250    23097077.186 4  94578685.728 4        28.000  
G15  22176523.514 7 116538428.390 7        44.750    22176529.594 7  90809200.934 7        44.500  
G16  22112167.954 7 116200234.991 7        44.250    22112172.974 5  90545669.349 5        34.500  
G18  20241266.646 8 106368592.520 8        50.750    20241272.326 8  82884655.102 8        48.250  
G23  20881850.702 8 109734871.354 8        48.500    20881856.362 7  85507744.476 7        43.000  
G26  23168131.766 6 121749360.566 6        40.750    23168139.926 6  94869666.484 6        39.000  
G27  22527034.910 7 118380359.881 7        42.250    22527042.330 5  92244467.007 5        35.750  
G29  23980368.142 6 126017695.357 6        39.500    23980373.922 5  98195637.761 5        35.750  
R01  22353415.552 6 119491826.693 6        41.750    22353418.732 6  92938113.769 6        37.000  
R07  21046984.720 8 112666178.744 8        50.000    21046987.380 7  87629255.293 7        46.250  
R08  20095493.948 8 107610461.881 8        51.000    20095494.688 8  83697049.300 8        49.750  
R14  22294305.912 7 118841197.648 7        46.750    22294307.592 7  92432089.578 7        42.000  
R15  22311016.732 7 119223319.789 7        47.250    22311018.092 7  92729287.124 7        42.000  
R22  23025734.968 5 122912919.725 5        35.000    23025735.748 4  95598973.748 4        28.500  
R24  20431702.644 8 109257528.867 8        52.000    20431705.264 8  84978077.744 8        48.000  
> 2021 11 07 01 57  0.0000000  0 18                     
G05  24178928.260 6 127061150.063 6        39.750    24178934.660 4  99008714.900 4        25.750  
G07  25321868.492 5 133067253.932 5        34.500    25321874.712 3 103688843.279 3        18.500  
G10  23119069.586 7 121491560.521 7        45.250    23119077.746 7  94668779.036 7        44.000  
G13  23095284.486 6 121366554.975 6        40.750    23095289.406 4  94571367.942 4        27.000  
G15  22163344.634 7 116469175.073 7        45.250    22163351.094 7  90755237.337 7        44.750  
G16  22120742.934 7 116245292.409 7        45.000    22120746.954 5  90580779.009 5        34.000  
G18  20250686.346 8 106418093.270 8        52.000    20250691.966 8  82923227.110 8        48.000  
G23  20860487.582 8 109622606.873 8        49.750    20860493.202 7  85420265.674 7        43.250  
G26  23201179.346 6 121923027.930 6        40.000    23201187.966 6  95004991.692 6        38.500  
G27  22493325.550 7 118203214.097 7        42.750    22493332.190 5  92106431.341 5        35.250  
G29  24022367.920 6 126238407.445 6        40.250    24022374.180 6  98367621.213 6        36.000  
R01  22304213.752 6 119228812.872 6        41.250    22304217.232 6  92733547.548 6        38.000  
R07  21072696.360 8 112803819.614 8        50.000    21072699.760 7  87736309.318 7        46.250  
R08  20076205.388 8 107507175.319 8        51.250    20076206.328 8  83616715.334 8        49.000  
R14  22325105.472 7 119005378.532 7        47.500    22325107.992 7  92559785.779 7        42.000  
R15  22301902.572 7 119174619.733 7        47.250    22301904.192 7  92691409.311 7        42.750  
R22  23066543.968 5 123130751.333 5        34.250    23066543.808 4  95768398.247 4        28.000  
R24  20402701.864 8 109102448.321 8        52.250    20402704.404 7  84857459.546 7        47.500  
> 2021 11 07 01 58  0.0000000  0 18                     
G05  24220371.820 6 127278938.833 6        39.000    24220378.080 4  99178420.390 4        24.500  
G07  25323831.212 5 133077566.151 5        34.500    25323837.312 2 103696878.760 2        17.750  
G10  23080869.828 7 121290819.911 7        45.500    23080878.208 7  94512357.839 7        44.500  
G13  23093979.646 6 121359698.018 6        41.500    23093984.566 4  94566024.853 4        28.000  
G15  22150641.154 7 116402416.619 7        44.250    22150647.134 7  90703217.772 7        44.750  
G16  22129793.394 7 116292857.508 7        44.250    22129798.434 5  90617842.715 5        34.250  
G18  20260417.766 8 106469232.802 8        49.750    20260423.526 7  82963076.107 7        47.750  
G23  20839502.782 8 109512332.959 8        49.000    20839508.702 7  85334337.974 7        43.250  
G26  23234458.326 6 122097910.631 6        40.500    23234467.006 6  95141263.910 6        38.000  
G27  22459857.852 7 118027340.753 7        43.500    22459864.772 5  91969387.181 5        35.750  
G29  24064488.840 6 126459754.608 6        40.000    24064495.100 6  98540099.509 6        36.000  
R01  22255208.112 6 118966858.429 6        41.000    22255212.792 6  92529805.272 6        38.000  
R07  21098919.700 8 112944191.012 8        50.250    21098922.320 7  87845487.072 7        46.500  
R08  20057495.188 8 107406979.925 8        51.250    20057495.528 8  83538785.609 8        48.750  
R14  22356337.952 7 119171863.805 7        46.750    22356339.672 7  92689274.300 7        43.750  
R15  22293389.252 7 119129123.709 7        47.000    22293390.392 7  92656023.517 7        43.000  
R22  23107470.608 5 123349230.325 5        34.500    23107471.828 4  95938326.271 4        28.250  
R24  20373951.088 8 108948703.177 8        52.250    20373953.368 8  84737880.002 8        48.000  
> 2021 11 07 01 59  0.0000000  0 18                     
G05  24261934.380 6 127497353.841 6        37.000    24261940.020 3  99348613.876 3        22.750  
G07  25326182.172 6 133089919.986 6        36.750    25326188.072 3 103706505.231 3        19.250  
G10  23042848.948 7 121091018.428 7        45.250    23042856.948 7  94356668.420 7        43.500  
G13  23093157.906 6 121355378.284 6        41.000    23093162.466 4  94562658.843 4        26.250  
G15  22138414.454 7 116338165.126 7        45.000    22138420.214 7  90653151.683 7        44.750  
G16  22139320.594 7 116342921.335 7        44.000    22139325.294 5  90656853.475 5        34.000  
G18  20270460.266 8 106522006.260 8        50.750    20270466.006 7  83004198.271 7        47.750  
G23  20818898.682 8 109404058.920 8        49.750    20818904.982 7  85249968.605 7        43.250  
G26  23267964.046 6 122273985.687 6        38.750    23267973.006 6  95278465.226 6        38.000  
G27  22426635.432 7 117852758.590 7        45.000    22426642.592 5  91833349.130 5        35.750  
G29  24106728.300 6 126681722.697 6        39.750    24106734.460 6  98713061.640 6        37.000  
R01  22206409.132 7 118705994.205 7        42.500    22206411.932 6  92326910.936 6        36.250  
R07  21125647.080 8 113087266.957 8        49.500    21125650.100 7  87956768.362 7        46.000  
R08  20039364.208 8 107309890.920 8        51.000    20039364.928 8  83463271.965 8        49.750  
R14  22387996.532 7 119340621.456 7        47.000    22387998.932 7  92820530.204 7        43.500  
R15  22285475.932 7 119086838.694 7        46.750    22285477.012 7  92623135.179 7        42.250  
R22  23148518.448 5 123568346.467 5        33.250    23148519.868 4  96108749.829 4        29.000  
R24  20345452.288 8 108796308.663 8        52.500    20345454.708 8  84619350.938 8        48.000  
> 2021 11 07 02 00  0.0000000  0 18                     
G05  24303613.138 6 127716374.673 6        38.500    24303618.878 4  99519279.442 4        24.000  
G07  25328920.272 6 133104311.922 6        37.500    25328926.472 3 103717719.768 3        19.750  
G10  23005009.428 7 120892171.049 7        45.500    23005017.508 7  94201722.471 7        44.000  
G13  23092819.486 6 121353599.326 6        40.500    23092824.826 4  94561272.654 4        27.750  
G15  22126667.254 7 116276432.716 7        43.750    22126672.894 7  90605048.524 7        45.000  
G16  22149321.254 7 116395475.292 7        44.000    22149326.134 5  90697804.610 5        34.250  
G18  20280812.546 8 106576409.083 8        49.750    20280818.466 7  83046590.092 7        47.500  
G23  20798677.302 8 109297794.105 8        49.500    20798683.342 7  85167164.869 7        43.250  
G26  23301693.086 6 122451230.432 6        39.500    23301702.326 6  95416577.965 6        39.500  
G27  22393663.152 7 117679486.639 7        45.000    22393670.192 6  91698332.031 6        36.000  
G29  24149082.700 6 126904298.763 6        39.750    24149089.020 6  98886497.482 6        36.500  
R01  22157818.816 6 118446251.571 6        41.750    22157821.876 6  92124888.903 6        36.250  
R07  21152874.880 8 113233020.447 8        49.500    21152878.040 7  88070132.202 7        46.750  
R08  20021817.108 8 107215924.353 8        51.250    20021817.328 8  83390186.885 8        49.250  
R14  22420074.512 7 119511619.632 7        46.250    22420077.492 7  92953528.727 7        43.000  
R15  22278165.312 7 119047772.298 7        47.250    22278166.632 7  92592750.218 7        42.500  
R22  23189683.288 5 123788089.908 5        34.000    23189685.528 4  96279661.309 4        29.250  
R24  20317210.028 8 108645281.853 8        52.500    20317211.788 8  84501885.643 8        48.000  
> 2021 11 07 02 01  0.0000000  0 19                     
G05  24345402.958 6 127935984.103 6        38.500    24345408.798 4  99690403.645 4        24.000  
G07  25332046.852 6 133120739.799 6        36.250    25332053.192 3 103730520.717 3        20.500  
G08  25093524.114 5 131867366.949 5        33.500    25093531.554 2 102753822.777 2        17.250  
G10  22967354.588 7 120694292.770 7        45.500    22967362.668 7  94047531.667 7        45.000  
G13  23092964.026 6 121354362.759 6        40.000    23092970.266 4  94561867.539 4        27.000  
G15  22115401.554 7 116217231.859 7        44.000    22115407.674 7  90558918.003 7        45.500  
G16  22159793.834 7 116450510.396 7        45.000    22159799.054 5  90740689.092 5        33.750  
G18  20291474.326 8 106632436.707 8        50.500    20291480.186 7  83090247.977 7        47.250  
G23  20778839.762 8 109193547.770 8        50.250    20778845.802 7  85085933.977 7        43.250  
G26  23335639.506 6 122629622.190 6        39.250    23335648.926 6  95555584.497 6        39.500  
G27  22360943.632 7 117507544.104 7        44.000    22360950.392 5  91564350.829 5        35.500  
G29  24191550.240 6 127127467.717 6        39.250    24191556.840 5  99060395.324 5        35.750  
R01  22109444.316 7 118187662.188 7        42.500    22109447.916 6  91923763.889 6        38.000  
R07  21180598.940 8 113381425.881 8        49.000    21180601.440 7  88185558.639 7        46.500  
R08  20004855.368 8 107125094.759 8        51.750    20004855.848 8  83319541.666 8        49.000  
R14  22452568.412 7 119684826.571 7        46.000    22452570.652 7  93088245.167 7        43.250  
R15  22271457.652 7 119011931.108 7        47.750    22271459.292 6  92564873.750 6        41.500  
R22  23230965.948 5 124008450.970 5        33.500    23230966.068 5  96451053.124 5        30.000  
R24  20289225.648 8 108495638.193 8        52.500    20289228.208 7  84385496.152 7        47.750  
> 2021 11 07 02 02  0.0000000  0 19                     
G05  24387301.638 6 128156162.598 6        37.500    24387308.438 3  99861971.248 3        22.250  
G07  25335560.172 6 133139199.533 6        36.000    25335565.472 3 103744904.925 3        19.750  
G08  25052166.354 5 131650036.922 5        33.750    25052174.494 2 102584474.749 2        17.250  
G10  22929886.208 7 120497397.913 7        45.750    22929894.508 7  93894107.142 7        45.000  
G13  23093593.346 6 121357670.289 6        41.000    23093599.106 4  94564444.825 4        26.500  
G15  22104620.174 7 116160573.297 7        45.500    22104625.874 7  90514768.467 7        45.500  
G16  22170736.734 7 116508016.480 7        45.750    22170741.994 5  90785499.020 5        34.500  
G18  20302444.426 8 106690083.895 8        50.500    20302450.106 7  83135167.863 7        47.250  
G23  20759387.982 8 109091328.249 8        49.250    20759394.202 7  85006282.409 7        43.750  
G26  23369801.006 6 122809137.613 6        39.500    23369809.606 6  95695466.583 6        39.500  
G27  22328480.032 7 117336949.498 7        44.000    22328487.632 5  91431419.980 5        35.250  
G29  24234128.840 6 127351216.371 6        40.250    24234134.460 5  99234744.865 5        35.000  
R01  22061292.456 7 117930256.360 7        43.250    22061294.456 6  91723559.402 6        38.250  
R07  21208811.120 8 113532455.341 8        49.500    21208815.100 7  88303026.021 7        46.000  
R08  19988481.488 8 107037416.267 8        51.750    19988481.988 8  83251347.298 8        49.000  
R14  22485469.252 7 119860209.265 7        45.750    22485471.792 7  93224653.872 7        42.500  
R15  22265355.252 7 118979320.063 7        47.750    22265356.972 7  92539509.589 7        43.000  
R22  23272359.068 5 124229419.325 5        32.500    23272360.348 4  96622917.348 4        29.250  
R24  20261502.908 8 108347393.211 8        52.750    20261504.888 8  84270194.504 8        48.250  
> 2021 11 07 02 03  0.0000000  0 19                     
G05  24429305.698 6 128376890.538 6        38.250    24429310.178 3 100033967.073 3        22.500  
G07  25339457.272 6 133159686.433 6        37.000    25339463.792 3 103760868.776 3        20.500  
G08  25010874.334 5 131433046.205 5        33.750    25010882.834 2 102415391.096 2        16.250  
G10  22892608.268 7 120301500.446 7        45.750    22892616.648 7  93741459.818 7        45.500  
G13  23094707.026 6 121363522.701 6        40.750    23094712.446 4  94569005.148 4        27.500  
G15  22094324.214 7 116106467.554 7        44.500    22094329.914 7  90472608.173 7        45.500  
G16  22182148.114 7 116567982.736 7        44.250    22182153.314 5  90832225.974 5        33.250  
G18  20313721.126 8 106749345.114 8        50.250    20313727.026 7  83181345.434 7        47.000  
G23  20740323.702 8 108991143.397 8        50.500    20740329.662 7  84928216.309 7        43.750  
G26  23404170.204 6 122989753.108 6        40.000    23404179.564 6  95836205.893 6        38.250  
G27  22296277.572 7 117167721.176 7        44.500    22296284.472 6  91299553.767 6        36.500  
G29  24276813.620 6 127575529.809 6        39.000    24276820.640 5  99409534.534 5        35.750  
R01  22013364.456 7 117674064.984 7        42.500    22013368.836 6  91524299.504 6        37.750  
R07  21237510.640 8 113686081.084 8        49.500    21237513.500 7  88422512.706 7        45.250  
R08  19972699.308 8 106952901.367 8        52.000    19972699.448 8  83185613.493 8        49.500  
R14  22518773.792 7 120037734.634 7        45.750    22518775.612 7  93362729.131 7        43.250  
R15  22259856.892 7 118949944.441 7        47.500    22259859.272 7  92516661.900 7        43.500  
R22  23313865.208 5 124450984.652 5        33.000    23313867.508 4  96795245.842 4        26.500  
R24  20234044.648 8 108200562.959 8        52.000    20234047.288 8  84155993.201 8        48.500  
> 2021 11 07 02 04  0.0000000  0 19                     
G05  24471408.918 5 128598150.000 5        35.500    24471415.538 3 100206376.956 3        22.750  
G07  25343741.732 6 133182196.937 6        37.000    25343746.932 3 103778409.429 3        18.500  
G08  24969649.674 5 131216410.750 5        34.250    24969658.674 3 102246584.374 3        18.500  
G10  22855522.688 7 120106615.209 7        46.000    22855531.128 7  93589601.239 7        45.250  
G13  23096305.886 7 121371921.220 7        42.500    23096310.906 4  94575549.461 4        28.500  
G15  22084515.994 7 116054925.010 7        45.000    22084521.774 7  90432445.172 7        45.500  
G16  22194025.492 7 116630398.957 7        43.750    22194030.732 5  90880861.968 5        33.000  
G18  20325304.526 8 106810215.543 8        50.500    20325310.406 7  83228776.940 7        47.000  
G23  20721647.862 8 108893001.750 8        50.500    20721653.922 7  84851742.310 7        44.000  
G26  23438745.524 6 123171445.902 6        40.500    23438754.704 6  95977784.677 6        37.500  
G27  22264338.452 7 116999878.331 7        44.500    22264344.952 6  91168767.140 6        37.000  
G29  24319604.898 6 127800393.714 6        40.000    24319609.938 5  99584753.125 5        34.750  
R01  21965671.556 7 117419119.098 7        42.500    21965675.596 6  91326008.318 6        38.000  
R07  21266688.900 8 113842275.676 8        49.500    21266691.820 7  88543997.384 7        46.250  
R08  19957509.668 8 106871563.786 8        51.750    19957510.508 8  83122350.942 8        50.000  
R14  22552472.252 7 120217369.821 7        46.000    22552475.092 7  93502445.315 7        42.500  
R15  22254966.772 7 118923808.474 7        47.500    22254969.052 7  92496333.904 7        42.750  
R22  23355484.108 5 124673137.223 5        34.250    23355483.948 4  96968031.092 4        27.750  
R24  20206854.788 8 108055164.002 8        52.750    20206857.188 8  84042905.125 8        48.500  
> 2021 11 07 02 05  0.0000000  0 19                     
G05  24513611.418 6 128819922.720 6        38.500    24513617.358 3 100379186.829 3        22.500  
G07  25348410.172 6 133206726.907 6        36.750    25348416.132 3 103797523.664 3        18.500  
G08  24928495.654 5 131000147.595 5        34.500    24928505.034 2 102078067.673 2        17.250  
G10  22818633.188 7 119912756.927 7        46.750    22818641.148 7  93438542.877 7        45.250  
G13  23098388.326 6 121382866.324 6        41.750    23098393.666 4  94584078.105 4        26.750  
G15  22075197.454 7 116005956.319 7        45.250    22075203.474 7  90394287.763 7        45.750  
G16  22206367.852 7 116695255.517 7        44.500    22206372.132 5  90931399.535 5        34.000  
G18  20337193.146 8 106872690.400 8        51.250    20337198.926 7  83277458.642 7        46.750  
G23  20703362.782 8 108796911.524 8        50.500    20703368.382 7  84776866.822 7        43.500  
G26  23473521.344 6 123354193.110 6        39.500    23473529.704 6  96120185.077 6        36.000  
G27  22232665.792 7 116833440.167 7        45.250    22232672.932 6  91039075.067 6        36.000  
G29  24362496.418 6 128025794.627 6        39.500    24362502.858 5  99760390.198 5        34.000  
R01  21918217.296 7 117165450.139 7        42.500    21918221.616 6  91128710.292 6        38.750  
R07  21296341.520 8 114001011.604 8        49.500    21296345.120 7  88667458.662 7        46.000  
R08  19942916.208 8 106793415.370 8        52.000    19942916.608 8  83061568.858 8        49.750  
R14  22586560.312 7 120399081.831 7        45.750    22586563.412 6  93643776.818 6        41.500  
R15  22250682.172 7 118900916.368 7        47.500    22250684.172 7  92478528.946 7        42.500  
R22  23397208.084 5 124895867.343 5        32.000    23397208.024 4  97141265.580 4        26.500  
R24  20179935.268 8 107911213.154 8        53.000    20179937.668 8  83930943.367 8        48.000  
> 2021 11 07 02 06  0.0000000  0 19                     
G05  24555907.598 6 129042190.168 6        37.000    24555913.218 3 100552382.200 3        22.750  
G07  25353460.572 5 133233272.051 5        35.250    25353466.932 2 103818208.248 2        17.750  
G08  24887416.814 5 130784273.092 5        35.750    24887425.014 2 101909853.783 2        17.750  
G10  22781941.470 7 119719940.232 7        47.000    22781949.370 7  93288296.149 7        46.250  
G13  23100955.046 6 121396359.471 6        41.000    23100960.806 4  94594592.255 4        26.250  
G15  22066370.754 7 115959571.235 7        46.750    22066376.694 7  90358143.564 7        46.000  
G16  22219171.172 7 116762540.216 7        45.000    22219176.032 5  90983829.165 5        34.000  
G18  20349385.786 8 106936764.713 8        51.000    20349391.926 7  83327386.681 7        46.500  
G23  20685468.984 8 108702880.694 8        50.500    20685475.004 7  84703596.057 7        44.000  
G26  23508492.924 6 123537971.935 6        40.000    23508501.724 5  96263389.319 5        35.750  
G27  22201264.812 7 116668425.747 7        45.750    22201271.752 6  90910492.408 6        37.000  
G29  24405488.418 6 128251718.192 6        38.250    24405495.018 5  99936434.467 5        33.500  
R01  21871009.516 7 116913089.462 7        44.000    21871012.156 6  90932429.793 6        38.250  
R07  21326465.040 8 114162260.829 8        50.000    21326467.940 7  88792874.728 7        45.250  
R08  19928920.148 8 106718468.406 8        51.500    19928920.688 8  83003276.780 8        49.500  
R14  22621033.272 7 120582837.453 7        45.750    22621035.272 7  93786697.809 7        42.250  
R15  22247006.472 7 118881271.431 7        47.000    22247008.712 7  92463249.561 7        43.000  
R22  23439040.224 5 125119165.647 5        31.750    23439040.444 4  97314941.904 4        28.000  
R24  20153289.788 8 107768726.145 8        53.000    20153291.568 8  83820120.138 8        48.500  
> 2021 11 07 02 07  0.0000000  0 19                     
G05  24598294.716 6 129264933.874 6        38.500    24598299.676 3 100725948.704 3        22.750  
G07  25358894.812 5 133261826.705 5        35.250    25358899.832 3 103840458.722 3        18.250  
G08  24846414.796 5 130568803.175 5        35.000    24846422.776 3 101741955.169 3        18.500  
G10  22745450.570 7 119528179.101 7        46.750    22745458.410 7  93138871.931 7        47.000  
G13  23104006.986 6 121412397.770 6        41.750    23104013.106 4  94607089.640 4        28.250  
G15  22058036.994 7 115915779.070 7        46.250    22058042.854 7  90324019.805 7        45.750  
G16  22232435.172 7 116832241.937 7        44.250    22232440.152 5  91038142.180 5        33.500  
G18  20361882.326 8 107002432.832 8        50.500    20361888.206 7  83378556.644 7        46.500  
G23  20667968.664 8 108610916.330 8        50.250    20667974.684 7  84631935.527 7        44.250  
G26  23543657.364 6 123722758.714 6        39.500    23543666.464 6  96407379.007 6        37.500  
G27  22170137.534 7 116504853.711 7        46.000    22170145.394 6  90783033.687 6        36.750  
G29  24448576.678 6 128478151.012 6        37.000    24448583.598 5 100112875.588 5        33.000  
R01  21824050.076 7 116662067.844 7        42.750    21824053.396 6  90737190.817 6        37.500  
R07  21357051.460 8 114325994.669 8        49.250    21357055.000 7  88920223.285 7        46.000  
R08  19915524.028 8 106646734.079 8        52.000    19915525.108 8  82947483.434 8        49.500  
R14  22655882.292 7 120768602.891 7        44.500    22655884.092 6  93931181.979 6        41.500  
R15  22243938.632 7 118864876.096 7        47.500    22243940.252 7  92450497.621 7        43.500  
R22  23480973.084 5 125343021.094 5        32.250    23480975.524 4  97489051.575 4        27.250  
R24  20126920.248 8 107627719.370 8        53.250    20126922.568 7  83710448.206 7        47.750  
> 2021 11 07 02 08  0.0000000  0 19                     
G05  24640768.876 6 129488137.042 6        38.500    24640773.536 3 100899873.230 3        22.500  
G07  25364710.092 5 133292385.837 5        35.000    25364715.752 2 103864271.071 2        15.500  
G08  24805492.796 5 130353754.811 5        34.250    24805500.216 3 101574385.072 3        18.250  
G10  22709162.790 7 119337487.973 7        46.500    22709171.230 7  92990281.498 7        47.000  
G13  23107544.546 7 121430982.046 7        43.000    23107550.166 4  94621570.892 4        28.500  
G15  22050199.234 7 115874587.432 7        47.000    22050204.614 7  90291922.444 7        45.500  
G16  22246156.632 7 116904348.394 7        45.500    22246161.572 5  91094329.013 5        34.000  
G18  20374680.966 8 107069689.693 8        51.250    20374686.746 7  83430964.591 7        46.500  
G23  20650863.524 8 108521025.893 8        50.500    20650869.124 7  84561891.048 7        44.500  
G26  23579008.004 6 123908530.493 6        39.250    23579017.124 6  96552136.196 6        36.750  
G27  22139289.394 7 116342743.108 7        45.500    22139296.374 6  90656713.745 6        37.500  
G29  24491760.018 6 128705078.127 6        37.750    24491766.038 5 100289701.833 5        33.750  
R01  21777347.456 6 116412416.438 6        41.750    21777351.176 6  90543017.557 6        39.500  
R07  21388097.540 8 114492184.596 8        48.750    21388101.020 7  89049482.121 7        45.500  
R08  19902730.248 8 106578222.731 8        52.250    19902730.928 8  82894196.843 8        49.250  
R14  22691101.512 7 120956344.686 7        45.500    22691104.072 7  94077203.299 7        42.000  
R15  22241478.612 7 118851731.785 7        47.000    22241480.312 7  92440274.287 7        43.750  
R22  23523014.584 5 125567424.220 5        32.000    23523014.404 4  97663587.237 4        26.250  
R24  20100831.308 8 107488209.666 8        53.500    20100833.768 8  83601940.654 8        48.500  
> 2021 11 07 02 09  0.0000000  0 19                     
G05  24683326.676 6 129711780.673 6        39.500    24683332.176 4 101074140.933 4        25.000  
G07  25370905.032 6 133324943.446 6        36.000    25370912.092 2 103889640.661 2        17.750  
G08  24764653.936 5 130139143.929 5        34.750    24764660.816 3 101407155.852 3        19.750  
G10  22673082.070 7 119147880.907 7        46.250    22673090.110 7  92842535.783 7        47.250  
G13  23111564.926 7 121452110.462 7        42.000    23111570.586 4  94638034.607 4        28.250  
G15  22042857.054 7 115836006.055 7        46.000    22042862.714 7  90261859.037 7        45.750  
G16  22260333.352 7 116978847.072 7        44.500    22260338.352 5  91152379.920 5        34.000  
G18  20387780.584 8 107138529.693 8        51.000    20387786.604 7  83484606.142 7        46.250  
G23  20634153.264 8 108433216.121 8        50.500    20634159.744 7  84493467.856 7        44.250  
G26  23614542.644 6 124095263.877 6        39.000    23614551.304 6  96697642.676 6        37.500  
G27  22108722.694 7 116182112.641 7        45.750    22108729.474 6  90531547.151 6        36.750  
G29  24535033.978 6 128932485.582 6        39.000    24535040.838 5 100466902.399 5        34.250  
R01  21730907.636 7 116164165.891 7        43.750    21730911.096 6  90349933.869 6        39.000  
R07  21419597.380 8 114660801.385 8        49.000    21419599.440 7  89180628.506 7        45.500  
R08  19890539.648 8 106512943.979 8        51.250    19890540.608 8  82843424.486 8        49.500  
R14  22726686.272 7 121146028.630 7        45.250    22726689.132 6  94224735.190 6        41.250  
R15  22239627.412 7 118841839.678 7        47.500    22239629.212 7  92432580.430 7        44.500  
R22  23565153.964 5 125792364.723 5        33.000    23565153.784 4  97838540.865 4        26.500  
R24  20075024.948 8 107350213.191 8        53.000    20075027.668 8  83494610.077 8        48.750  
> 2021 11 07 02 10  0.0000000  0 19                     
G05  24725964.636 6 129935847.340 6        37.750    24725970.776 3 101248738.258 3        21.000  
G07  25377480.072 5 133359493.956 5        35.500    25377486.232 3 103916563.141 3        18.250  
G08  24723900.776 5 129924987.880 5        35.000    24723909.096 3 101240281.081 3        19.000  
G10  22637209.750 7 118959372.154 7        46.250    22637217.950 7  92695645.889 7        46.500  
G13  23116069.646 6 121475781.948 6        41.750    23116074.226 4  94656479.921 4        25.750  
G15  22036013.094 7 115800042.342 7        45.750    22036019.234 7  90233835.375 7        46.000  
G16  22274963.412 7 117055726.441 7        43.750    22274967.912 5  91212285.904 5        33.500  
G18  20401180.924 8 107208947.670 8        50.250    20401186.484 7  83539477.284 7        46.000  
G23  20617841.324 8 108347494.012 8        50.250    20617847.324 7  84426671.419 7        44.500  
G26  23650255.204 6 124282935.865 6        40.000    23650264.264 6  96843880.544 6        37.500  
G27  22078440.674 7 116022981.405 7        45.500    22078447.514 6  90407548.779 6        37.750  
G29  24578397.318 6 129160359.415 6        38.000    24578403.318 5 100644466.367 5        32.500  
R01  21684733.916 7 115917347.887 7        43.500    21684737.196 6  90157964.373 6        38.750  
R07  21451543.360 8 114831816.459 8        49.000    21451546.480 7  89313640.226 7        45.250  
R08  19878954.888 8 106450906.905 8        52.000    19878955.448 8  82795173.443 8        49.500  
R14  22762628.292 7 121337620.912 7        45.000    22762631.192 6  94373751.356 6        41.500  
R15  22238385.112 7 118835200.680 7        47.500    22238386.412 7  92427416.750 7        43.000  
R22  23607391.764 5 126017832.668 5        32.750    23607392.204 4  98013904.673 4        27.250  
R24  20049505.168 8 107213746.807 8        53.000    20049507.328 8  83388469.564 8        48.500  
> 2021 11 07 02 11  0.0000000  0 19                     
G05  24768680.516 6 130160319.070 6        38.250    24768686.156 3 101423651.278 3        22.750  
G07  25384432.272 6 133396030.113 6        36.250    25384437.772 2 103945032.870 2        17.250  
G08  24683237.436 5 129711303.713 5        33.500    24683245.796 3 101073773.946 3        19.000  
G10  22601549.510 7 118771975.445 7        47.250    22601556.990 7  92549622.518 7        46.750  
G13  23121057.666 6 121501993.322 6        41.750    23121062.286 4  94676904.362 4        26.250  
G15  22029669.674 7 115766703.567 7        47.000    22029674.854 7  90207857.131 7        46.000  
G16  22290042.992 7 117134971.503 7        45.000    22290047.772 5  91274035.301 5        33.500  
G18  20414880.084 8 107280937.678 8        51.750    20414885.704 7  83595573.401 7        46.000  
G23  20601927.044 8 108263865.590 8        50.500    20601933.164 7  84361506.434 7        44.750  
G26  23686141.922 6 124471522.777 6        38.500    23686151.102 6  96990831.347 6        37.750  
G27  22048448.034 7 115865367.835 7        46.000    22048454.794 6  90284733.021 6        38.000  
G29  24621846.156 6 129388684.623 6        38.000    24621852.116 5 100822382.071 5        32.750  
R01  21638835.796 7 115671992.117 7        43.750    21638838.136 6  89967132.138 6        38.500  
R07  21483933.280 8 115005199.996 8        49.000    21483935.860 7  89448494.086 7        45.000  
R08  19867977.068 8 106392120.085 8        52.250    19867977.628 8  82749450.361 8        49.250  
R14  22798922.308 7 121531086.758 7        45.000    22798924.888 6  94524224.703 6        41.250  
R15  22237750.792 7 118831814.208 7        47.000    22237753.112 7  92424782.836 7        43.750  
R22  23649723.024 5 126243818.228 5        31.500    23649727.244 4  98189671.128 4        28.000  
R24  20024274.848 8 107078825.995 8        53.000    20024276.828 8  83283531.153 8        48.500  
> 2021 11 07 02 12  0.0000000  0 19                     
G05  24811470.576 6 130385179.153 6        37.250    24811475.996 3 101598866.854 3        20.750  
G08  24642668.576 5 129498108.742 5        34.500    24642675.636 3 100907648.081 3        18.250  
G10  22566103.430 7 118585705.836 7        47.000    22566111.530 7  92404477.403 7        47.750  
G13  23126528.626 7 121530743.731 7        42.250    23126534.266 4  94699307.290 4        27.750  
G15  22023826.034 7 115735997.761 7        46.000    22023831.914 7  90183930.531 7        46.000  
G16  22305570.492 7 117216571.552 7        45.000    22305575.892 5  91337619.738 5        32.500  
G18  20428877.904 8 107354495.308 8        50.750    20428883.444 7  83652891.032 7        46.000  
G23  20586412.964 8 108182338.187 8        50.750    20586419.044 7  84297978.603 7        45.000  
G26  23722198.502 6 124661002.524 6        37.250    23722207.802 5  97138477.854 5        35.500  
G27  22018747.354 7 115709291.926 7        45.500    22018754.574 6  90163115.429 6        37.500  
G29  24665379.196 6 129617448.864 6        37.500    24665384.776 5 101000639.920 5        31.000  
R01  21593216.576 7 115428131.086 7        44.000    21593219.476 6  89777462.491 6        38.000  
R07  21516761.020 8 115180923.589 8        49.250    21516762.480 7  89585167.992 7        44.750  
R08  19857607.608 8 106336592.548 8        51.750    19857607.868 8  82706262.284 8        49.000  
R14  22835562.088 7 121726393.057 7        44.500    22835564.348 6  94676129.574 6        41.500  
R15  22237726.332 7 118831680.375 7        47.250    22237728.172 7  92424678.744 7        43.250  
R17  23991011.220 6 128380767.169 6        39.000    23991013.540 6  99851692.166 6        36.250  
R22  23692155.224 5 126470311.889 5        32.750    23692157.084 4  98365832.800 4        28.250  
R24  19999335.928 8 106945468.912 8        53.750    19999338.448 7  83179808.984 7        47.750  
> 2021 11 07 02 13  0.0000000  0 19                     
G05  24854330.076 6 130610408.641 6        37.000    24854334.576 3 101774370.312 3        19.500  
G08  24602194.676 5 129285418.686 5        34.500    24602202.776 3 100741915.623 3        20.000  
G10  22530874.410 8 118400575.115 8        48.250    22530882.430 8  92260219.729 8        48.500  
G13  23132482.146 7 121562027.753 7        42.000    23132487.406 4  94723684.457 4        26.500  
G15  22018484.754 7 115707928.980 7        46.250    22018490.494 7  90162058.776 7        46.250  
G16  22321543.632 7 117300509.997 7        45.000    22321548.552 5  91403026.298 5        33.000  
G18  20443171.944 8 107429612.821 8        51.250    20443177.704 7  83711424.163 7        45.750  
G23  20571299.364 8 108102915.651 8        51.000    20571305.324 7  84236090.928 7        45.000  
G26  23758420.422 6 124851349.714 6        38.000    23758429.982 5  97286800.293 5        34.500  
G27  21989342.914 7 115554770.309 7        45.750    21989349.954 7  90042708.968 7        43.500  
G29  24708991.116 6 129846635.635 6        36.250    24708997.796 5 101179226.966 5        31.250  
R01  21547882.700 7 115185793.058 7        43.500    21547884.940 6  89588977.375 6        38.750  
R07  21550017.240 8 115358955.269 8        48.750    21550020.320 7  89723637.086 7        45.000  
R08  19847847.648 8 106284329.487 8        52.000    19847848.388 8  82665613.247 8        49.000  
R14  22872539.308 7 121923503.028 7        44.750    22872541.868 6  94829437.299 6        40.750  
R15  22238309.172 7 118834795.224 7        47.500    22238311.252 7  92427101.414 7        43.500  
R17  23947150.944 6 128146060.795 6        37.750    23947153.364 6  99669142.781 6        37.000  
R22  23734676.684 5 126697301.593 5        31.000    23734680.004 4  98542380.252 4        25.000  
R24  19974693.108 8 106813690.056 8        53.750    19974694.988 7  83077314.324 7        47.500  
> 2021 11 07 02 14  0.0000000  0 19                     
G05  24897256.494 6 130835990.921 6        38.000    24897262.574 3 101950148.664 3        21.000  
G08  24561820.018 6 129073250.914 6        37.000    24561828.038 3 100576590.166 3        19.500  
G10  22495864.390 7 118216598.123 7        47.000    22495872.570 8  92116861.079 8        48.000  
G13  23138916.026 6 121595842.703 6        41.000    23138922.086 4  94750033.739 4        26.000  
G15  22013646.934 7 115682505.113 7        46.750    22013652.734 7  90142247.985 7        46.500  
G16  22337959.112 7 117386773.764 7        45.500    22337964.032 5  91470244.816 5        32.250  
G18  20457762.364 8 107506285.578 8        50.750    20457768.104 7  83771169.167 7        45.500  
G23  20556587.904 8 108025604.652 8        51.000    20556593.744 7  84175848.607 7        45.000  
G26  23794802.722 6 125042542.122 6        37.500    23794812.082 5  97435781.366 5        34.000  
G27  21960238.154 7 115401822.723 7        46.500    21960245.394 8  89923529.049 8        49.000  
G29  24752681.396 5 130076231.821 5        35.000    24752688.616 5 101358133.013 5        30.250  
R01  21502837.700 7 114945010.128 7        44.750    21502841.880 6  89401701.803 6        39.000  
R07  21583701.800 8 115539266.040 8        48.750    21583704.000 7  89863878.800 7        46.000  
R08  19838699.128 8 106235338.731 8        51.750    19838699.648 8  82627509.345 8        50.000  
R14  22909847.748 7 122122382.850 7        45.500    22909851.068 6  94984121.530 6        40.500  
R15  22239500.072 7 118841157.798 7        47.250    22239502.032 7  92432050.096 7        44.000  
R17  23903281.724 6 127911303.240 6        38.500    23903282.804 5  99486553.542 5        34.750  
R22  23777292.724 5 126924778.051 5        31.750    23777294.404 4  98719306.332 4        25.500  
R24  19950347.888 8 106683507.400 8        53.500    19950350.308 8  82976061.147 8        49.250  
> 2021 11 07 02 15  0.0000000  0 19                     
G05  24940248.774 6 131061909.462 6        36.500    24940252.514 3 102126188.970 3        19.500  
G08  24521548.738 6 128861623.429 6        36.750    24521557.218 3 100411685.683 3        21.250  
G10  22461076.952 7 118033788.624 7        47.250    22461084.712 7  91974412.161 7        47.500  
G13  23145832.246 6 121632185.617 6        41.750    23145837.566 4  94778352.899 4        25.500  
G15  22009312.934 7 115659731.016 7        47.000    22009318.514 7  90124501.940 7        46.250  
G16  22354814.292 7 117475349.368 7        44.500    22354819.132 5  91539264.757 5        31.500  
G18  20472647.664 8 107584507.824 8        51.000    20472653.264 7  83832121.572 7        45.750  
G23  20542278.664 8 107950410.715 8        50.000    20542284.664 7  84117255.943 7        45.250  
G26  23831342.662 6 125234556.512 6        37.500    23831351.042 5  97585402.942 5        33.250  
G27  21931436.854 7 115250467.998 7        47.250    21931443.554 8  89805590.309 8        49.250  
G29  24796448.136 5 130306222.912 5        34.750    24796454.796 5 101537346.806 5        31.000  
R01  21458090.980 7 114705812.790 7        44.000    21458095.580 6  89215659.480 6        40.250  
R07  21617804.296 8 115721826.135 8        48.750    21617808.036 7  90005869.978 7        45.250  
R08  19830162.488 8 106189626.400 8        52.250    19830162.968 8  82591955.314 8        49.500  
R14  22947483.328 7 122322997.842 7        44.750    22947485.748 6  95140155.353 6        40.750  
R15  22241297.692 8 118850765.632 8        48.000    22241299.892 7  92439522.855 7        43.500  
R17  23859404.004 6 127676506.158 6        40.500    23859405.724 6  99303933.556 6        37.250  
R22  23819997.804 5 127152731.377 5        33.000    23819996.624 4  98896603.268 4        26.500  
R24  19926304.408 9 106554937.311 9        54.250    19926306.708 8  82876062.199 8        48.500  
> 2021 11 07 02 16  0.0000000  0 19                     
G05  24983299.414 5 131288146.380 5        35.500    24983304.614 3 102302477.430 3        19.000  
G08  24481383.638 6 128650553.145 6        36.750    24481391.178 3 100247215.351 3        21.750  
G10  22426514.172 7 117852159.705 7        47.500    22426521.772 8  91832883.144 8        48.250  
G13  23153228.706 7 121671051.512 7        42.000    23153233.046 4  94808638.045 4        26.500  
G15  22005484.374 7 115639611.898 7        46.250    22005490.094 7  90108824.713 7        46.000  
G16  22372107.212 7 117566220.955 7        44.500    22372111.712 5  91610073.761 5        31.500  
G18  20487826.304 8 107664273.187 8        51.000    20487832.184 7  83894276.401 7        45.250  
G23  20528373.684 8 107877338.377 8        50.500    20528379.384 7  84060316.465 7        45.250  
G26  23868033.862 6 125427368.995 6        37.500    23868042.562 5  97735646.402 5        34.250  
G27  21902940.994 7 115100724.136 7        47.250    21902948.154 8  89688906.788 8        49.500  
G29  24840286.256 6 130536594.474 6        37.000    24840292.716 5 101716857.076 5        32.500  
R01  21413647.200 7 114468231.060 7        44.750    21413650.220 6  89030873.721 6        39.750  
R07  21652322.696 8 115906604.893 8        48.000    21652326.536 7  90149586.780 7        45.500  
R08  19822238.968 8 106147196.843 8        51.500    19822239.888 8  82558954.558 8        49.500  
R14  22985437.048 7 122525312.522 7        44.250    22985439.988 6  95297511.155 6        39.500  
R15  22243701.732 7 118863614.011 7        46.500    22243703.792 7  92449516.020 7        43.500  
R17  23815520.984 6 127441680.543 6        39.000    23815523.684 6  99121291.457 6        37.500  
R22  23862787.064 5 127381151.015 5        32.750    23862788.944 4  99074262.898 4        25.000  
R24  19902565.608 9 106427995.340 9        54.250    19902568.228 8  82777329.554 8        49.000  
> 2021 11 07 02 17  0.0000000  0 19                     
G05  25026409.014 6 131514685.360 6        36.750    25026413.734 3 102479001.239 3        21.750  
G08  24441328.718 6 128440057.852 6        36.250    24441335.278 3 100083193.114 3        21.000  
G10  22392178.692 8 117671725.335 8        48.750    22392186.532 8  91692284.966 8        49.000  
G13  23161103.286 6 121712435.954 6        40.750    23161108.466 4  94840885.662 4        26.000  
G15  22002162.254 7 115622152.970 7        46.500    22002167.854 7  90095220.357 7        46.500  
G16  22389832.612 7 117659373.145 7        44.500    22389837.892 5  91682659.873 5        32.250  
G18  20503298.184 8 107745576.264 8        51.500    20503303.684 7  83957629.437 7        45.000  
G23  20514872.944 8 107806392.989 8        50.000    20514878.844 7  84005034.355 7        45.250  
G26  23904872.702 6 125620956.795 6        39.000    23904881.122 6  97886493.991 6        36.000  
G27  21874756.016 7 114952610.201 7        46.750    21874762.856 8  89573493.335 8        49.250  
G29  24884194.194 6 130767332.474 6        37.500    24884200.394 5 101896652.829 5        31.250  
R01  21369509.900 7 114232295.857 7        44.500    21369513.960 6  88847368.593 6        39.000  
R07  21687250.076 8 116093572.086 8        48.250    21687253.196 7  90295005.714 7        44.750  
R08  19814929.468 8 106108055.423 8        52.500    19814930.468 8  82528511.240 8        49.500  
R14  23023703.828 7 122729292.469 7        45.500    23023705.908 6  95456162.173 6        40.000  
R15  22246713.012 7 118879699.711 7        47.500    22246714.452 7  92462027.135 7        43.000  
R17  23771635.204 6 127206839.145 6        40.500    23771636.744 6  98938637.034 6        37.000  
R22  23905663.784 5 127610027.147 5        32.500    23905665.724 4  99252277.542 4        26.000  
R24  19879134.888 8 106302699.411 8        53.500    19879137.248 8  82679877.168 8        48.750  
> 2021 11 07 02 18  0.0000000  0 19                     
G05  25069572.154 6 131741509.740 6        37.000    25069576.774 3 102655747.411 3        19.250  
G08  24401384.498 5 128230155.686 5        35.000    24401392.218 3  99919632.989 3        20.250  
G10  22358073.052 8 117492499.092 8        49.250    22358081.172 8  91552628.180 8        49.500  
G13  23169456.746 6 121756334.019 6        41.000    23169462.126 4  94875091.926 4        27.000  
G15  21999346.554 7 115607358.350 7        46.250    21999352.974 7  90083692.086 7        46.500  
G16  22407990.752 7 117754791.917 7        44.500    22407995.752 5  91757012.157 5        32.250  
G18  20519061.164 8 107828411.183 8        51.500    20519066.664 7  84022176.125 7        45.000  
G23  20501778.124 8 107737579.274 8        50.500    20501784.124 7  83951413.295 7        45.750  
G26  23941854.042 6 125815296.764 6        39.000    23941863.162 5  98037927.674 5        35.500  
G27  21846884.416 7 114806144.817 7        47.000    21846891.136 8  89459364.453 8        49.000  
G29  24928169.194 6 130998422.546 6        36.750    24928175.514 5 102076723.020 5        31.000  
R01  21325687.860 7 113998037.657 7        44.500    21325690.700 6  88665167.824 6        40.500  
R07  21722580.596 8 116282697.815 8        48.250    21722582.856 7  90442103.505 7        44.250  
R08  19808235.348 8 106072206.811 8        51.750    19808235.708 8  82500628.988 8        50.000  
R14  23062274.788 7 122934902.327 7        44.500    23062277.708 6  95616080.897 6        39.750  
R15  22250328.012 7 118899017.776 7        47.500    22250329.212 7  92477052.292 7        43.000  
R16  24093512.000 5 128703244.087 5        35.750    24093512.920 4 100102507.277 4        24.250  
R17  23727748.664 6 126971993.702 6        39.500    23727750.704 5  98755979.480 5        35.250  
R24  19856014.788 9 106179065.483 9        54.500    19856016.868 8  82583717.450 8        48.750  
> 2021 11 07 02 19  0.0000000  0 20                     
G05  25112786.894 6 131968602.656 6        37.000    25112791.934 3 102832702.809 3        20.500  
G08  24361556.778 5 128020863.346 5        35.000    24361565.278 3  99756548.080 3        20.000  
G10  22324199.392 8 117314493.418 8        48.250    22324207.552 8  91413922.493 8        49.250  
G13  23178287.746 6 121802739.740 6        41.000    23178292.766 4  94911252.226 4        26.250  
G15  21997039.074 7 115595231.439 7        45.250    21997044.834 7  90074242.561 7        46.250  
G16  22426576.672 7 117852459.881 7        44.500    22426581.472 5  91833117.053 5        32.250  
G18  20535114.304 8 107912771.150 8        51.000    20535119.724 7  84087911.159 7        45.000  
G23  20489089.524 8 107670900.728 8        49.250    20489095.664 7  83899455.996 7        45.500  
G26  23978973.962 6 126010364.724 6        38.250    23978983.362 5  98189928.633 5        34.750  
G27  21819329.696 7 114661345.622 7        47.750    21819336.856 8  89346533.921 8        49.000  
G29  24972209.354 6 131229850.161 6        36.000    24972215.094 4 102257056.129 4        29.500  
R01  21282184.220 7 113765485.627 7        45.250    21282187.060 6  88484294.049 6        39.500  
R07  21758307.876 7 116473950.257 7        47.250    21758311.216 7  90590855.398 7        45.750  
R08  19802155.688 8 106039653.242 8        51.750    19802156.728 8  82475309.562 8        49.750  
R14  23101145.608 7 123142106.089 7        43.250    23101148.868 6  95777239.294 6        39.500  
R15  22254546.712 7 118921561.591 7        47.500    22254548.312 7  92494586.372 7        43.500  
R16  24060449.060 6 128526624.778 6        38.500    24060449.800 4  99965136.668 4        25.000  
R17  23683863.584 6 126737155.924 6        39.250    23683865.864 6  98573327.881 6        37.750  
R22  23991665.860 5 128069107.940 5        30.750    23991665.940 4  99609340.045 4        25.000  
R24  19833208.348 9 106057109.728 9        54.000    19833210.668 8  82488862.983 8        49.250  
> 2021 11 07 02 20  0.0000000  0 19                     
G05  25156049.034 5 132195947.380 5        35.750    25156053.634 3 103009854.489 3        18.250  
G08  24321848.998 5 127812198.295 5        35.750    24321858.078 3  99593951.972 3        20.750  
G10  22290560.852 7 117137721.495 7        46.750    22290568.472 8  91276178.146 8        49.000  
G13  23187593.986 6 121851646.376 6        41.500    23187598.986 4  94949361.263 4        26.250  
G15  21995240.034 7 115585774.919 7        47.250    21995245.334 7  90066873.848 7        46.750  
G16  22445586.532 7 117952360.843 7        43.750    22445591.812 5  91910961.932 5        31.250  
G18  20551456.204 8 107998649.920 8        51.250    20551461.944 7  84154829.672 7        44.750  
G23  20476807.964 8 107606361.262 8        49.500    20476814.144 7  83849165.513 7        45.750  
G26  24016228.220 6 126206137.405 6        37.250    24016238.160 5  98342478.688 5        34.000  
G27  21792096.176 7 114518230.893 7        46.500    21792103.156 8  89235015.948 8        49.750  
G29  25016308.454 5 131461600.875 5        35.250    25016315.874 4 102437641.058 4        29.750  
R01  21239005.840 7 113534669.984 7        44.750    21239008.420 6  88304770.789 6        39.000  
R07  21794427.036 7 116667298.282 7        47.500    21794430.156 7  90741237.195 7        45.000  
R08  19796692.788 8 106010397.146 8        53.000    19796693.568 8  82452554.825 8        49.000  
R14  23140309.648 7 123350868.426 7        43.000    23140312.168 6  95939609.944 6        39.250  
R15  22259367.472 7 118947325.073 7        47.500    22259369.192 6  92514624.639 6        41.750  
R17  23639981.764 6 126502337.927 6        39.500    23639984.524 6  98390691.696 6        37.250  
R22  24034785.800 5 128299290.678 5        30.750    24034788.000 4  99788370.889 4        26.250  
R24  19810719.088 9 105936848.447 9        54.250    19810721.368 8  82395326.429 8        48.500  
> 2021 11 07 02 21  0.0000000  0 19                     
G05  25199356.532 6 132423527.742 6        36.000    25199360.612 3 103187189.746 3        18.500  
G08  24282264.720 6 127604179.395 6        36.500    24282273.100 3  99431859.333 3        21.750  
G10  22257159.572 7 116962196.854 7        47.000    22257167.472 8  91139405.717 8        49.250  
G13  23197374.966 6 121903048.445 6        40.000    23197380.406 4  94989414.880 4        27.250  
G15  21993948.694 7 115578992.481 7        46.500    21993954.654 7  90061588.836 7        46.500  
G16  22465019.512 7 118054479.406 7        44.500    22465024.332 5  91990534.810 5        32.000  
G18  20568086.184 8 108086041.780 8        51.250    20568092.044 7  84222927.230 7        44.500  
G23  20464934.504 8 107543965.091 8        49.500    20464940.384 7  83800545.131 7        45.750  
G26  24053612.380 6 126402591.893 6        38.750    24053621.780 5  98495560.055 5        34.000  
G27  21765186.256 8 114376819.300 8        48.000    21765193.436 8  89124825.102 8        50.500  
G29  25060469.074 5 131693660.596 5        34.500    25060475.454 4 102618466.722 4        29.750  
R01  21196156.720 7 113305620.874 7        44.750    21196160.820 6  88126621.511 6        40.250  
R07  21830931.956 7 116862711.347 7        47.000    21830934.836 7  90893225.119 7        44.500  
R08  19791845.708 8 105984441.212 8        52.500    19791846.228 8  82432366.885 8        49.000  
R14  23179758.708 7 123561154.165 7        43.000    23179761.648 6  96103165.430 6        40.250  
R15  22264789.812 7 118976301.406 7        47.000    22264791.512 7  92537161.798 7        43.000  
R17  23596106.864 6 126267552.775 6        38.500    23596109.124 6  98208080.989 6        38.000  
R22  24077984.340 5 128529888.780 5        31.000    24077986.060 3  99967724.761 3        22.000  
R24  19788549.648 9 105818298.616 9        54.250    19788551.708 8  82303121.011 8        48.750  
> 2021 11 07 02 22  0.0000000  0 19                     
G08  24242807.300 6 127396824.374 6        38.000    24242814.920 3  99270284.025 3        22.000  
G10  22223998.432 7 116787932.477 7        47.250    22224006.212 8  91003615.303 8        49.750  
G13  23207630.806 6 121956939.076 6        40.750    23207635.866 4  95031407.569 4        25.250  
G15  21993167.554 7 115574886.425 7        46.000    21993172.994 7  90058389.318 7        46.250  
G16  22484870.710 7 118158798.663 7        43.500    22484875.630 5  92071822.528 5        32.000  
G18  20585003.124 8 108174940.484 8        51.250    20585008.964 7  84292198.939 7        44.500  
G23  20453469.444 8 107483715.665 8        49.500    20453475.424 7  83753597.539 7        46.000  
G26  24091122.340 6 126599704.871 6        38.750    24091131.640 5  98649154.555 5        34.750  
G27  21738603.876 7 114237128.996 7        47.500    21738611.456 8  89015975.518 8        50.500  
G29  25104684.194 5 131926014.900 5        33.500    25104690.174 4 102799521.938 4        26.750  
R01  21153644.500 7 113078368.451 7        46.000    21153647.880 6  87949869.661 6        40.000  
R07  21867816.816 7 117060158.907 7        46.500    21867819.596 7  91046795.430 7        43.750  
R08  19787615.408 8 105961787.074 8        52.250    19787615.808 8  82414747.016 8        49.500  
R14  23219486.688 7 123772927.949 7        43.000    23219489.808 6  96267878.303 6        40.000  
R15  22270812.152 7 119008483.328 7        47.000    22270813.972 7  92562192.174 7        42.750  
R16  23963651.404 4 128009550.532 4        28.750    23963651.564 4  99562982.790 4        25.750  
R17  23552240.984 6 126032812.959 6        41.000    23552242.444 6  98025505.606 6        38.000  
R22  24121259.140 5 128760891.926 5        31.500    24121261.180 4 100147393.685 4        24.500  
R24  19766703.492 9 105701477.111 9        54.250    19766705.512 8  82212259.841 8        49.250  
> 2021 11 07 02 23  0.0000000  0 19                     
G08  24203478.200 6 127190151.622 6        37.500    24203485.940 3  99109240.308 3        22.250  
G10  22191079.312 7 116614941.833 7        47.250    22191087.192 8  90868817.429 8        50.250  
G13  23218357.646 6 122013311.568 6        40.250    23218363.486 4  95075334.174 4        26.000  
G15  21992896.074 7 115573459.265 7        45.750    21992901.674 7  90057277.264 7        46.250  
G16  22505137.710 7 118265302.230 7        43.500    22505142.670 5  92154812.296 5        31.750  
G18  20602205.504 8 108265340.240 8        51.250    20602211.564 7  84362640.297 7        44.250  
G23  20442413.484 8 107425616.711 8        49.250    20442419.444 7  83708325.640 7        46.250  
G26  24128752.160 6 126797453.658 6        38.250    24128761.580 5  98803244.472 5        33.750  
G27  21712353.476 8 114099178.663 8        48.500    21712360.256 8  88908481.756 8        50.750  
G29  25148952.514 5 132158650.402 5        34.250    25148959.634 4 102980796.283 4        27.750  
R01  21111473.160 7 112852942.683 7        45.250    21111477.140 6  87774538.525 6        41.250  
R07  21905075.236 7 117259610.078 7        46.000    21905078.656 7  91201924.123 7        43.750  
R08  19784001.512 8 105942435.634 8        52.500    19784001.992 8  82399695.902 8        49.250  
R14  23259488.408 7 123986154.970 7        42.750    23259490.728 6  96433721.453 6        40.250  
R15  22277433.372 7 119043862.916 7        47.000    22277435.032 7  92589709.617 7        42.000  
R16  23932203.984 5 127841554.038 5        30.500    23932202.744 4  99432319.041 4        27.000  
R17  23508384.924 6 125798132.132 6        40.750    23508386.364 6  97842976.065 6        38.250  
R22  24164608.040 5 128992289.889 5        30.250    24164609.200 4 100327369.646 4        24.500  
R24  19745183.652 9 105586400.848 9        54.750    19745185.912 8  82122756.088 8        48.250  
> 2021 11 07 02 24  0.0000000  0 19                     
G08  24164282.920 6 126984178.090 6        38.250    24164290.540 3  98948741.478 3        22.750  
G10  22158404.934 7 116443236.510 7        47.500    22158412.634 8  90735021.094 8        50.500  
G13  23229556.126 6 122072157.229 6        41.250    23229561.206 4  95121187.930 4        25.500  
G15  21993134.054 7 115574710.833 7        46.000    21993139.794 7  90058252.516 7        46.000  
G16  22525816.710 7 118373971.101 7        44.250    22525821.790 5  92239489.306 5        32.500  
G18  20619692.484 8 108357233.558 8        50.750    20619698.204 7  84434245.476 7        44.000  
G23  20431767.204 8 107369670.019 8        49.250    20431773.364 7  83664730.811 7        46.250  
G26  24166499.060 6 126995813.884 6        38.500    24166508.320 5  98957810.857 5        33.500  
G27  21686436.156 7 113962985.070 7        47.750    21686443.356 8  88802356.871 8        50.500  
G29  25193272.932 5 132391551.169 5        35.000    25193279.692 4 103162277.284 4        29.000  
R01  21069650.020 7 112629371.764 7        45.250    21069653.680 6  87600650.082 6        39.500  
R07  21942703.236 7 117461032.063 7        46.250    21942706.056 7  91358585.667 7        42.750  
R08  19781003.952 8 105926385.943 8        52.750    19781004.812 8  82387212.812 8        49.750  
R14  23299754.608 7 124200798.157 7        43.500    23299757.108 6  96600666.095 6        39.000  
R15  22284650.492 7 119082429.904 7        46.500    22284652.112 7  92619706.180 7        42.750  
R16  23901172.224 6 127675785.881 6        36.750    23901169.344 4  99303388.348 4        28.000  
R17  23464542.484 6 125563521.850 6        40.750    23464544.564 6  97660501.420 6        37.250  
R22  24208030.400 4 129224071.541 4        29.500    24208031.040 3 100507643.964 3        22.750  
R24  19723992.872 8 105473085.742 8        53.750    19723995.192 8  82034622.116 8        48.500  
> 2021 11 07 02 25  0.0000000  0 18                     
G08  24125223.960 6 126778922.881 6        38.500    24125232.180 3  98788802.359 3        22.000  
G10  22125977.454 8 116272829.672 8        48.250    22125985.254 8  90602236.574 8        50.750  
G13  23241222.666 6 122133468.474 6        40.000    23241228.586 4  95168962.920 4        25.250  
G15  21993882.234 7 115578643.029 7        45.750    21993888.334 7  90061316.579 7        46.250  
G16  22546904.430 7 118484788.162 7        43.750    22546909.470 5  92325840.250 5        32.500  
G18  20637462.244 8 108450614.495 8        50.750    20637467.944 7  84507009.840 7        43.750  
G23  20421530.964 8 107315878.661 8        49.750    20421536.944 7  83622815.476 7        46.500  
G26  24204358.220 6 127194762.761 6        38.250    24204367.360 5  99112835.909 5        32.750  
G27  21660857.636 8 113828566.620 8        48.000    21660864.596 8  88697615.232 8        50.750  
G29  25237640.452 5 132624703.680 5        34.500    25237647.932 4 103343954.428 4        29.500  
R01  21028179.580 7 112407686.060 7        46.500    21028182.360 6  87428227.883 6        40.500  
R07  21980692.676 7 117664394.761 7        46.500    21980695.456 7  91516756.643 7        42.250  
R08  19778623.772 8 105913638.005 8        52.000    19778624.192 8  82377297.763 8        49.750  
R14  23340280.268 7 124416822.201 7        43.250    23340281.768 6  96768684.751 6        39.750  
R15  22292462.812 7 119124175.497 7        46.000    22292464.152 7  92652174.964 7        42.500  
R16  23870561.584 6 127512276.385 6        36.500    23870560.064 4  99176214.311 4        27.750  
R17  23420715.304 6 125328996.183 6        40.750    23420717.004 6  97478092.581 6        39.250  
R24  19703134.832 9 105361547.613 9        54.250    19703137.032 8  81947870.233 8        48.750  
> 2021 11 07 02 26  0.0000000  0 18                     
G08  24086304.960 6 126574402.857 6        37.500    24086313.280 3  98629436.139 3        22.000  
G10  22093799.394 8 116103732.671 8        48.000    22093807.254 8  90470472.685 8        50.750  
G13  23253357.466 6 122197235.894 6        40.000    23253363.126 4  95218651.804 4        27.000  
G15  21995140.474 7 115585254.949 7        45.250    21995146.134 7  90066468.732 7        46.250  
G16  22568397.870 7 118597735.427 7        44.250    22568402.650 5  92413851.086 5        32.000  
G18  20655513.664 8 108545475.376 8        51.000    20655519.364 7  84580927.404 7        43.500  
G23  20411705.564 8 107264243.841 8        49.500    20411711.204 7  83582580.566 7        46.500  
G26  24242323.540 6 127394275.879 6        37.000    24242332.640 5  99268300.652 5        31.500  
G27  21635619.016 8 113695939.911 8        48.250    21635626.476 8  88594269.740 8        51.250  
G29  25282053.092 5 132858092.701 5        34.250    25282060.732 4 103525815.882 4        29.500  
R01  20987066.320 7 112187912.979 7        46.500    20987069.200 6  87257293.280 6        40.000  
R07  22019039.536 7 117869665.290 7        46.750    22019042.616 7  91676411.498 7        43.500  
R08  19776859.232 8 105904189.220 8        52.750    19776859.912 8  82369948.717 8        49.750  
R14  23381057.768 7 124634190.406 7        43.500    23381060.728 6  96937748.831 6        39.750  
R15  22300867.452 7 119169088.146 7        46.500    22300868.932 7  92687107.022 7        42.250  
R16  23840379.124 6 127351052.329 6        37.750    23840378.504 4  99050817.868 4        26.500  
R17  23376905.388 6 125094567.112 6        40.500    23376908.168 6  97295758.877 6        38.000  
R24  19682612.052 9 105251802.588 9        54.500    19682614.092 8  81862513.000 8        49.250  
> 2021 11 07 02 27  0.0000000  0 18                     
G08  24047529.520 6 126370638.678 6        38.250    24047537.880 3  98470658.888 3        22.500  
G10  22061873.014 8 115935960.167 8        48.000    22061881.214 8  90339740.898 8        51.000  
G13  23265958.466 6 122263452.423 6        40.250    23265963.746 4  95270249.105 4        26.000  
G15  21996909.454 7 115594548.702 7        45.750    21996914.814 7  90073710.624 7        46.500  
G16  22590292.870 7 118712796.026 7        43.000    22590298.030 5  92503508.683 5        31.250  
G18  20673846.004 8 108641811.801 8        51.000    20673851.624 7  84655994.735 7        43.750  
G23  20402290.564 8 107214769.826 8        50.750    20402296.584 7  83544029.393 7        47.000  
G26  24280393.440 5 127594332.310 5        35.750    24280402.920 5  99424188.708 5        32.750  
G27  21610726.076 8 113565124.782 8        48.500    21610733.436 8  88492335.875 8        51.500  
G29  25326507.972 5 133091705.615 5        34.250    25326515.412 4 103707851.743 4        28.500  
R01  20946316.844 7 111970084.042 7        45.750    20946319.964 6  87087870.807 6        40.000  
R07  22057736.196 7 118076814.006 7        46.500    22057739.736 7  91837527.163 7        43.500  
R08  19775710.772 8 105898040.147 8        52.500    19775711.512 8  82365166.113 8        49.750  
R14  23422081.624 7 124852869.348 7        43.000    23422084.304 6  97107832.388 6        39.000  
R15  22309863.952 7 119217158.886 7        46.500    22309864.852 7  92724495.382 7        42.000  
R16  23810631.824 6 127192144.864 6        38.500    23810632.244 4  98927223.207 4        27.250  
R17  23333119.028 6 124860250.214 6        41.000    23333121.488 6  97113512.422 6        38.750  
R24  19662427.552 9 105143868.574 9        54.500    19662430.192 8  81778564.330 8        49.000  
> 2021 11 07 02 28  0.0000000  0 17                     
G08  24008902.340 6 126167647.817 6        40.000    24008909.880 3  98312484.215 3        22.500  
G10  22030201.234 8 115769523.529 8        49.000    22030209.674 8  90210050.039 8        51.500  
G13  23279023.006 6 122332108.694 6        39.750    23279028.746 4  95323747.494 4        24.000  
G15  21999187.354 7 115606522.944 7        46.000    21999193.354 7  90083041.207 7        46.250  
G16  22612586.970 7 118829950.515 7        43.500    22612591.810 5  92594797.869 5        32.000  
G18  20692457.482 8 108739616.235 8        50.750    20692463.202 7  84732205.977 7        43.500  
G23  20393287.644 8 107167457.457 8        50.500    20393293.444 7  83507162.618 7        46.500  
G26  24318562.278 5 127794907.991 5        35.500    24318571.358 5  99580481.391 5        33.500  
G27  21586180.476 8 113436137.850 8        48.000    21586187.816 8  88391826.582 8        51.250  
R01  20905936.544 7 111754227.237 7        46.250    20905939.544 6  86919982.210 6        40.250  
R07  22096778.916 7 118285808.747 7        47.000    22096781.156 7  92000078.620 7        43.000  
R08  19775178.092 8 105895186.728 8        52.500    19775178.572 8  82362946.799 8        49.750  
R14  23463343.424 6 125072822.326 6        41.500    23463347.084 6  97278906.840 6        38.000  
R15  22319447.112 7 119268375.532 7        45.500    22319449.492 7  92764330.551 7        42.750  
R16  23781323.064 6 127035580.336 6        37.750    23781322.084 4  98805450.843 4        27.250  
R17  23289355.208 6 124626058.495 6        41.500    23289356.548 6  96931363.293 6        38.750  
R24  19642585.092 9 105037761.186 9        54.500    19642587.652 8  81696036.362 8        49.000  
> 2021 11 07 02 29  0.0000000  0 17                     
G08  23970425.442 6 125965449.116 6        39.750    23970433.302 4  98154926.780 4        26.000  
G10  21998786.014 8 115604434.956 8        48.750    21998793.914 8  90081409.623 8        51.500  
G13  23292550.366 6 122403194.549 6        40.500    23292555.806 4  95379139.070 4        27.000  
G15  22001976.194 7 115621177.068 7        47.000    22001981.834 7  90094460.019 7        46.000  
G16  22635275.630 7 118949180.462 7        43.750    22635280.330 5  92687704.304 5        31.500  
G18  20711346.902 8 108838882.052 8        50.500    20711352.942 7  84809555.964 7        43.500  
G23  20384695.926 8 107122308.289 8        50.000    20384701.766 7  83471981.459 7        46.750  
G26  24356824.498 5 127995979.768 5        34.750    24356834.158 5  99737160.610 5        33.250  
G27  21561986.258 8 113308996.552 8        48.000    21561993.578 8  88292755.439 8        51.500  
R01  20865929.984 7 111540370.866 7        47.000    20865933.484 6  86753649.504 6        41.750  
R07  22136159.736 7 118496618.090 7        47.000    22136161.596 7  92164041.443 7        42.750  
R08  19775259.852 8 105895625.727 8        52.250    19775260.772 8  82363288.249 8        49.500  
R14  23504839.084 6 125294013.296 6        41.250    23504841.424 6  97450944.203 6        38.000  
R15  22329618.492 7 119322725.900 7        45.500    22329620.432 7  92806603.072 7        42.000  
R16  23752457.344 6 126881387.477 6        38.750    23752456.264 4  98685523.098 4        26.000  
R17  23245616.288 6 124392005.784 6        41.000    23245618.608 6  96749322.289 6        38.500  
R24  19623087.192 9 104933497.125 9        54.750    19623089.692 8  81614942.091 8        49.000  
> 2021 11 07 02 30  0.0000000  0 17                     
G08  23932102.282 6 125764060.224 6        40.000    23932109.962 4  97998000.364 4        25.000  
G10  21967629.594 8 115440706.054 8        48.500    21967637.214 8  89953828.677 8        51.500  
G13  23306538.066 6 122476699.775 6        39.250    23306543.066 4  95436415.849 4        26.500  
G15  22005274.314 7 115638508.868 7        46.000    22005280.094 7  90107965.328 7        46.500  
G16  22658355.630 7 119070466.568 7        44.500    22658360.290 5  92782212.925 5        31.750  
G18  20730513.462 8 108939601.951 8        50.500    20730519.302 7  84888038.996 7        43.250  
G23  20376515.926 8 107079323.037 8        50.500    20376521.906 7  83438486.467 7        47.000  
G26  24395177.518 6 128197524.068 6        36.000    24395186.218 5  99894208.069 5        31.750  
G27  21538146.438 8 113183717.665 8        48.000    21538153.818 8  88195135.529 8        51.500  
R01  20826302.764 7 111328543.388 7        46.250    20826306.564 6  86588894.820 6        41.250  
R07  22175873.376 7 118709210.186 7        47.250    22175876.396 7  92329390.852 7        42.500  
R08  19775956.132 8 105899353.533 8        52.250    19775956.672 8  82366187.658 8        50.000  
R14  23546560.264 7 125516406.142 7        43.500    23546560.944 6  97623916.361 6        37.500  
R15  22340372.512 7 119380196.657 7        45.500    22340375.212 7  92851302.541 7        42.500  
R16  23724040.944 6 126729592.724 6        39.000    23724040.764 4  98567460.564 4        26.250  
R17  23201906.728 6 124158105.579 6        41.250    23201908.168 6  96567399.941 6        37.750  
R24  19603936.772 9 104831091.705 9        54.500    19603938.872 8  81535293.428 8        49.500  
> 2021 11 07 02 31  0.0000000  0 17                     
G08  23893937.102 6 125563500.219 6        39.750    23893944.722 4  97841719.865 4        24.500  
G10  21936733.754 7 115278348.820 7        47.750    21936741.814 8  89827316.572 8        51.750  
G13  23320983.766 6 122552613.737 6        39.500    23320988.766 4  95495569.591 4        25.000  
G15  22009082.014 7 115658516.696 7        45.750    22009087.554 7  90123555.847 7        46.250  
G16  22681822.670 7 119193789.023 7        42.500    22681827.930 5  92878308.339 5        31.000  
G18  20749955.062 8 109041769.292 8        50.500    20749961.102 7  84967649.903 7        43.000  
G23  20368748.326 8 107038502.715 8        49.750    20368754.086 7  83406678.432 7        47.000  
G26  24433615.278 5 128399517.875 5        35.750    24433624.278 5 100051605.823 5        31.250  
G27  21514664.678 8 113060318.465 8        48.500    21514671.758 8  88098980.310 8        52.000  
R01  20787060.684 7 111118772.595 7        46.750    20787064.644 6  86425739.784 6        41.500  
R07  22215914.612 7 118923552.823 7        46.000    22215917.612 7  92496101.778 7        43.500  
R08  19777265.752 8 105906365.252 8        52.000    19777266.212 8  82371641.227 8        49.750  
R14  23588497.784 6 125739964.860 6        41.500    23588500.664 6  97797795.275 6        37.250  
R15  22351709.592 7 119440774.426 7        45.000    22351711.812 6  92898418.573 6        41.000  
R16  23696077.984 6 126580222.979 6        37.000    23696077.904 4  98451284.133 4        24.500  
R17  23158227.668 6 123924372.019 6        41.250    23158229.748 6  96385607.180 6        39.000  
R24  19585137.212 9 104730561.541 9        54.250    19585139.472 8  81457103.309 8        48.750  
> 2021 11 07 02 32  0.0000000  0 17                     
G08  23855932.542 6 125363788.218 6        38.000    23855940.282 4  97686100.126 4        24.500  
G10  21906101.974 8 115117375.709 8        48.750    21906109.694 8  89701883.006 8        52.250  
G13  23335886.646 6 122630926.779 6        39.500    23335891.546 4  95556592.717 4        25.250  
G15  22013398.314 7 115681198.354 7        45.500    22013403.654 7  90141229.868 7        46.500  
G16  22705674.650 7 119319129.504 7        43.000    22705679.750 5  92975976.212 5        31.000  
G18  20769671.422 8 109145377.771 8        50.000    20769677.142 7  85048383.766 7        43.000  
G23  20361392.826 8 106999848.700 8        51.000    20361398.526 7  83376558.425 7        47.250  
G26  24472135.398 6 128601938.878 6        37.500    24472144.018 5 100209336.443 5        31.500  
G27  21491543.498 8 112938816.559 8        49.000    21491550.738 8  88004303.504 8        52.500  
R01  20748209.244 7 110911087.220 7        46.500    20748213.004 7  86264206.746 7        42.250  
R07  22256276.972 7 119139615.380 7        45.500    22256279.692 7  92664150.415 7        42.500  
R08  19779186.752 8 105916656.318 8        52.250    19779187.692 8  82379645.381 8        49.500  
R14  23630649.684 7 125964654.473 7        43.000    23630652.084 6  97972553.763 6        37.250  
R15  22363624.732 7 119504445.794 7        45.250    22363626.412 6  92947940.738 6        41.500  
R16  23668574.924 5 126433305.365 5        34.250    23668573.804 3  98337014.890 3        22.500  
R17  23114581.828 6 123690820.050 6        41.500    23114584.548 6  96203955.646 6        38.250  
R24  19566691.332 9 104631923.021 9        54.250    19566693.692 8  81380384.448 8        49.250  
> 2021 11 07 02 33  0.0000000  0 17                     
G08  23818094.022 6 125164944.613 6        38.250    23818102.302 4  97531157.092 4        24.250  
G10  21875735.076 8 114957799.983 8        48.500    21875743.336 8  89577538.319 8        52.500  
G13  23351243.726 6 122711628.919 6        40.250    23351249.286 4  95619477.511 4        26.500  
G15  22018222.734 7 115706553.309 7        45.500    22018228.874 7  90160986.980 7        46.500  
G16  22729906.510 7 119446468.646 7        44.000    22729911.090 4  93075201.501 4        29.500  
G18  20789660.842 8 109250422.049 8        50.500    20789666.402 7  85130236.453 7        43.000  
G23  20354449.546 8 106963362.834 8        50.500    20354455.586 7  83348127.888 7        47.250  
G26  24510731.178 5 128804765.605 5        34.500    24510740.678 4 100367383.201 4        28.250  
G27  21468786.998 8 112819230.329 8        48.500    21468794.238 8  87911119.424 8        52.500  
R01  20709753.284 7 110705516.958 7        47.500    20709756.744 7  86104318.786 7        42.250  
R07  22296955.292 7 119357367.867 7        46.000    22296957.712 7  92833513.456 7        43.000  
R08  19781720.712 8 105930222.814 8        52.000    19781721.332 8  82390197.117 8        50.000  
R14  23673007.164 7 126190441.113 7        42.500    23673009.204 6  98148165.482 6        38.000  
R15  22376116.872 7 119571197.491 7        46.000    22376118.312 6  92999858.723 6        41.500  
R16  23641537.384 6 126288868.521 6        36.250    23641535.964 4  98224675.089 4        24.000  
R17  23070975.508 7 123457466.125 7        43.000    23070976.228 6  96022458.127 6        37.500  
R24  19548602.232 8 104535193.624 8        53.250    19548604.732 8  81305150.476 8        49.000  
> 2021 11 07 02 34  0.0000000  0 17                     
G08  23780423.742 6 124966984.058 6        38.250    23780431.582 4  97376902.114 4        24.750  
G10  21845636.096 8 114799628.980 8        48.250    21845644.296 8  89454288.214 8        52.500  
G13  23367052.206 6 122794705.341 6        39.250    23367057.666 4  95684212.351 4        25.250  
G15  22023555.174 7 115734573.904 7        44.500    22023560.594 7  90182821.212 7        46.000  
G16  22754513.830 7 119575783.629 7        42.750    22754518.910 5  93175966.404 5        30.500  
G18  20809921.022 8 109356890.981 8        51.000    20809926.602 7  85213199.258 7        43.000  
G23  20347918.306 8 106929041.091 8        49.750    20347924.266 7  83321383.681 7        47.250  
G26  24549399.618 5 129007970.964 5        34.250    24549409.258 4 100525725.023 4        29.000  
G27  21446397.498 8 112701572.355 8        48.500    21446404.598 8  87819437.894 8        52.500  
R01  20671696.664 7 110502084.734 7        47.000    20671700.264 6  85946093.759 6        41.500  
R07  22337941.752 7 119576773.759 7        44.750    22337945.012 7  93004162.467 7        43.500  
R08  19784863.452 8 105947053.139 8        51.750    19784864.112 8  82403287.376 8        49.750  
R14  23715561.484 6 126417284.350 6        41.750    23715564.264 6  98324599.034 6        37.750  
R15  22389181.132 7 119641009.959 7        46.250    22389182.892 7  93054157.323 7        42.250  
R16  23614966.364 6 126146934.331 6        37.500    23614965.384 4  98114281.884 4        26.500  
R17  23027406.868 7 123224320.488 7        43.250    23027407.928 6  95841122.633 6        38.500  
R24  19530872.972 9 104440384.894 9        54.500    19530875.032 8  81231410.359 8        49.000  
> 2021 11 07 02 35  0.0000000  0 17                     
G08  23742925.622 6 124769927.472 6        39.000    23742932.622 4  97223351.544 4        25.000  
G10  21815807.576 8 114642876.206 8        49.250    21815815.396 8  89332143.228 8        52.750  
G13  23383310.526 6 122880145.197 6        39.250    23383315.966 4  95750788.852 4        25.000  
G15  22029393.694 7 115765258.225 7        44.250    22029399.694 7  90206731.072 7        45.750  
G16  22779494.390 7 119707055.894 7        42.750    22779499.450 4  93278256.446 4        29.750  
G18  20830451.642 8 109464779.570 8        50.250    20830457.082 7  85297268.279 7        43.000  
G23  20341799.386 8 106896885.403 8        50.000    20341805.346 7  83296327.309 7        47.500  
G26  24588137.196 5 129211534.148 5        33.250    24588146.796 5 100684345.637 5        30.250  
G27  21424378.358 8 112585861.208 8        48.750    21424385.498 8  87729273.365 8        52.500  
R01  20634046.304 8 110300820.569 8        48.000    20634049.844 7  85789554.983 7        42.000  
R07  22379231.912 7 119797804.155 7        44.500    22379235.172 7  93176074.991 7        43.500  
R08  19788614.988 8 105967142.682 8        53.000    19788615.688 8  82418912.583 8        50.000  
R14  23758308.984 6 126645150.711 6        40.250    23758312.164 6  98501828.339 6        37.500  
R15  22402816.592 7 119713869.697 7        46.250    22402817.152 6  93110826.006 6        41.250  
R16  23588869.724 6 126007530.641 6        39.000    23588868.584 4  98005856.851 4        25.250  
R17  22983880.528 7 122991400.391 7        42.500    22983882.448 6  95659962.604 6        40.000  
R24  19513505.732 9 104347515.265 9        54.500    19513507.912 8  81159178.423 8        49.500  
> 2021 11 07 02 36  0.0000000  0 17                     
G08  23705602.042 6 124573794.803 6        38.750    23705610.262 4  97070520.903 4        26.250  
G10  21786250.476 8 114487554.208 8        50.000    21786258.416 8  89211113.131 8        52.750  
G13  23400017.284 6 122967937.969 6        40.000    23400022.244 4  95819198.797 4        24.000  
G15  22035739.334 7 115798603.621 7        45.250    22035745.254 7  90232714.504 7        46.000  
G16  22804843.588 7 119840265.202 7        43.250    22804848.448 5  93382055.878 5        30.250  
G18  20851251.262 8 109574081.928 8        49.500    20851256.762 7  85382438.945 7        42.500  
G23  20336092.726 8 106866896.526 8        50.250    20336098.566 7  83272959.359 7        47.500  
G26  24626937.016 5 129415433.492 5        34.750    24626947.536 5 100843228.208 5        30.500  
G27  21402732.998 8 112472114.549 8        49.000    21402740.078 8  87640639.600 8        52.500  
R01  20596806.844 7 110101752.252 7        47.750    20596809.964 7  85634724.101 7        42.500  
R07  22420819.372 7 120020428.230 7        43.750    22420822.332 7  93349227.015 7        42.750  
R08  19792974.628 8 105990485.229 8        52.750    19792974.788 8  82437067.908 8        49.500  
R14  23801241.044 6 126874005.580 6        40.750    23801244.524 6  98679826.444 6        37.500  
R15  22417018.172 7 119789761.432 7        46.500    22417019.392 6  93169852.905 6        41.500  
R16  23563251.364 6 125870683.838 6        39.500    23563250.184 4  97899420.454 4        27.500  
R17  22940397.928 7 122758721.631 7        42.250    22940399.968 6  95478990.249 6        40.000  
R24  19496504.612 9 104256601.842 9        54.500    19496506.472 8  81088467.983 8        49.000  
> 2021 11 07 02 37  0.0000000  0 17                     
G08  23668458.684 6 124378604.693 6        39.750    23668465.824 4  96918424.689 4        24.250  
G10  21756968.096 8 114333673.588 8        50.000    21756976.036 8  89091206.184 8        53.250  
G13  23417169.284 6 123058070.648 6        39.500    23417174.124 3  95889432.056 3        22.250  
G15  22042590.374 7 115834604.808 7        45.250    22042595.634 7  90260767.377 7        46.000  
G16  22830557.648 7 119975391.779 7        43.000    22830562.288 5  93487349.283 5        30.750  
G18  20872318.122 8 109684790.438 8        49.750    20872323.822 7  85468705.321 7        42.250  
G23  20330797.846 8 106839073.244 8        50.500    20330804.006 7  83251278.892 7        47.750  
G26  24665798.016 6 129619645.763 6        36.750    24665807.376 5 101002354.593 5        32.000  
G27  21381464.438 8 112360348.059 8        49.250    21381471.638 8  87553548.827 8        53.000  
R01  20559982.504 7 109904906.299 7        47.500    20559985.664 7  85481621.732 7        42.500  
R07  22462700.192 7 120244614.172 7        44.000    22462703.092 7  93523593.824 7        42.250  
R08  19797939.388 8 106017072.196 8        53.000    19797939.568 8  82457746.661 8        49.750  
R14  23844354.644 6 127103813.101 6        41.750    23844356.124 6  98858565.498 6        36.750  
R15  22431784.012 7 119868667.191 7        46.000    22431785.992 7  93231224.049 7        42.000  
R16  23538116.844 6 125736418.238 6        38.750    23538115.544 4  97794991.691 4        26.750  
R17  22896964.048 7 122526299.193 7        42.250    22896966.408 6  95298217.258 6        40.000  
R24  19479871.632 9 104167659.093 9        55.500    19479873.732 8  81019290.285 8        49.000  
> 2021 11 07 02 38  0.0000000  0 17                     
G08  23631497.964 6 124184375.839 6        39.250    23631505.764 4  96767077.540 4        24.750  
G10  21727961.836 8 114181245.028 8        50.000    21727969.816 8  88972430.714 8        53.250  
G13  23434763.524 6 123150529.867 6        40.000    23434768.584 4  95961478.193 4        25.000  
G15  22049945.394 7 115873256.114 7        45.250    22049951.354 7  90290885.274 7        46.000  
G16  22856631.648 7 120112412.995 7        43.500    22856636.788 5  93594119.058 5        31.000  
G18  20893651.262 8 109796897.541 8        49.750    20893657.202 6  85556061.507 6        41.500  
G23  20325915.086 8 106813414.130 8        51.000    20325921.206 7  83231284.777 7        47.750  
G26  24704713.636 5 129824147.759 5        34.750    24704723.256 5 101161706.775 5        31.750  
G27  21360575.638 8 112250577.410 8        49.250    21360583.098 8  87468013.256 8        53.000  
R01  20523578.104 7 109710308.648 7        47.000    20523582.124 7  85330268.029 7        42.500  
R07  22504865.232 7 120470329.686 7        43.500    22504868.192 7  93699150.329 7        42.500  
R08  19803508.368 8 106046893.665 8        53.000    19803508.728 8  82480941.146 8        49.750  
R14  23887636.524 6 127334537.017 6        41.000    23887638.884 6  99038017.346 6        36.000  
R15  22447111.172 7 119950569.305 7        46.000    22447112.612 7  93294925.708 7        42.000  
R16  23513469.584 6 125604757.835 6        39.500    23513468.604 4  97692589.197 4        28.000  
R17  22853580.788 7 122294147.828 7        43.500    22853583.708 6  95117655.100 6        40.000  
R24  19463610.452 8 104080702.477 8        53.750    19463612.552 8  80951657.366 8        49.250  
> 2021 11 07 02 39  0.0000000  0 17                     
G08  23594723.764 6 123991127.325 6        39.750    23594732.284 4  96616494.290 4        25.750  
G10  21699234.376 8 114030279.530 8        51.000    21699241.796 8  88854795.294 8        53.750  
G13  23452798.404 6 123245302.372 6        40.000    23452803.764 3  96035326.888 3        22.500  
G15  22057803.514 7 115914552.190 7        44.500    22057809.354 7  90323064.034 7        45.500  
G16  22883062.308 7 120251308.065 7        42.750    22883067.368 5  93702348.956 5        30.000  
G18  20915249.342 8 109910396.105 8        49.500    20915255.162 7  85644501.936 7        42.500  
G23  20321444.326 8 106789918.144 8        51.000    20321450.126 8  83212976.223 8        48.000  
G26  24743680.136 6 130028916.987 6        36.500    24743689.596 5 101321267.184 5        32.000  
G27  21340069.938 8 112142818.614 8        48.250    21340077.278 8  87384045.363 8        53.000  
R01  20487601.284 8 109517986.017 8        48.000    20487604.124 7  85180683.785 7        42.250  
R07  22547311.112 7 120697543.509 7        43.750    22547314.272 6  93875872.176 6        40.500  
R08  19809678.968 8 106079940.161 8        52.750    19809680.048 8  82506643.976 8        50.000  
R14  23931084.944 6 127566142.163 6        40.250    23931087.864 6  99218154.549 6        36.500  
R15  22462994.452 7 120035449.085 7        45.750    22462996.852 7  93360943.293 7        42.750  
R16  23489314.244 6 125475726.927 6        38.750    23489313.924 4  97592231.868 4        27.000  
R17  22810251.928 7 122062283.804 7        43.500    22810253.868 6  94937316.407 6        41.500  
R24  19447723.552 9 103995748.086 9        55.000    19447725.332 8  80885581.731 8        49.500  
> 2021 11 07 02 40  0.0000000  0 17                     
G08  23558139.924 6 123798878.468 6        39.000    23558147.724 4  96466689.987 4        26.500  
G10  21670786.636 8 113880788.133 8        50.500    21670794.576 8  88738308.507 8        53.500  
G13  23471269.964 6 123342375.103 6        39.000    23471275.884 3  96110967.938 3        22.500  
G15  22066164.334 7 115958487.214 7        45.750    22066169.714 7  90357299.124 7        45.750  
G16  22909845.728 6 120392056.518 6        41.500    22909851.008 4  93812023.038 4        29.750  
G18  20937111.222 8 110025279.099 8        49.000    20937116.902 7  85734021.145 7        42.250  
G23  20317384.306 8 106768584.014 8        52.000    20317390.306 7  83196352.229 7        47.750  
G26  24782693.056 5 130233931.121 5        34.500    24782702.576 5 101481018.437 5        30.500  
G27  21319950.078 8 112037087.663 8        48.500    21319957.338 8  87301657.609 8        53.500  
R01  20452052.904 8 109327964.744 8        48.250    20452056.984 7  85032889.476 7        43.000  
R07  22590030.972 7 120926224.177 7        43.500    22590033.692 6  94053734.853 6        41.250  
R08  19816451.208 8 106116202.382 8        52.750    19816451.568 8  82534847.932 8        49.500  
R14  23974692.844 6 127798593.163 6        41.500    23974695.564 5  99398949.699 5        35.000  
R15  22479433.032 7 120123288.693 7        45.000    22479434.832 7  93429262.966 7        42.250  
R16  23465656.724 6 125349349.048 6        39.500    23465655.524 4  97493938.005 4        26.500  
R17  22766979.132 7 121830722.762 7        43.750    22766981.892 6  94757213.376 6        41.250  
R24  19432213.652 9 103912811.031 9        54.500    19432216.192 8  80821075.130 8        49.000  
> 2021 11 07 02 41  0.0000000  0 17                     
G08  23521751.064 6 123607648.389 6        39.750    23521758.664 4  96317679.560 4        27.500  
G10  21642621.756 8 113732780.960 8        50.750    21642629.836 8  88622978.259 8        53.750  
G13  23490177.504 6 123441733.393 6        41.250    23490182.264 3  96188389.982 3        21.750  
G15  22075025.714 7 116005054.566 7        45.000    22075031.974 7  90393585.364 7        46.250  
G16  22936977.828 7 120534635.417 7        42.000    22936982.808 4  93923123.441 4        28.500  
G18  20959234.582 8 110141538.672 8        49.750    20959240.242 6  85824613.027 6        41.750  
G23  20313735.706 8 106749409.377 8        51.000    20313741.466 7  83181410.962 7        47.750  
G26  24821748.276 5 130439167.080 5        33.500    24821757.656 4 101640942.522 4        28.500  
G27  21300219.078 8 111933399.573 8        49.000    21300225.998 8  87220861.695 8        53.500  
R01  20416940.844 7 109140269.778 7        47.500    20416944.744 7  84886904.532 7        43.000  
R07  22633017.832 7 121156339.750 7        43.500    22633021.092 7  94232713.616 7        42.250  
R08  19823820.988 8 106155668.526 8        52.750    19823821.588 8  82565543.823 8        49.250  
R14  24018451.400 6 128031854.393 6        41.500    24018454.740 5  99580374.996 5        35.250  
R15  22496420.052 7 120214067.622 7        45.000    22496422.932 7  93499868.814 7        43.000  
R16  23442499.684 6 125225647.703 6        38.500    23442497.824 4  97397725.870 4        26.750  
R17  22723765.452 7 121599480.147 7        42.750    22723768.672 6  94577358.042 6        41.000  
R24  19417083.952 9 103831906.276 9        54.500    19417086.272 8  80758149.208 8        49.500  
> 2021 11 07 02 42  0.0000000  0 17                     
G08  23485558.364 6 123417456.979 6        39.000    23485566.244 4  96169478.476 4        27.000  
G10  21614741.596 8 113586269.647 8        51.000    21614749.556 9  88508813.634 9        54.000  
G13  23509517.064 6 123543364.176 6        39.500    23509522.464 3  96267582.833 3        22.500  
G15  22084387.174 7 116054248.761 7        44.750    22084392.754 7  90431918.503 7        45.500  
G16  22964453.748 6 120679024.990 6        41.000    22964459.148 4  94035634.761 4        28.250  
G18  20981618.842 8 110259168.615 8        49.000    20981624.622 6  85916272.716 6        41.500  
G23  20310497.646 8 106732393.449 8        50.500    20310503.446 7  83168151.809 7        47.750  
G26  24860840.836 5 130644603.551 5        33.250    24860850.916 4 101801022.844 4        27.500  
G27  21280879.780 8 111831770.818 8        50.500    21280886.800 8  87141670.449 8        53.750  
R01  20382269.188 8 108954927.993 8        48.250    20382272.188 7  84742749.818 7        43.750  
R07  22676268.232 7 121387860.384 7        44.250    22676270.872 6  94412785.199 6        39.500  
R08  19831787.848 8 106198328.707 8        52.750    19831788.048 8  82598723.967 8        50.000  
R14  24062357.300 6 128265891.488 6        40.750    24062358.900 6  99762403.769 6        36.000  
R15  22513955.732 7 120307767.534 7        44.750    22513957.612 7  93572746.482 7        42.750  
R16  23419847.404 6 125104646.233 6        39.250    23419846.484 4  97303613.617 4        27.500  
R17  22680615.932 7 121368573.212 7        43.500    22680617.452 6  94397763.753 6        40.000  
R24  19402338.092 9 103753050.346 9        54.500    19402339.832 8  80696816.822 8        48.750  
> 2021 11 07 02 43  0.0000000  0 17                     
G08  23449567.104 6 123228323.174 6        38.500    23449575.324 4  96022101.491 4        27.000  
G10  21587148.016 8 113441263.898 8        51.250    21587156.036 9  88395822.170 9        54.500  
G13  23529286.504 6 123647252.673 6        40.500    23529292.904 3  96348534.871 3        22.000  
G15  22094246.574 7 116106061.243 7        44.750    22094252.474 7  90472291.868 7        45.750  
G16  22992270.728 6 120825202.054 6        41.500    22992275.768 4  94149538.916 4        28.500  
G18  21004262.060 8 110378160.824 8        49.000    21004267.760 6  86008993.930 6        41.500  
G23  20307669.726 8 106717533.202 8        51.000    20307675.646 7  83156572.394 7        47.750  
G26  24899968.434 5 130850217.500 5        33.750    24899977.614 4 101961241.456 4        27.000  
G27  21261934.720 8 111732215.879 8        50.000    21261942.080 8  87064095.176 8        53.500  
R01  20348041.628 8 108771963.983 8        49.000    20348045.508 7  84600444.517 7        43.000  
R07  22719775.452 7 121620753.581 7        45.250    22719776.932 6  94593924.340 6        41.000  
R08  19840348.028 8 106244169.718 8        52.750    19840348.728 8  82634378.089 8        49.500  
R14  24106399.800 7 128500668.623 7        42.500    24106403.540 6  99945008.091 6        36.000  
R15  22532033.392 7 120404366.907 7        45.000    22532035.032 7  93647879.319 7        42.750  
R16  23397705.384 6 124986366.821 6        37.250    23397704.204 4  97211618.550 4        26.500  
R17  22637530.012 7 121138017.849 7        44.250    22637532.532 6  94218442.915 6        40.250  
R24  19387976.772 9 103676257.473 9        54.750    19387979.172 8  80637089.036 8        49.000  
