     3.02           OBSERVATION DATA    M                   RINEX VERSION / TYPE
HIVE                geosystems.aero     18-JAN-22 11:16     PGM / RUN BY / DATE 
KURO                                                        MARKER NAME         
1071                                                        MARKER NUMBER       
                                                            MARKER TYPE         
geosystems.aero     Industrial Geodetic Systems             OBSERVER / AGENCY   
5431C01085          IGS GR220           4.94,17/FEB/2015    REC # / TYPE / VERS 
                    NOV702GG        NONE                    ANT # / TYPE        
  2810298.9709  2269083.5722  5239362.9499                  APPROX POSITION XYZ 
        0.0000        0.0000        0.0000                  ANTENNA: DELTA H/E/N
G  12  C1C L1C S1C C2W L2W S2W C2X L2X S2X C5X L5X S5X      SYS / # / OBS TYPES 
R  9   C1C L1C S1C C2C L2C S2C C2P L2P S2P                  SYS / # / OBS TYPES 
C  6   C1I L1I S1I C7I L7I S7I                              SYS / # / OBS TYPES 
    60.000                                                  INTERVAL            
  2021    11    07    00    00   00.0000000     GPS         TIME OF FIRST OBS   
  2021    11    07    06    07   00.0000000     GPS         TIME OF LAST OBS    
 C1C    0.000 C1P    0.000 C2C    0.000 C2P    0.000        GLONASS COD/PHS/BIS 
    18                                                      LEAP SECONDS        
    56                                                      # OF SATELLITES     
   G01   109   109   109     0     0     0   109   109   109PRN / # OF OBS      
           0     0     0                                    PRN / # OF OBS      
   G02    14    14    14    12    12    12     0     0     0PRN / # OF OBS      
           0     0     0                                    PRN / # OF OBS      
   G05   140   140   140     0     0     0   140   140   140PRN / # OF OBS      
           0     0     0                                    PRN / # OF OBS      
   G07    82    82    82     0     0     0    82    82    82PRN / # OF OBS      
           0     0     0                                    PRN / # OF OBS      
   G08   256   256   256     0     0     0   256   256   256PRN / # OF OBS      
           0     0     0                                    PRN / # OF OBS      
   G10   316   316   316     0     0     0   316   316   316PRN / # OF OBS      
           0     0     0                                    PRN / # OF OBS      
   G13   183   183   183   141   141   141     0     0     0PRN / # OF OBS      
           0     0     0                                    PRN / # OF OBS      
   G14   115   115   115     0     0     0   115   115   115PRN / # OF OBS      
           0     0     0                                    PRN / # OF OBS      
   G15   240   240   240     0     0     0   240   240   240PRN / # OF OBS      
           0     0     0                                    PRN / # OF OBS      
   G16   254   254   254   242   242   242     0     0     0PRN / # OF OBS      
           0     0     0                                    PRN / # OF OBS      
   G17    24    24    24     0     0     0    24    24    24PRN / # OF OBS      
           0     0     0                                    PRN / # OF OBS      
   G18   281   281   281     0     0     0   281   281   281PRN / # OF OBS      
         122   122   122                                    PRN / # OF OBS      
   G20    74    74    74    57    57    57     0     0     0PRN / # OF OBS      
           0     0     0                                    PRN / # OF OBS      
   G21   171   171   171   161   161   161     0     0     0PRN / # OF OBS      
           0     0     0                                    PRN / # OF OBS      
   G22    99    99    99    99    99    99     0     0     0PRN / # OF OBS      
           0     0     0                                    PRN / # OF OBS      
   G23   352   352   352     0     0     0   352   352   352PRN / # OF OBS      
           0     0     0                                    PRN / # OF OBS      
   G24   132   132   132     0     0     0   131   131   131PRN / # OF OBS      
           0     0     0                                    PRN / # OF OBS      
   G25    36    36    36     0     0     0    36    36    36PRN / # OF OBS      
           0     0     0                                    PRN / # OF OBS      
   G26   189   189   189     0     0     0   189   189   189PRN / # OF OBS      
           0     0     0                                    PRN / # OF OBS      
   G27   327   327   327     0     0     0   327   327   327PRN / # OF OBS      
           0     0     0                                    PRN / # OF OBS      
   G29   145   145   145     0     0     0   145   145   145PRN / # OF OBS      
           0     0     0                                    PRN / # OF OBS      
   G30    35    35    35     0     0     0    34    34    34PRN / # OF OBS      
           0     0     0                                    PRN / # OF OBS      
   G31    49    49    49     0     0     0    49    49    49PRN / # OF OBS      
           0     0     0                                    PRN / # OF OBS      
   G32   183   183   183     0     0     0   183   183   183PRN / # OF OBS      
           0     0     0                                    PRN / # OF OBS      
   R01   282   282   282   282   282   282     0     0     0PRN / # OF OBS      
   R02   194   194   194   194   194   194     0     0     0PRN / # OF OBS      
   R03   105   105   105   105   105   105     0     0     0PRN / # OF OBS      
   R04     4     4     4     4     4     4     0     0     0PRN / # OF OBS      
   R05    12    12    12    12    12    12     0     0     0PRN / # OF OBS      
   R06    67    67    67     0     0     0     0     0     0PRN / # OF OBS      
   R07   182   182   182   182   182   182     0     0     0PRN / # OF OBS      
   R08   258   258   258   258   258   258     0     0     0PRN / # OF OBS      
   R09   127   127   127   127   127   127     0     0     0PRN / # OF OBS      
   R10   106   106   106     0     0     0     0     0     0PRN / # OF OBS      
   R12    48    48    48    48    48    48     0     0     0PRN / # OF OBS      
   R13    69    69    69    69    69    69     0     0     0PRN / # OF OBS      
   R14   182   182   182   182   182   182     0     0     0PRN / # OF OBS      
   R15   197   197   197   197   197   197     0     0     0PRN / # OF OBS      
   R16   132   132   132   126   126   126     0     0     0PRN / # OF OBS      
   R17   250   250   250   250   250   250     0     0     0PRN / # OF OBS      
   R18   147   147   147   147   147   147     0     0     0PRN / # OF OBS      
   R19     9     9     9     9     9     9     0     0     0PRN / # OF OBS      
   R21    35    35    35    35    35    35     0     0     0PRN / # OF OBS      
   R22    83    83    83    82    82    82     1     1     1PRN / # OF OBS      
   R23   267   267   267     0     0     0     0     0     0PRN / # OF OBS      
   R24   351   351   351   351   351   351     0     0     0PRN / # OF OBS      
   C02   314   314   314   311   311   311                  PRN / # OF OBS      
   C05   367   367   367   367   367   367                  PRN / # OF OBS      
   C06   254   254   254   254   254   254                  PRN / # OF OBS      
   C08   290   290   290   290   290   290                  PRN / # OF OBS      
   C09   225   225   225   225   225   225                  PRN / # OF OBS      
   C11   175   175   175   175   175   175                  PRN / # OF OBS      
   C12    31    31    31    31    31    31                  PRN / # OF OBS      
   C13   367   367   367   367   367   367                  PRN / # OF OBS      
   C14   325   325   325   325   325   325                  PRN / # OF OBS      
   C16   239   239   239   239   239   239                  PRN / # OF OBS      
                                                            END OF HEADER       
> 2021 11 07 00 00  0.0000000  0 26                     
G02  25425616.062 6 133611775.504 6        36.000    25425620.208 3 104113175.808 3        18.000                                                                                                  
G05  21522994.178 7 113104543.246 7        43.000                                                    21523000.289 7  88133414.519 7        44.000                                                  
G16  23806196.776 6 125101979.819 6        37.000    23806203.084 3  97481842.582 3        20.000                                                                                                  
G18  21148718.861 7 111137676.803 7        45.000                                                    21148725.241 7  86600791.326 7        47.000                                                  
G20  22784251.878 6 119732560.884 6        39.000    22784257.650 3  93298104.203 3        22.000                                                                                                  
G23  25223025.871 5 132548575.624 5        33.000                                                    25223033.841 6 103284604.162 6        38.000                                                  
G25  23775727.876 5 124942333.404 5        35.000                                                    23775739.884 7  97357662.266 7        42.000                                                  
G26  21447776.367 7 112708597.096 7        44.000                                                    21447786.284 7  87824880.991 7        46.000                                                  
G29  20730517.466 7 108939330.408 7        46.000                                                    20730524.345 7  84887795.191 7        45.000                                                  
G31  24550585.446 6 129014660.966 6        36.000                                                    24550592.630 6 100530901.753 6        38.000                                                  
R05  24009880.587 5 128346322.433 5        32.000    24009882.981 5  99824917.336 5        35.000                                                  
R06  21576712.357 5 115137456.185 5        32.000                                                                                                  
R07  22460980.042 6 120234563.108 6        39.000    22460985.492 7  93515773.815 7        42.000                                                  
R12  22059157.357 7 117835212.694 7        43.000    22059162.307 7  91649608.181 7        43.000                                                  
R13  20255409.075 6 108162557.001 6        37.000    20255411.738 6  84126432.128 6        36.000                                                  
R14  22236142.096 6 118531850.070 6        40.000    22236147.224 7  92190838.215 7        42.000                                                  
R21  23068882.077 6 123446403.653 6        38.000    23068886.759 6  96013976.459 6        40.000                                                  
R22  19723362.222 5 105284073.572 5        34.000    19723364.420 5  81887612.755 5        31.000                                                  
R23  20754762.281 7 111023736.759 7        43.000                                                                                                  
R24  24349010.019 6 130204400.113 6        36.000    24349014.022 6 101270088.805 6        36.000                                                  
C02                                                  39909317.425 6 160698154.706 6        38.000  
C05                                                  38950549.547 6 156838118.128 6        39.000  
C08                                                  37525653.625 7 151100187.858 7        43.000  
C11                                                  21797527.539 8  87769598.456 8        48.000  
C12                                                  25345867.703 6 102057408.780 6        41.000  
C13                                                  36652260.509 7 147583059.819 7        44.000  
> 2021 11 07 00 01  0.0000000  0 26                     
G02  25461789.344 6 133801865.138 6        38.000    25461793.096 3 104261297.596 3        19.000                                                                                                  
G05  21524190.063 7 113110828.570 7        45.000                                                    21524196.174 7  88138312.204 7        45.000                                                  
G16  23768094.069 6 124901747.781 6        39.000    23768100.394 3  97325817.693 3        20.000                                                                                                  
G18  21122659.429 7 111000736.008 7        45.000                                                    21122666.416 7  86494084.238 7        46.000                                                  
G20  22809088.301 6 119863081.742 6        39.000    22809095.628 3  93399808.773 3        22.000                                                                                                  
G23  25178331.35315 132312832.49715        33.0001                                                   25178339.26916 103100908.15916        40.0001                                                 
G25  23820012.354 6 125175045.827 6        37.000                                                    23820023.201 6  97538996.595 6        41.000                                                  
G26  21435596.787 7 112644592.181 7        43.000                                                    21435606.168 7  87775007.030 7        46.000                                                  
G29  20747466.252 7 109028396.895 7        46.000                                                    20747473.364 7  84957197.639 7        45.000                                                  
G31  24586422.397 6 129202982.404 6        37.000                                                    24586429.098 6 100677645.687 6        38.000                                                  
R05  24048640.553 5 128553524.591 5        34.000    24048644.949 5  99986074.482 5        35.000                                                  
R06  21574903.17215 115127969.46915        32.0001                                                                                                 
R07  22421340.224 6 120022370.357 6        38.000    22421346.835 7  93350735.060 7        43.000                                                  
R12  22106360.972 7 118087357.611 7        43.000    22106364.707 7  91845720.876 7        43.000                                                  
R13  20267459.426 6 108226912.445 6        36.000    20267463.518 6  84176486.351 6        36.000                                                  
R14  22201079.177 6 118344945.157 6        39.000    22201084.181 6  92045467.720 6        38.000                                                  
R21  23110392.014 6 123668529.663 6        38.000    23110396.017 6  96186741.096 6        41.000                                                  
R22  19742446.249 5 105385940.210 5        34.000    19742448.715 5  81966842.379 5        33.000                                                  
R23  20724715.448 7 110863008.846 7        42.000                                                                                                  
R24  24306302.375 6 129976025.671 6        37.000    24306307.004 6 101092464.313 6        37.000                                                  
C02                                                  39909046.369 6 160696957.776 6        39.000  
C05                                                  38949961.210 6 156835752.752 6        39.000  
C08                                                  37534894.161 7 151137395.606 7        43.000  
C11                                                  21811543.590 8  87826032.556 8        48.000  
C12                                                  25380290.052 7 102196010.984 7        42.000  
C13                                                  36657659.402 7 147604800.323 7        43.000  
> 2021 11 07 00 02  0.0000000  0 26                     
G02  25497976.027 6 133992033.637 6        36.000    25497980.209 3 104409480.820 3        18.000                                                                                                  
G05  21525883.974 7 113119731.857 7        44.000                                                    21525890.336 7  88145249.841 7        44.000                                                  
G16  23730207.112 6 124702657.097 6        36.000    23730214.242 3  97170682.092 3        19.000                                                                                                  
G18  21096904.056 7 110865389.023 7        45.000                                                    21096911.150 7  86388619.071 7        47.000                                                  
G20  22834278.620 6 119995452.709 6        39.000    22834284.982 3  93502954.979 3        23.000                                                                                                  
G23  25133624.683 5 132077902.865 5        34.000                                                    25133633.707 6 102917846.120 6        39.000                                                  
G25  23864393.021 6 125408270.383 6        37.000                                                    23864403.671 6  97720729.930 6        40.000                                                  
G26  21423845.921 7 112582841.955 7        43.000                                                    21423855.177 7  87726889.962 7        45.000                                                  
G29  20764722.975 7 109119082.252 7        45.000                                                    20764729.783 7  85027861.547 7        45.000                                                  
G31  24622395.689 6 129392027.832 6        37.000                                                    24622402.926 6 100824953.765 6        37.000                                                  
R05  24087736.313 5 128762509.380 5        33.000    24087739.958 5 100148618.065 5        33.000                                                  
R06  21573718.759 5 115121645.537 5        32.000                                                                                                  
R07  22382027.319 6 119811930.773 6        38.000    22382034.341 7  93187059.909 7        42.000                                                  
R12  22153793.722 7 118340737.098 7        42.000    22153797.510 7  92042793.729 7        42.000                                                  
R13  20280131.047 6 108294570.785 6        36.000    20280134.478 6  84229109.486 6        36.000                                                  
R14  22166435.234 6 118160269.663 6        41.000    22166439.880 6  91901831.331 6        41.000                                                  
R21  23151963.331 6 123890983.243 6        39.000    23151966.083 6  96359760.522 6        40.000                                                  
R22  19761850.114 5 105489527.445 5        35.000    19761853.831 5  82047410.198 5        31.000                                                  
R23  20694934.737 7 110703694.397 7        43.000                                                                                                  
R24  24263636.223 6 129747879.914 6        36.000    24263642.156 5 100915017.692 5        35.000                                                  
C02                                                  39908776.869 6 160695724.816 6        38.000  
C05                                                  38949375.749 6 156833393.739 6        39.000  
C08                                                  37544185.571 7 151174806.796 7        43.000  
C11                                                  21825785.934 8  87883378.975 8        48.000  
C12                                                  25414763.204 7 102334818.027 7        42.000  
C13                                                  36663119.156 7 147626783.200 7        43.000  
> 2021 11 07 00 03  0.0000000  0 25                     
G02  25534177.613 5 134182274.868 5        35.000    25534182.277 3 104557720.696 3        18.000                                                                                                  
G05  21528076.200 7 113131254.071 7        45.000                                                    21528083.169 7  88154228.197 7        45.000                                                  
G16  23692543.125 6 124504730.860 6        37.000    23692549.469 3  97016453.888 3        18.000                                                                                                  
G18  21071454.046 7 110731647.434 7        45.000                                                    21071460.836 7  86284404.857 7        47.000                                                  
G20  22859816.974 6 120129658.989 6        38.000    22859822.639 3  93607531.335 3        21.000                                                                                                  
G23  25088913.850 5 131842938.681 5        33.000                                                    25088921.355 6 102734757.178 6        39.000                                                  
G25  23908868.037 5 125641990.595 5        35.000                                                    23908878.955 6  97902849.539 6        39.000                                                  
G26  21412526.449 7 112523358.578 7        43.000                                                    21412535.794 7  87680539.261 7        45.000                                                  
G29  20782286.956 7 109211383.485 7        46.000                                                    20782293.907 7  85099784.570 7        46.000                                                  
G31  24658502.998 6 129581774.886 6        37.000                                                    24658510.860 6 100972808.569 6        37.000                                                  
R05  24127159.41615 128972872.48615        32.0001   24127162.02515 100312234.80415        32.0001                                                 
R06  21573157.708 5 115118661.066 5        32.000                                                                                                  
R07  22343051.031 6 119603281.266 6        40.000    22343057.428 7  93024777.036 7        43.000                                                  
R12  22201452.819 7 118595320.875 7        42.000    22201456.410 7  92240803.273 7        42.000                                                  
R13  20293418.006 5 108365522.439 5        35.000    20293420.400 6  84284294.092 6        36.000                                                  
R14  22132213.750 7 117977857.164 7        42.000    22132219.414 6  91759954.950 6        40.000                                                  
R21  23193593.008 6 124113755.178 6        38.000    23193596.511 6  96533027.529 6        38.000                                                  
R22  19781578.319 6 105594825.036 6        36.000    19781578.588 5  82129308.343 5        33.000                                                  
R23  20665418.060 7 110545804.881 7        42.000                                                                                                  
R24  24221018.568 6 129519974.936 6        37.000    24221022.571 5 100737758.388 5        35.000                                                  
C05                                                  38948792.040 6 156831043.073 6        39.000  
C08                                                  37553527.317 7 151212420.641 7        44.000  
C11                                                  21840253.016 8  87941636.023 8        48.000  
C12                                                  25449286.156 7 102473827.239 7        42.000  
C13                                                  36668638.558 7 147649008.131 7        43.000  
> 2021 11 07 00 04  0.0000000  0 27                     
G02  25570391.511 6 134372577.701 6        36.000    25570394.460 2 104706008.650 2        16.000                                                                                                  
G05  21530766.542 7 113145391.677 7        43.000                                                    21530773.314 7  88165244.530 7        44.000                                                  
G16  23655104.591 6 124307989.836 6        37.000    23655110.131 3  96863149.248 3        19.000                                                                                                  
G18  21046310.705 7 110599519.087 7        45.000                                                    21046317.656 7  86181447.715 7        46.000                                                  
G20  22885701.326 6 120265681.915 6        39.000    22885706.419 3  93713523.223 3        22.000                                                                                                  
G23  25044198.139 5 131607958.425 5        34.000                                                    25044206.073 6 102551655.771 6        39.000                                                  
G25  23953435.399 6 125876186.694 6        36.000                                                    23953444.655 6  98085339.969 6        38.000                                                  
G26  21401640.265 7 112466150.288 7        43.000                                                    21401649.467 7  87635961.389 7        46.000                                                  
G29  20800157.658 7 109305293.883 7        45.000                                                    20800164.949 7  85172961.501 7        46.000                                                  
G31  24694739.357 6 129772198.733 6        37.000                                                    24694747.077 6 101121190.675 6        38.000                                                  
R05  24166901.946 5 129185327.427 5        32.000    24166906.931 5 100477477.389 5        31.000                                                  
R06  21573225.09215 115119543.27915        32.0001                                                                                                 
R07  22304415.094 6 119396456.113 6        39.000    22304420.026 6  92863913.103 6        41.000                                                  
R12  22249328.631 6 118851074.504 6        41.000    22249333.884 7  92439722.705 7        42.000                                                  
R13  20307320.266 6 108439753.521 6        36.000    20307321.356 6  84342029.350 6        36.000                                                  
R14  22098425.107 6 117797736.196 6        41.000    22098428.591 6  91619860.882 6        41.000                                                  
R21  23235281.171 6 124336832.946 6        38.000    23235284.852 6  96706532.427 6        40.000                                                  
R22  19801619.054 5 105701818.945 5        35.000    19801622.360 5  82212525.823 5        32.000                                                  
R23  20636169.650 7 110389348.186 7        43.000                                                                                                  
R24  24178443.744 6 129292317.556 6        37.000    24178450.034 6 100560691.556 6        37.000                                                  
C02                                                                                                
C05                                                  38948209.688 6 156828700.026 6        39.000  
C08                                                  37562918.275 7 151250233.824 7        44.000  
C11                                                  21854946.321 8  88000799.192 8        48.000  
C12                                                  25483857.337 6 102613033.570 6        41.000  
C13                                                  36674217.428 7 147671472.159 7        43.000  
C14                                                  26051414.370 6 104898699.002 6        41.000  
> 2021 11 07 00 05  0.0000000  0 25                     
G02  25606616.238 5 134562934.334 5        35.000    25606620.008 2 104854338.455 2        16.000                                                                                                  
G05  21533954.429 7 113162142.099 7        44.000                                                    21533961.095 7  88178296.827 7        45.000                                                  
G16  23617897.354 6 124112456.096 6        38.000    23617903.716 3  96710785.346 3        20.000                                                                                                  
G18  21021476.462 7 110469013.449 7        45.000                                                    21021483.323 7  86079755.019 7        46.000                                                  
G20  22911928.067 6 120403504.339 6        39.000    22911934.249 3  93820917.324 3        22.000                                                                                                  
G23  24999483.072 5 131372982.183 5        34.000                                                    24999491.381 6 102368557.407 6        38.000                                                  
G25  23998088.569 6 126110840.366 6        37.000                                                    23998098.843 6  98268186.973 6        40.000                                                  
G26  21391189.156 7 112411226.936 7        44.000                                                    21391198.054 7  87593163.965 7        45.000                                                  
G29  20818334.100 7 109400808.844 7        45.000                                                    20818340.765 7  85247388.746 7        45.000                                                  
G31  24731100.621 6 129963276.052 6        36.000                                                    24731108.930 6 101270082.070 6        37.000                                                  
R05  24206961.99015 129399790.81415        32.0001   24206967.92315 100644281.71915        30.0001                                                 
R07  22266124.923 6 119191490.378 6        40.000    22266131.731 7  92704495.374 7        43.000                                                  
R12  22297420.997 7 119107965.717 7        43.000    22297424.661 6  92639526.933 6        39.000                                                  
R13  20321831.182 6 108517251.934 6        36.000    20321833.701 6  84402305.866 6        36.000                                                  
R14  22065069.752 6 117619937.499 6        41.000    22065074.380 6  91481573.009 6        40.000                                                  
R21  23277024.048 6 124560205.774 6        38.000    23277027.408 6  96880266.816 6        39.000                                                  
R22  19821979.591 6 105810497.110 6        36.000    19821982.307 5  82297053.275 5        32.000                                                  
R23  20607191.527 7 110234334.050 7        43.000                                                                                                  
R24  24135920.062 6 129064917.765 6        37.000    24135924.815 6 100383825.131 6        38.000                                                  
C05                                                  38947629.74916 156825340.98416        39.0001 
C08                                                  37572357.318 7 151288244.151 7        43.000  
C11                                                  21869863.989 8  88060865.158 8        48.000  
C12                                                  25518477.175 7 102752432.913 7        42.000  
C13                                                  36679855.087 7 147694173.314 7        43.000  
C14                                                  26011853.229 6 104739401.285 6        40.000  
> 2021 11 07 00 06  0.0000000  0 27                     
G02  25642848.595 6 134753335.670 6        36.000    25642851.936 2 105002703.105 2        14.000                                                                                                  
G05  21537638.146 7 113181502.380 7        43.000                                                    21537644.526 7  88193382.767 7        44.000                                                  
G16  23580920.664 6 123918150.514 6        37.000    23580927.275 3  96559378.417 3        19.000                                                                                                  
G18  20996952.335 7 110340138.810 7        44.000                                                    20996958.876 7  85979333.259 7        46.000                                                  
G20  22938493.192 6 120543108.425 6        38.000    22938499.018 3  93929699.722 3        21.000                                                                                                  
G23  24954772.328 5 131138029.232 5        34.000                                                    24954780.601 6 102185477.211 6        36.000                                                  
G25  24042823.828 5 126345932.522 5        33.000                                                    24042835.211 6  98451375.602 6        41.000                                                  
G26  21381173.515 7 112358596.826 7        43.000                                                    21381183.289 7  87552153.489 7        45.000                                                  
G29  20836813.422 7 109497922.038 7        45.000                                                    20836821.052 7  85323061.344 7        46.000                                                  
G31  24767580.893 6 130154982.473 6        37.000                                                    24767588.219 6 101419463.653 6        37.000                                                  
R05  24247330.543 5 129615584.919 5        31.000    24247335.958 5 100812121.817 5        32.000                                                  
R06  21575235.393 5 115130152.830 5        30.000                                                                                                  
R07  22228189.040 6 118988419.001 6        40.000    22228195.634 7  92546551.018 7        42.000                                                  
R12  22345716.928 6 119365961.176 6        41.000    22345721.503 6  92840189.998 6        41.000                                                  
R13  20336955.344 6 108598003.374 6        36.000    20336956.845 6  84465112.538 6        36.000                                                  
R14  22032156.316 7 117444490.571 7        42.000    22032160.266 6  91345114.336 6        39.000                                                  
R21  23318820.926 6 124783862.326 6        40.000    23318822.445 6  97054221.877 6        40.000                                                  
R22  19842652.281 5 105920846.003 5        35.000    19842654.890 5  82382880.204 5        33.000                                                  
R23  20578485.031 7 110080771.177 7        43.000                                                                                                  
R24  24093444.769 6 128837783.745 6        37.000    24093449.397 6 100207165.384 6        36.000                                                  
C02                                                  39907711.982 6 160692225.214 6        39.000  
C05                                                  38947052.026 6 156823013.693 6        40.000  
C08                                                  37581845.841 7 151326448.800 7        44.000  
C11                                                  21885004.626 7  88121830.024 7        47.000  
C12                                                  25553144.277 7 102892020.650 7        43.000  
C13                                                  36685551.374 7 147717109.148 7        44.000  
C14                                                  25972308.777 6 104580174.461 6        41.000  
> 2021 11 07 00 07  0.0000000  0 27                     
G02  25679086.509 5 134943773.779 5        32.000    25679089.815 2 105151096.464 2        16.000                                                                                                  
G05  21541818.443 7 113203468.567 7        44.000                                                    21541824.787 7  88210499.269 7        44.000                                                  
G16  23544183.757 6 123725094.977 6        36.000    23544189.886 3  96408945.540 3        18.000                                                                                                  
G18  20972740.363 7 110212904.251 7        44.000                                                    20972747.171 7  85880189.461 7        47.000                                                  
G20  22965395.578 6 120684476.437 6        39.000    22965401.028 3  94039856.663 3        23.000                                                                                                  
G23  24910072.163 5 130903119.969 5        35.000                                                    24910079.400 6 102002431.059 6        38.000                                                  
G25  24087641.268 6 126581444.811 6        37.000                                                    24087652.668 6  98634891.646 6        40.000                                                  
G26  21371596.648 7 112308269.049 7        43.000                                                    21371605.993 7  87512937.040 7        45.000                                                  
G29  20855597.088 7 109596628.258 7        45.000                                                    20855603.789 7  85399975.282 7        46.000                                                  
G31  24804175.973 5 130347294.649 5        35.000                                                    24804184.479 6 101569317.196 6        38.000                                                  
R05  24288002.423 6 129833204.424 6        36.000    24288007.337 6 100981380.919 6        37.000                                                  
R06  21577181.008 5 115140533.068 5        31.000                                                                                                  
R07  22190614.702 6 118787276.406 6        40.000    22190620.134 7  92390106.852 7        42.000                                                  
R12  22394216.298 6 119625028.538 6        41.000    22394219.460 6  93041686.754 6        40.000                                                  
R13  20352683.998 6 108681993.703 6        37.000    20352685.463 6  84530438.311 6        36.000                                                  
R14  21999689.678 7 117271425.557 7        42.000    21999695.199 6  91210508.207 6        40.000                                                  
R21  23360666.568 6 125007792.138 6        38.000    23360669.141 6  97228389.467 6        38.000                                                  
R22  19863633.427 5 106032853.452 5        35.000    19863637.394 5  82469997.078 5        32.000                                                  
R23  20550050.519 7 109928668.769 7        42.000                                                                                                  
R24  24051019.474 6 128610924.681 6        37.000    24051025.245 6 100030719.523 6        37.000                                                  
C02                                                  39907448.86116 160691064.66416        39.0001 
C05                                                  38946476.822 6 156820694.572 6        40.000  
C08                                                  37591381.109 7 151364845.664 7        43.000  
C11                                                  21900367.287 7  88183690.449 7        47.000  
C12                                                  25587856.123 7 103031792.567 7        43.000  
C13                                                  36691305.592 7 147740277.738 7        43.000  
C14                                                  25932786.483 7 104421033.211 7        42.000  
> 2021 11 07 00 08  0.0000000  0 27                     
G02  25715332.142 5 135134240.266 5        33.000    25715336.03812 105300132.89912        14.0001                                                                                                 
G05  21546493.998 7 113228038.281 7        44.000                                                    21546500.306 7  88229644.519 7        44.000                                                  
G16  23507688.690 6 123533312.549 6        36.000    23507694.283 3  96259504.698 3        20.000                                                                                                  
G18  20948841.742 7 110087319.170 7        45.000                                                    20948848.622 7  85782330.972 7        47.000                                                  
G20  22992629.327 6 120827591.608 6        40.000    22992635.742 3  94151374.955 3        22.000                                                                                                  
G23  24865381.308 5 130668275.061 5        35.000                                                    24865389.867 6 101819435.034 6        39.000                                                  
G25  24132534.365 5 126817359.508 5        35.000                                                    24132544.371 6  98818721.165 6        40.000                                                  
G26  21362459.358 7 112260252.731 7        44.000                                                    21362468.883 7  87475521.729 7        46.000                                                  
G29  20874682.402 7 109696923.022 7        45.000                                                    20874689.764 7  85478127.053 7        45.000                                                  
G31  24840884.325 6 130540189.718 6        39.000                                                    24840891.812 6 101719624.973 6        37.000                                                  
R05  24328969.892 5 130052206.078 5        31.000    24328975.235 6 101151715.476 6        36.000                                                  
R06  21579754.48615 115153520.24015        30.0001                                                                                                 
R07  22153406.125 6 118588098.598 6        40.000    22153411.825 7  92235190.853 7        43.000                                                  
R12  22442909.778 7 119885135.409 7        44.000    22442912.298 6  93243992.051 6        41.000                                                  
R13  20369014.819 6 108769208.328 6        36.000    20369018.143 6  84598271.883 6        36.000                                                  
R14  21967675.572 7 117100772.733 7        42.000    21967680.236 6  91077778.251 6        41.000                                                  
R21  23402560.725 6 125231984.665 6        37.000    23402564.191 6  97402761.372 6        37.000                                                  
R22  19884926.387 5 106146507.499 5        35.000    19884928.638 5  82558394.666 5        32.000                                                  
R23  20521891.959 7 109778036.752 7        43.000                                                                                                  
R24  24008651.627 6 128384350.524 6        36.000    24008655.183 6  99854495.224 6        36.000                                                  
C02                                                  39907188.009 6 160689832.451 6        39.000  
C05                                                  38945902.386 6 156818384.358 6        39.000  
C08                                                  37600963.945 7 151403433.024 7        43.000  
C11                                                  21915952.273 8  88246443.374 8        48.000  
C12                                                  25622613.785 7 103171745.072 7        42.000  
C13                                                  36697116.652 7 147763677.478 7        44.000  
C14                                                  25893287.758 6 104261992.529 6        41.000  
> 2021 11 07 00 10  0.0000000  1 27                     
G02  25787828.71615 135516555.87615        33.0001   25787833.773 2 105597316.745 2        16.000                                                                                                  
G05  21557326.557 7 113284964.394 7        44.000                                                    21557333.616 7  88274002.577 7        45.000                                                  
G16  23435440.942 6 123153646.640 6        38.000    23435446.374 3  95963661.149 3        20.000                                                                                                  
G18  20901992.988 7 109841124.940 7        45.000                                                    20901999.868 7  85590491.374 7        47.000                                                  
G20  23048079.854 6 121118985.377 6        39.000    23048086.001 3  94378435.034 3        22.000                                                                                                  
G23  24776054.562 6 130198852.635 6        36.000                                                    24776061.621 6 101453651.440 6        38.000                                                  
G25  24222534.629 5 127290316.115 5        35.000                                                    24222545.565 6  99187258.665 6        40.000                                                  
G26  21345509.625 7 112171180.598 7        43.000                                                    21345519.024 7  87406114.859 7        45.000                                                  
G29  20913754.433 7 109902248.071 7        45.000                                                    20913761.652 7  85638120.570 7        45.000                                                  
G31  24914610.877 6 130927627.610 6        37.000                                                    24914618.650 5 102021524.541 5        35.000                                                  
R05  24411776.195 5 130494836.602 5        32.000    24411779.001 5 101495983.288 5        34.000                                                  
R06  21586773.403 5 115190707.382 5        31.000                                                                                                  
R07  22080115.577 6 118195767.658 6        40.000    22080120.920 7  91930044.683 7        43.000                                                  
R12  22540851.484 6 120408331.391 6        41.000    22540856.272 6  93650922.167 6        39.000                                                  
R13  20403479.286 6 108953243.135 6        36.000    20403482.807 6  84741410.005 6        37.000                                                  
R14  21905026.777 7 116766814.163 7        43.000    21905030.548 6  90818032.754 6        39.000                                                  
R21  23486489.810 6 125681110.536 6        37.000    23486493.456 6  97752081.494 6        38.000                                                  
R22  19928423.699 5 106378699.237 5        35.000    19928425.575 5  82738988.242 5        32.000                                                  
R23  20466403.478 7 109481214.343 7        43.000                                                                                                  
R24  23924075.093 6 127932086.997 6        37.000    23924079.561 6  99502734.947 6        38.000                                                  
C02                                                  39906668.59216 160687510.10216        40.0001 
C05                                                  38944760.234 6 156813786.821 6        39.000  
C08                                                  37620268.994 7 151481164.973 7        44.000  
C11                                                  21947781.935 7  88374607.964 7        47.000  
C12                                                  25692257.087 6 103452170.609 6        41.000  
C13                                                  36708908.546 7 147811157.723 7        43.000  
C14                                                  25814381.459 7 103944266.922 7        42.000  
> 2021 11 07 00 11  0.0000000  0 27                     
G02  25824081.783 5 135707054.290 5        33.000    25824083.516 2 105745757.026 2        16.000                                                                                                  
G05  21563482.400 7 113317312.905 7        44.000                                                    21563489.298 7  88299209.221 7        44.000                                                  
G16  23399695.927 5 122965807.646 5        35.000    23399702.235 3  95817293.154 3        18.000                                                                                                  
G18  20879044.999 7 109720533.861 7        45.000                                                    20879052.611 8  85496524.325 8        48.000                                                  
G20  23076289.109 6 121267229.198 6        39.000    23076294.630 3  94493949.707 3        19.000                                                                                                  
G23  24731423.139 5 129964317.121 5        35.000                                                    24731431.037 6 101270896.553 6        39.000                                                  
G25  24267635.275 5 127527322.673 5        34.000                                                    24267646.282 6  99371939.072 6        39.000                                                  
G26  21337700.558 7 112130141.571 7        44.000                                                    21337709.761 7  87374136.389 7        45.000                                                  
G29  20933739.487 7 110007268.755 7        45.000                                                    20933746.635 7  85719954.869 7        46.000                                                  
G31  24951622.663 6 131122124.818 6        37.000                                                    24951630.436 6 102173080.713 6        37.000                                                  
R05  24453596.464 5 130718401.661 5        31.000    24453601.324 5 101669867.123 5        31.000                                                  
R06  21591220.842 5 115214438.928 5        32.000                                                                                                  
R07  22044046.775 6 118002684.358 6        41.000    22044051.797 7  91779868.825 7        43.000                                                  
R12  22590089.380 6 120671356.740 6        41.000    22590095.169 6  93855497.371 6        40.000                                                  
R13  20421603.783 6 109050032.487 6        36.000    20421607.911 6  84816690.605 6        36.000                                                  
R14  21874399.612 7 116603568.044 7        42.000    21874405.651 6  90691063.528 6        39.000                                                  
R21  23528521.809 6 125906024.432 6        37.000    23528524.417 6  97927014.445 6        38.000                                                  
R22  19950623.565 5 106497212.507 5        34.000    19950628.140 5  82831165.230 5        32.000                                                  
R23  20439078.955 7 109335043.508 7        43.000                                                                                                  
R24  23881872.231 6 127706417.293 6        36.000    23881877.217 6  99327214.179 6        36.000                                                  
C02                                                  39906411.403 6 160686331.502 6        38.000  
C05                                                  38944192.982 6 156811501.046 6        40.000  
C08                                                  37629989.331 7 151520306.055 7        42.000  
C11                                                  21964025.413 8  88440013.569 8        48.000  
C12                                                  25727141.887 6 103592636.753 6        41.000  
C13                                                  36714888.468 7 147835235.279 7        43.000  
C14                                                  25774979.674 7 103785612.246 7        42.000  
> 2021 11 07 00 12  0.0000000  0 27                     
G02  25860329.972 5 135897546.732 5        33.000    25860334.510 2 105894192.485 2        15.000                                                                                                  
G05  21570128.998 7 113352242.795 7        44.000                                                    21570135.859 7  88326427.322 7        44.000                                                  
G16  23364209.299 5 122779326.228 5        35.000    23364215.428 3  95671983.002 3        19.000                                                                                                  
G18  20856417.009 7 109601622.889 7        44.000                                                    20856423.781 7  85403866.461 7        47.000                                                  
G20  23104816.450 6 121417145.179 6        37.000    23104823.723 3  94610767.389 3        20.000                                                                                                  
G23  24686819.932 5 129729924.326 5        35.000                                                    24686827.705 6 101088252.886 6        40.000                                                  
G25  24312798.462 5 127764655.541 5        35.000                                                    24312810.077 6  99556873.711 6        40.000                                                  
G26  21330336.180 7 112091442.239 7        43.000                                                    21330345.204 7  87343981.049 7        46.000                                                  
G29  20954021.454 7 110113852.218 7        45.000                                                    20954029.030 7  85803006.900 7        45.000                                                  
G31  24988726.134 5 131317108.284 5        35.000                                                    24988734.533 5 102325015.842 5        35.000                                                  
R05  24495693.86315 130943177.57515        30.0001   24495696.91814 101844693.57014        29.0001                                                 
R06  21596291.785 5 115241499.848 5        31.000                                                                                                  
R07  22008367.947 6 117811699.736 6        41.000    22008374.720 7  91631325.290 7        44.000                                                  
R12  22639501.106 7 120935288.816 7        42.000    22639503.286 6  94060777.807 6        40.000                                                  
R13  20440320.637 5 109149978.041 5        35.000    20440324.158 6  84894426.018 6        38.000                                                  
R14  21844250.085 7 116442847.385 7        43.000    21844254.659 6  90566058.578 6        40.000                                                  
R21  23570593.244 6 126131157.374 6        37.000    23570596.299 6  98102117.824 6        36.000                                                  
R22  19973125.329 5 106617319.704 5        35.000    19973126.312 5  82924581.929 5        32.000                                                  
R23  20412034.814 7 109190376.408 7        43.000                                                                                                  
R24  23839731.661 6 127481066.627 6        37.000    23839735.628 6  99151941.525 6        39.000                                                  
C02                                                                                                
C05                                                  38943627.624 6 156809223.106 6        40.000  
C08                                                  37639754.252 7 151559626.518 7        42.000  
C11                                                  21980486.268 7  88506295.612 7        47.000  
C12                                                  25762066.767 7 103733265.028 7        42.000  
C13                                                  36720922.265 7 147859534.091 7        43.000  
C14                                                  25735616.003 6 103627115.227 6        41.000  
> 2021 11 07 00 13  0.0000000  0 26                     
G02  25896576.12315 136087645.12515        31.0001                                                                                                                                                 
G05  21577266.314 7 113389748.876 7        43.000                                                    21577272.747 7  88355652.857 7        44.000                                                  
G16  23328986.756 6 122594224.135 6        38.000    23328991.652 3  95527747.612 3        21.000                                                                                                  
G18  20834109.696 7 109484400.416 7        45.000                                                    20834117.218 8  85312524.311 8        48.000                                                  
G20  23133661.502 6 121568715.687 6        40.000    23133666.506 3  94728874.239 3        22.000                                                                                                  
G23  24642247.262 6 129495695.186 6        36.000                                                    24642255.464 6 100905736.732 6        41.000                                                  
G25  24358020.867 5 128002296.873 5        35.000                                                    24358030.713 6  99742048.694 6        39.000                                                  
G26  21323418.813 7 112055089.843 7        43.000                                                    21323427.837 7  87315654.539 7        45.000                                                  
G29  20974599.081 7 110221992.637 7        45.000                                                    20974606.997 7  85887272.155 7        46.000                                                  
G31  25025918.254 6 131512555.167 6        36.000                                                    25025927.367 6 102477312.039 6        37.000                                                  
R06  21601987.10715 115271615.44315        33.0001                                                                                                 
R07  21973089.243 6 117622848.575 6        40.000    21973094.299 7  91484441.103 7        43.000                                                  
R12  22689070.848 6 121200095.887 6        41.000    22689075.994 7  94266738.786 7        42.000                                                  
R13  20459623.900 5 109253062.846 5        35.000    20459627.366 6  84974603.061 6        37.000                                                  
R14  21814578.947 7 116284680.776 7        43.000    21814583.004 6  90443040.078 6        41.000                                                  
R21  23612704.509 6 126356499.269 6        36.000    23612707.386 6  98277383.688 6        37.000                                                  
R22  19995921.681 5 106739007.922 5        35.000    19995924.183 5  83019228.333 5        32.000                                                  
R23  20385273.611 7 109047222.587 7        42.000                                                                                                  
R24  23797652.185 6 127256044.394 6        37.000    23797655.508 6  98976924.393 6        39.000                                                  
C02                                                  39905901.725 6 160684008.626 6        39.000  
C05                                                  38943064.017 6 156806953.659 6        40.000  
C08                                                  37649563.899 7 151599124.275 7        43.000  
C11                                                  21997164.481 8  88573450.818 8        48.000  
C12                                                  25797031.049 6 103874051.916 6        40.000  
C13                                                  36727011.760 7 147884052.385 7        44.000  
C14                                                  25696296.165 6 103468790.641 6        40.000  
> 2021 11 07 00 14  0.0000000  0 24                     
G05  21584892.510 7 113429823.470 7        43.000                                                    21584898.353 7  88386879.827 7        43.000                                                  
G16  23294028.318 6 122410522.188 6        38.000    23294034.858 3  95384603.201 3        20.000                                                                                                  
G18  20812126.241 7 109368873.483 7        45.000                                                    20812132.638 8  85222503.340 8        48.000                                                  
G20  23162814.456 6 121721921.141 6        39.000    23162818.745 3  94848255.124 3        19.000                                                                                                  
G23  24597709.794 6 129261649.449 6        36.000                                                    24597717.871 6 100723363.485 6        41.000                                                  
G25  24403296.665 5 128240227.505 5        34.000                                                    24403307.154 6  99927449.171 6        39.000                                                  
G26  21316948.619 7 112021090.261 7        44.000                                                    21316957.911 7  87289161.322 7        46.000                                                  
G29  20995473.459 7 110331683.282 7        45.000                                                    20995480.393 7  85972745.375 7        45.000                                                  
G31  25063195.234 6 131708440.849 6        36.000                                                    25063202.917 6 102629950.169 6        36.000                                                  
R06  21608305.236 5 115305322.235 5        33.000                                                                                                  
R07  21938214.538 6 117436163.036 6        41.000    21938219.953 7  91339241.263 7        42.000                                                  
R12  22738801.071 6 121465744.359 6        41.000    22738805.360 6  94473354.176 6        40.000                                                  
R13  20479514.159 5 109359267.505 5        35.000    20479518.215 6  85057206.666 6        36.000                                                  
R14  21785392.060 7 116129095.643 7        43.000    21785396.420 6  90322029.447 6        41.000                                                  
R21  23654850.547 6 126582039.579 6        38.000    23654855.283 6  98452803.865 6        38.000                                                  
R22  20019009.781 5 106862264.233 5        34.000    20019014.535 5  83115094.343 5        32.000                                                  
R23  20358796.454 7 108905590.047 7        43.000                                                                                                  
R24  23755633.963 6 127031359.379 6        38.000    23755637.412 6  98802169.509 6        38.000                                                  
C05                                                  38942502.233 6 156804692.394 6        40.000  
C08                                                  37659416.253 7 151638796.647 7        43.000  
C11                                                  22014058.767 8  88641475.129 8        49.000  
C12                                                  25832033.873 6 104014992.929 6        41.000  
C13                                                  36733154.362 7 147908787.514 7        43.000  
C14                                                  25657022.929 6 103310652.950 6        41.000  
> 2021 11 07 00 15  0.0000000  0 26                     
G02  25969054.953 4 136468260.199 4        25.000                                                                                                                                                  
G05  21593005.689 7 113472460.973 7        44.000                                                    21593012.497 7  88420103.870 7        44.000                                                  
G16  23259341.900 6 122228242.771 6        36.000    23259348.189 3  95242567.314 3        20.000                                                                                                  
G18  20790466.698 7 109255049.832 7        44.000                                                    20790472.952 7  85133809.616 7        47.000                                                  
G20  23192276.347 6 121876743.007 6        39.000    23192281.815 3  94968895.541 3        22.000                                                                                                  
G23  24553211.674 6 129027807.583 6        37.000                                                    24553219.465 6 100541149.103 6        41.000                                                  
G25  24448625.927 6 128478429.396 6        36.000                                                    24448636.023 6 100113060.951 6        38.000                                                  
G26  21310927.294 7 111989449.744 7        44.000                                                    21310936.407 7  87264506.392 7        45.000                                                  
G29  21016640.568 7 110442918.497 7        45.000                                                    21016647.984 7  86059422.166 7        45.000                                                  
G31  25100550.105 6 131904742.825 6        36.000                                                    25100557.038 6 102782912.684 6        36.000                                                  
R06  21615241.455 5 115342343.591 5        33.000                                                                                                  
R07  21903750.482 6 117251676.772 6        41.000    21903757.362 7  91195752.018 7        44.000                                                  
R12  22788682.163 6 121732202.390 6        40.000    22788687.577 6  94680599.233 6        41.000                                                  
R13  20499983.822 5 109468572.811 5        34.000    20499986.145 6  85142221.881 6        36.000                                                  
R14  21756693.123 7 115976119.494 7        42.000    21756698.233 7  90203047.968 7        42.000                                                  
R21  23697033.521 6 126807768.433 6        36.000    23697037.702 6  98628370.751 6        37.000                                                  
R22  20042391.738 5 106987075.960 5        35.000    20042394.650 5  83212170.129 5        31.000                                                  
R23  20332605.738 7 108765487.728 7        43.000                                                                                                  
R24  23713681.554 6 126807020.851 6        37.000    23713685.413 6  98627684.129 6        38.000                                                  
C02                                                  39905396.747 6 160682796.186 6        39.000  
C05                                                  38941942.700 6 156802439.511 6        40.000  
C08                                                  37669312.207 7 151678641.427 7        43.000  
C11                                                  22031166.766 8  88710364.945 8        48.000  
C12                                                  25867074.098 6 104156084.136 6        39.000  
C13                                                  36739350.946 7 147933737.648 7        44.000  
C14                                                  25617799.995 7 103152716.864 7        42.000  
> 2021 11 07 00 16  0.0000000  0 25                     
G05  21601606.443 7 113517654.874 7        45.000                                                    21601612.822 7  88455319.905 7        43.000                                                  
G16  23224930.307 6 122047407.525 6        38.000    23224935.775 3  95101656.765 3        20.000                                                                                                  
G18  20769131.763 7 109142937.458 7        45.000                                                    20769139.179 8  85046449.345 8        48.000                                                  
G20  23222041.494 6 122033163.081 6        38.000    23222047.051 3  95090781.350 3        20.000                                                                                                  
G23  24508755.422 6 128794190.742 6        36.000                                                    24508763.409 7 100359110.089 7        42.000                                                  
G25  24494002.488 5 128716884.937 5        34.000                                                    24494013.156 6 100298870.427 6        38.000                                                  
G26  21305356.179 7 111960174.762 7        44.000                                                    21305365.900 7  87241694.697 7        46.000                                                  
G29  21038100.943 7 110555692.008 7        45.000                                                    21038107.947 7  86147297.620 7        45.000                                                  
G31  25137980.150 6 132101437.984 6        36.000                                                    25137987.387 5 102936181.598 5        35.000                                                  
R06  21622800.159 5 115382673.879 5        32.000                                                                                                  
R07  21869705.151 6 117069423.443 6        41.000    21869710.190 7  91053999.450 7        43.000                                                  
R12  22838710.352 6 121999437.756 6        41.000    22838713.891 6  94888448.915 6        39.000                                                  
R13  20521031.798 5 109580959.821 5        35.000    20521033.388 6  85229633.955 6        37.000                                                  
R14  21728490.730 7 115825780.380 7        42.000    21728494.643 6  90086117.607 6        39.000                                                  
R21  23739250.517 6 127033677.129 6        37.000    23739254.734 6  98804077.463 6        38.000                                                  
R22  20066063.172 5 107113430.774 5        35.000    20066065.227 5  83310446.081 5        32.000                                                  
R23  20306703.714 7 108626924.886 7        44.000                                                                                                  
R24  23671794.527 6 126583038.789 6        38.000    23671799.423 6  98453475.991 6        38.000                                                  
C02                                                  39905146.151 6 160681483.195 6        40.000  
C05                                                  38941385.455 6 156800195.714 6        40.000  
C08                                                  37679249.582 7 151718656.797 7        42.000  
C11                                                  22048489.729 8  88780117.137 8        48.000  
C12                                                  25902149.650 6 104297322.034 6        40.000  
C13                                                  36745600.315 7 147958901.178 7        43.000  
C14                                                  25578629.882 6 102994997.697 6        41.000  
> 2021 11 07 00 17  0.0000000  0 24                     
G05  21610690.840 7 113565395.447 7        44.000                                                    21610697.416 7  88492520.366 7        44.000                                                  
G16  23190796.989 6 121868036.533 6        39.000    23190803.386 3  94961887.170 3        22.000                                                                                                  
G18  20748124.350 7 109032541.474 7        45.000                                                    20748131.408 8  84960426.539 8        48.000                                                  
G20  23252107.483 6 122191161.056 6        40.000    23252112.718 3  95213896.660 3        20.000                                                                                                  
G23  24464346.111 5 128560817.298 5        34.000                                                    24464354.134 6 100177260.707 6        40.000                                                  
G25  24539422.811 5 128955573.773 5        34.000                                                    24539433.800 6 100484861.694 6        36.000                                                  
G26  21300236.258 7 111933268.643 7        44.000                                                    21300245.496 7  87220728.878 7        46.000                                                  
G29  21059851.886 7 110669995.092 7        44.000                                                    21059859.355 7  86236364.954 7        45.000                                                  
G31  25175479.528 5 132298500.962 5        34.000                                                    25175487.426 5 103089737.064 5        35.000                                                  
R06  21630972.753 5 115426304.318 5        31.000                                                                                                  
R07  21836081.940 6 116889433.706 6        41.000    21836086.782 7  90914007.474 7        45.000                                                  
R12  22888875.365 6 122267415.928 6        40.000    22888880.726 6  95096876.345 6        40.000                                                  
R13  20542650.439 6 109696406.591 6        36.000    20542652.940 6  85319425.869 6        37.000                                                  
R14  21700785.828 7 115678103.246 7        42.000    21700790.689 6  89971257.599 6        41.000                                                  
R21  23781497.909 6 127259753.319 6        37.000    23781501.215 6  98979914.491 6        36.000                                                  
R22  20090022.279 5 107241314.066 5        34.000    20090021.511 5  83409910.852 5        32.000                                                  
R23  20281089.452 7 108489908.101 7        44.000                                                                                                  
R24  23629978.029 6 126359420.455 6        38.000    23629981.781 6  98279550.759 6        38.000                                                  
C05                                                  38940830.389 6 156797959.625 6        40.000  
C08                                                  37689228.805 7 151758838.859 7        44.000  
C11                                                  22066025.316 7  88850726.428 7        47.000  
C12                                                  25937261.709 6 104438701.032 6        40.000  
C13                                                  36751901.629 7 147984274.551 7        43.000  
C14                                                  25539517.396 6 102837508.689 6        41.000  
> 2021 11 07 00 18  0.0000000  0 25                     
G05  21620258.916 7 113615675.452 7        43.000                                                    21620265.545 7  88531699.583 7        44.000                                                  
G16  23156947.841 6 121690152.010 6        38.000    23156952.702 3  94823275.819 3        21.000                                                                                                  
G18  20727444.530 7 108923870.287 7        44.000                                                    20727451.660 8  84875747.719 8        48.000                                                  
G20  23282470.848 6 122350718.793 6        38.000    23282476.370 3  95338227.370 3        20.000                                                                                                  
G23  24419986.386 5 128327709.091 5        35.000                                                    24419994.588 6  99995618.028 6        40.000                                                  
G25  24584885.536 5 129194478.713 5        35.000                                                    24584896.329 6 100671021.337 6        40.000                                                  
G26  21295568.636 7 111908737.775 7        44.000                                                    21295577.589 7  87201613.930 7        45.000                                                  
G29  21081893.183 7 110785823.053 7        44.000                                                    21081900.045 7  86326620.492 7        45.000                                                  
G31  25213045.093 5 132495910.160 5        33.000                                                    25213053.670 6 103243562.407 6        36.000                                                  
R06  21639769.101 5 115473228.291 5        32.000                                                                                                  
R07  21802885.995 6 116711741.203 6        41.000    21802891.570 7  90775802.245 7        43.000                                                  
R12  22939175.432 6 122536106.461 6        40.000    22939180.024 6  95305857.825 6        39.000                                                  
R13  20564839.405 5 109814892.836 5        35.000    20564842.050 6  85411581.800 6        37.000                                                  
R14  21673587.103 7 115533115.917 7        42.000    21673591.820 6  89858489.683 6        41.000                                                  
R21  23823775.338 6 127485988.348 6        36.000    23823779.770 6  99155875.038 6        37.000                                                  
R22  20114260.984 5 107370714.891 5        35.000    20114262.878 5  83510555.971 5        32.000                                                  
R23  20255766.956 7 108354446.950 7        43.000                                                                                                  
R24  23588228.629 6 126136175.816 6        37.000    23588233.615 6  98105916.112 6        38.000                                                  
C02                                                  39904649.911 6 160679277.033 6        40.000  
C05                                                  38940276.789 6 156795732.375 6        39.000  
C08                                                  37699249.575 7 151799186.292 7        43.000  
C11                                                  22083773.670 8  88922190.130 8        48.000  
C12                                                  25972407.504 6 104580218.140 6        40.000  
C13                                                  36758255.086 7 148009856.558 7        44.000  
C14                                                  25500466.487 7 102680265.623 7        42.000  
> 2021 11 07 00 19  0.0000000  0 25                     
G05  21630308.508 7 113668487.040 7        43.000                                                    21630315.530 7  88572851.488 7        44.000                                                  
G16  23123383.205 6 121513775.550 6        37.000    23123389.852 3  94685839.612 3        18.000                                                                                                  
G18  20707095.090 7 108816930.834 7        45.000                                                    20707101.952 8  84792418.290 8        48.000                                                  
G20  23313126.730 6 122511817.091 6        40.000    23313131.590 3  95463758.471 3        21.000                                                                                                  
G23  24375681.627 6 128094886.881 6        36.000                                                    24375689.668 6  99814198.140 6        39.000                                                  
G25  24630384.482 5 129433581.954 5        33.000                                                    24630395.793 6 100857335.478 6        40.000                                                  
G26  21291352.994 7 111886586.921 7        44.000                                                    21291362.983 7  87184353.527 7        46.000                                                  
G29  21104223.297 7 110903169.254 7        44.000                                                    21104230.337 7  86418059.099 7        45.000                                                  
G31  25250672.984 5 132693641.837 5        35.000                                                    25250680.364 6 103397638.937 6        36.000                                                  
R06  21649179.322 5 115523437.501 5        32.000                                                                                                  
R07  21770126.697 6 116536378.169 6        41.000    21770133.291 7  90639408.797 7        45.000                                                  
R12  22989602.654 6 122805477.023 6        40.000    22989606.818 6  95515368.171 6        39.000                                                  
R13  20587592.103 5 109936397.948 5        34.000    20587595.213 6  85506085.741 6        36.000                                                  
R14  21646898.269 7 115390844.685 7        43.000    21646902.022 6  89747834.265 6        40.000                                                  
R21  23866081.537 6 127712373.232 6        38.000    23866084.646 6  99331952.156 6        37.000                                                  
R22  20138783.734 5 107501620.014 5        34.000    20138786.736 5  83612371.041 5        32.000                                                  
R23  20230736.136 7 108220550.169 7        43.000                                                                                                  
R24  23546552.350 6 125913314.733 6        38.000    23546558.050 6  97932579.789 6        37.000                                                  
C02                                                  39904404.140 6 160677966.159 6        40.000  
C05                                                  38939726.191 6 156793514.083 6        40.000  
C08                                                  37709310.943 7 151839696.903 7        45.000  
C11                                                  22101732.788 8  88994504.594 8        48.000  
C12                                                  26007586.285 6 104721869.330 6        41.000  
C13                                                  36764659.736 7 148035645.229 7        44.000  
C14                                                  25461479.727 7 102523283.580 7        42.000  
> 2021 11 07 00 20  0.0000000  0 24                     
G05  21640838.044 7 113723819.968 7        43.000                                                    21640844.191 7  88615968.071 7        44.000                                                  
G16  23090110.423 6 121338927.310 6        37.000    23090116.963 3  94549594.207 3        20.000                                                                                                  
G18  20687075.834 7 108711728.435 7        45.000                                                    20687082.696 8  84710442.414 8        48.000                                                  
G20  23344072.089 6 122674435.722 6        38.000    23344077.950 3  95590474.259 3        20.000                                                                                                  
G23  24331435.692 6 127862369.868 6        37.000                                                    24331443.644 6  99633016.121 6        40.000                                                  
G25  24675918.720 5 129672863.816 5        34.000                                                    24675930.102 6 101043788.833 6        39.000                                                  
G26  21287591.440 7 111866819.188 7        44.000                                                    21287601.018 7  87168950.076 7        45.000                                                  
G29  21126841.263 7 111022025.399 7        44.000                                                    21126848.250 7  86510674.263 7        45.000                                                  
G31  25288355.752 5 132891671.457 5        33.000                                                    25288364.347 6 103551947.673 6        36.000                                                  
R06  21659199.430 5 115576921.856 5        31.000                                                                                                  
R07  21737808.889 7 116363375.293 7        42.000    21737813.964 7  90504851.035 7        44.000                                                  
R12  23040150.225 6 123075494.164 6        38.000    23040154.764 6  95725381.424 6        38.000                                                  
R13  20610907.515 5 110060898.352 5        35.000    20610910.142 6  85602919.342 6        36.000                                                  
R14  21620722.402 7 115251313.920 7        43.000    21620726.548 7  89639310.301 7        42.000                                                  
R21  23908412.162 6 127938897.049 6        38.000    23908416.719 6  99508137.320 6        38.000                                                  
R22  20163587.457 5 107634015.335 5        35.000    20163588.636 5  83715345.177 5        31.000                                                  
R23  20205998.242 7 108088224.829 7        44.000                                                                                                  
R24  23504950.298 6 125690844.778 6        38.000    23504954.944 6  97759547.690 6        39.000                                                  
C05                                                  38939177.183 6 156791303.942 6        40.000  
C08                                                  37719410.943 7 151880367.269 7        43.000  
C11                                                  22119902.154 8  89067665.122 8        48.000  
C12                                                  26042797.463 6 104863649.824 6        41.000  
C13                                                  36771115.010 7 148061637.683 7        44.000  
C14                                                  25422562.585 7 102366576.255 7        43.000  
> 2021 11 07 00 21  0.0000000  0 26                     
G05  21651845.684 7 113781665.640 7        44.000                                                    21651852.188 7  88661042.626 7        43.000                                                  
G15  25487943.857 5 133940426.561 5        31.000                                                    25487953.203 5 104369163.679 5        35.000                                                  
G16  23057133.999 6 121165629.423 6        39.000    23057139.574 3  94414556.891 3        20.000                                                                                                  
G18  20667388.084 7 108608270.259 7        45.000                                                    20667395.464 7  84629825.679 7        47.000                                                  
G20  23375303.567 6 122838555.850 6        37.000    23375308.053 3  95718360.067 3        20.000                                                                                                  
G23  24287250.977 5 127630179.081 5        35.000                                                    24287259.000 6  99452088.288 6        40.000                                                  
G25  24721482.566 5 129912306.816 5        32.000                                                    24721494.628 6 101230367.740 6        40.000                                                  
G26  21284283.634 7 111849439.049 7        44.000                                                    21284293.372 7  87155407.110 7        46.000                                                  
G29  21149745.062 7 111142384.973 7        44.000                                                    21149751.745 7  86604460.935 7        45.000                                                  
G31  25326092.519 5 133089977.438 5        32.000                                                    25326100.989 5 103706471.733 5        35.000                                                  
R06  21669838.00315 115634630.84015        33.0001                                                                                                 
R07  21705938.182 7 116192764.719 7        42.000    21705943.382 7  90372153.947 7        44.000                                                  
R12  23090813.372 6 123346126.013 6        38.000    23090817.750 6  95935872.812 6        37.000                                                  
R13  20634779.601 6 110188372.129 6        36.000    20634782.692 6  85702065.583 6        36.000                                                  
R14  21595065.201 7 115114549.738 7        43.000    21595070.294 7  89532938.168 7        42.000                                                  
R21  23950766.660 5 128165550.502 5        35.000    23950770.913 6  99684423.290 6        37.000                                                  
R22  20188665.076 5 107767888.997 5        35.000    20188667.434 5  83819469.138 5        33.000                                                  
R23  20181557.636 7 107957479.352 7        43.000                                                                                                  
R24  23463421.706 6 125468775.585 6        38.000    23463426.012 6  97586827.294 6        38.000                                                  
C02                                                  39903915.869 6 160676935.473 6        37.000  
C05                                                  38938630.748 6 156789102.533 6        41.000  
C08                                                  37729550.363 7 151921195.763 7        43.000  
C11                                                  22138280.748 8  89141668.160 8        48.000  
C12                                                  26078039.679 7 105005555.936 7        42.000  
C13                                                  36777620.425 7 148087831.895 7        44.000  
C14                                                  25383715.437 7 102210158.962 7        42.000  
> 2021 11 07 00 22  0.0000000  0 26                     
G05  21663329.676 7 113842014.773 7        44.000                                                    21663336.305 7  88708067.920 7        44.000                                                  
G15  25448858.17515 133735311.90315        30.0001                                                   25448867.34215 104209332.84815        33.0001                                                 
G16  23024456.059 6 120993902.696 6        40.000    23024460.597 3  94280743.859 3        23.000                                                                                                  
G18  20648033.502 7 108506562.327 7        45.000                                                    20648040.471 8  84550572.763 8        48.000                                                  
G20  23406814.875 6 123004157.160 6        37.000    23406821.039 3  95847400.076 3        19.000                                                                                                  
G23  24243132.860 6 127398335.154 6        36.000                                                    24243139.864 6  99271430.705 6        39.000                                                  
G25  24767075.20015 130151521.28815        35.0001                                                   24767086.58216 101416769.66916        39.0001                                                 
G26  21281432.595 7 111834449.919 7        44.000                                                    21281441.262 7  87143727.270 7        46.000                                                  
G29  21172933.746 7 111264241.218 7        44.000                                                    21172940.840 7  86699413.865 7        46.000                                                  
G31  25363875.42515 133287315.89215        32.0001                                                   25363885.39615 103860246.55215        35.0001                                                 
R06  21681079.44115 115694253.92215        32.0001                                                                                                 
R07  21674518.204 6 116024577.330 6        41.000    21674524.101 7  90241341.597 7        43.000                                                  
R12  23141584.306 6 123617340.416 6        38.000    23141590.256 6  96146817.299 6        39.000                                                  
R13  20659204.143 5 110318795.945 5        35.000    20659206.430 6  85803506.297 6        36.000                                                  
R14  21569931.402 7 114980576.865 7        42.000    21569937.049 6  89428737.074 6        41.000                                                  
R21  23993146.390 5 128392324.775 5        35.000    23993149.463 6  99860803.227 6        36.000                                                  
R22  20214018.182 5 107903227.803 5        35.000    20214020.540 5  83924732.657 5        32.000                                                  
R23  20157413.763 7 107828322.062 7        44.000                                                                                                  
R24  23421969.111 6 125247116.385 6        38.000    23421975.079 6  97414425.769 6        38.000                                                  
C02                                                  39903674.923 6 160675659.916 6        39.000  
C05                                                  38938085.850 6 156786909.635 6        40.000  
C08                                                  37739728.558 7 151962179.757 7        43.000  
C11                                                  22156868.230 8  89216509.989 8        48.000  
C12                                                  26113312.326 7 105147583.613 7        42.000  
C13                                                  36784175.175 7 148114225.792 7        43.000  
C14                                                  25344944.857 7 102054046.417 7        43.000  
> 2021 11 07 00 23  0.0000000  0 25                     
G05  21675288.519 7 113904856.837 7        43.000                                                    21675294.595 7  88757035.784 7        44.000                                                  
G15  25409804.568 4 133528810.595 4        29.000                                                    25409813.038 5 104048423.997 5        34.000                                                  
G16  22992080.123 6 120823768.800 6        39.000    22992085.519 3  94148171.978 3        21.000                                                                                                  
G18  20629013.481 7 108406611.246 7        46.000                                                    20629020.343 8  84472688.813 8        48.000                                                  
G20  23438606.761 6 123171221.233 6        38.000    23438613.891 3  95977579.800 3        20.000                                                                                                  
G23  24199084.164 6 127166858.891 6        37.000                                                    24199091.633 7  99091059.657 7        42.000                                                  
G25  24812688.311 5 130391231.813 5        32.000                                                    24812702.070 6 101603557.051 6        39.000                                                  
G26  21279035.216 7 111821855.436 7        43.000                                                    21279044.365 7  87133913.388 7        46.000                                                  
G29  21196404.994 7 111387586.822 7        44.000                                                    21196412.320 7  86795527.307 7        45.000                                                  
G31  25401705.969 5 133486104.461 5        34.000                                                    25401713.385 6 104015146.737 6        37.000                                                  
R06  21692934.144 5 115757503.696 5        33.000                                                                                                  
R07  21643559.871 7 115858844.377 7        43.000    21643563.695 7  90112438.217 7        43.000                                                  
R12  23192461.828 6 123889106.166 6        39.000    23192464.794 6  96358190.543 6        39.000                                                  
R13  20684177.175 5 110452146.847 5        35.000    20684179.658 6  85907223.637 6        37.000                                                  
R14  21545327.669 7 114849420.136 7        42.000    21545332.744 6  89326726.278 6        41.000                                                  
R21  24035546.740 6 128619210.649 6        37.000    24035548.956 6 100037270.010 6        37.000                                                  
R22  20239643.290 5 108040019.569 5        35.000    20239647.328 5  84031126.232 5        32.000                                                  
R23  20133566.658 7 107700761.456 7        44.000                                                                                                  
R24  23380597.909 6 125025876.645 6        39.000    23380601.733 6  97242350.506 6        39.000                                                  
C05                                                  38937543.668 6 156784725.758 6        40.000  
C08                                                  37749945.637 7 152003317.265 7        43.000  
C11                                                  22175662.029 8  89292186.993 8        48.000  
C12                                                  26148613.492 6 105289729.237 6        40.000  
C13                                                  36790778.905 7 148140817.557 7        43.000  
C14                                                  25306253.794 7 101898253.875 7        42.000  
> 2021 11 07 00 24  0.0000000  0 26                     
G05  21687718.784 7 113970181.479 7        43.000                                                    21687725.592 7  88807938.103 7        43.000                                                  
G15  25370787.645 5 133324970.591 5        33.000                                                    25370796.491 5 103889587.683 5        35.000                                                  
G16  22960010.337 6 120655247.004 6        39.000    22960016.645 3  94016856.240 3        22.000                                                                                                  
G18  20610329.202 7 108308422.025 7        44.000                                                    20610335.474 8  84396177.753 8        48.000                                                  
G20  23470673.098 6 123339727.374 6        38.000    23470678.995 3  96108883.247 3        20.000                                                                                                  
G23  24155108.427 6 126935770.062 6        38.000                                                    24155116.753 6  98910990.516 6        41.000                                                  
G25  24858325.653 5 130631048.137 5        32.000                                                    24858337.142 6 101790426.831 6        40.000                                                  
G26  21277094.515 7 111811657.474 7        44.000                                                    21277103.860 7  87125966.903 7        46.000                                                  
G29  21220158.554 7 111512413.801 7        45.000                                                    21220165.487 7  86892795.071 7        44.000                                                  
G31  25439572.770 5 133685098.391 5        32.000                                                    25439581.114 6 104170206.864 6        36.000                                                  
R06  21705392.623 5 115823985.191 5        32.000                                                                                                  
R07  21613061.988 7 115695595.628 7        42.000    21613066.741 7  89985467.028 7        42.000                                                  
R12  23243433.555 6 124161389.909 6        40.000    23243437.147 6  96569966.744 6        39.000                                                  
R13  20709692.478 5 110588398.644 5        35.000    20709694.836 6  86013197.229 6        37.000                                                  
R14  21521255.254 7 114721102.939 7        43.000    21521260.079 7  89226924.004 7        42.000                                                  
R21  24077964.316 5 128846197.854 5        35.000    24077967.336 5 100213815.610 5        35.000                                                  
R22  20265540.061 5 108178250.263 5        34.000    20265543.134 5  84138639.010 5        32.000                                                  
R23  20110021.165 7 107574804.286 7        45.000                                                                                                  
R24  23339305.599 6 124805065.222 6        39.000    23339309.262 6  97070608.307 6        38.000                                                  
C02                                                  39903195.390 6 160673014.326 6        39.000  
C05                                                  38937003.005 6 156782550.187 6        40.000  
C08                                                  37760199.222 7 152044605.062 7        44.000  
C11                                                  22194662.661 7  89368694.671 7        47.000  
C12                                                  26183943.642 6 105431988.100 6        40.000  
C13                                                  36797431.417 7 148167604.240 7        43.000  
C14                                                  25267645.947 7 101742795.355 7        42.000  
> 2021 11 07 00 25  0.0000000  0 27                     
G05  21700620.451 7 114037978.917 7        43.000                                                    21700627.098 7  88860767.278 7        44.000                                                  
G13  25468756.512 5 133839035.804 5        31.000                                                                                                                                                  
G15  25331812.733 5 133120153.448 5        34.000                                                    25331820.631 5 103729989.959 5        35.000                                                  
G16  22928254.278 6 120488361.289 6        39.000    22928260.014 3  93886815.476 3        22.000                                                                                                  
G18  20591980.396 7 108212001.825 7        45.000                                                    20591987.508 7  84321045.145 7        47.000                                                  
G20  23503008.918 6 123509657.608 6        38.000    23503015.708 3  96241296.430 3        22.000                                                                                                  
G23  24111212.189 6 126705090.666 6        38.000                                                    24111219.694 7  98731240.391 7        43.000                                                  
G25  24903979.23715 130871833.64215        33.0001                                                   24903989.01216 101978051.13616        38.0001                                                 
G26  21275610.653 7 111803859.940 7        44.000                                                    21275619.802 7  87119890.896 7        45.000                                                  
G29  21244193.319 7 111638716.373 7        44.000                                                    21244200.288 7  86991212.673 7        45.000                                                  
G31  25477475.66615 133884226.43615        34.0001                                                   25477482.93816 104325371.25716        36.0001                                                 
R06  21718453.86115 115893344.77015        32.0001                                                                                                 
R07  21583036.472 7 115534862.410 7        43.000    21583040.618 7  89860452.326 7        42.000                                                  
R12  23294497.755 6 124434161.337 6        39.000    23294500.203 6  96782122.229 6        40.000                                                  
R13  20735745.620 5 110727529.763 5        35.000    20735749.426 5  86121410.278 5        35.000                                                  
R14  21497721.179 7 114595650.246 7        43.000    21497725.700 7  89129349.675 7        42.000                                                  
R21  24120397.939 5 129073278.839 5        33.000    24120402.084 6 100390434.117 6        36.000                                                  
R22  20291702.347 6 108317908.812 6        36.000    20291704.420 5  84247262.333 5        33.000                                                  
R23  20086774.638 7 107450460.118 7        44.000                                                                                                  
R24  23298092.609 6 124584692.193 6        38.000    23298098.184 6  96899207.178 6        39.000                                                  
C02                                                  39902957.71416 160672141.30216        39.0001 
C05                                                  38936465.201 6 156780384.059 6        40.000  
C08                                                  37770490.582 7 152086042.159 7        43.000  
C11                                                  22213869.020 7  89446030.061 7        47.000  
C12                                                  26219300.363 6 105574357.332 6        40.000  
C13                                                  36804131.944 7 148194585.004 7        43.000  
C14                                                  25229124.855 7 101587686.807 7        43.000  
> 2021 11 07 00 26  0.0000000  0 27                     
G05  21713990.107 7 114108236.687 7        43.000                                                    21713996.683 7  88915513.604 7        44.000                                                  
G13  25434039.287 5 133657270.150 5        31.000                                                                                                                                                  
G15  25292882.458 5 132915579.042 5        31.000                                                    25292891.625 5 103570581.320 5        34.000                                                  
G16  22896811.338 6 120323129.659 6        40.000    22896817.020 3  93758063.549 3        23.000                                                                                                  
G18  20573969.958 7 108117354.836 7        45.000                                                    20573976.694 8  84247294.254 8        48.000                                                  
G20  23535613.595 6 123680990.734 6        37.000    23535619.581 3  96374802.733 3        20.000                                                                                                  
G23  24067396.648 6 126474839.980 6        37.000                                                    24067404.832 7  98551824.394 7        42.000                                                  
G25  24949643.436 5 131111808.893 5        32.000                                                    24949655.337 6 102165044.733 6        38.000                                                  
G26  21274583.631 7 111798463.534 7        45.000                                                    21274593.513 7  87115685.897 7        45.000                                                  
G29  21268507.395 7 111766485.852 7        45.000                                                    21268514.560 7  87090773.285 7        44.000                                                  
G31  25515408.778 5 134083565.416 5        32.000                                                    25515416.908 6 104480700.239 6        36.000                                                  
R06  21732118.374 5 115966253.758 5        33.000                                                                                                  
R07  21553484.896 6 115376673.387 6        41.000    21553490.257 7  89737416.452 7        43.000                                                  
R12  23345644.009 6 124707387.334 6        38.000    23345649.638 6  96994631.257 6        38.000                                                  
R13  20762336.031 5 110869512.556 5        35.000    20762338.050 6  86231841.311 6        36.000                                                  
R14  21474726.963 7 114473083.739 7        43.000    21474732.681 6  89034020.177 6        41.000                                                  
R21  24162849.680 5 129300443.095 5        33.000    24162853.415 6 100567117.352 6        36.000                                                  
R22  20318129.524 5 108458981.361 5        35.000    20318132.794 5  84356985.420 5        31.000                                                  
R23  20063834.047 7 107327735.472 7        44.000                                                                                                  
R24  23256965.820 6 124364766.054 6        38.000    23256971.324 6  96728153.607 6        39.000                                                  
C02                                                  39902722.34416 160672172.58116        39.0001 
C05                                                  38935929.434 6 156778226.235 6        40.000  
C08                                                  37780816.554 7 152127624.932 7        42.000  
C11                                                  22233279.550 7  89524188.334 7        47.000  
C12                                                  26254683.745 6 105716831.959 6        40.000  
C13                                                  36810880.484 7 148221756.479 7        44.000  
C14                                                  25190693.375 7 101432942.148 7        43.000  
> 2021 11 07 00 27  0.0000000  0 26                     
G05  21727825.538 7 114180943.254 7        44.000                                                    21727832.203 7  88972168.079 7        44.000                                                  
G13  25399461.85215 133475576.77215        30.0001                                                                                                                                                 
G16  22865687.753 6 120159574.358 6        39.000    22865692.452 3  93630617.840 3        22.000                                                                                                  
G18  20556298.352 7 108024487.369 7        44.000                                                    20556304.606 8  84174930.015 8        48.000                                                  
G20  23568480.017 6 123853707.371 6        38.000    23568486.486 3  96509387.116 3        20.000                                                                                                  
G23  24023667.700 6 126245039.524 6        37.000                                                    24023675.348 7  98372759.136 7        43.000                                                  
G25  24995319.64315 131351277.67615        32.0001                                                   24995331.66916 102351644.26716        38.0001                                                 
G26  21274014.681 7 111795470.743 7        44.000                                                    21274023.848 7  87113353.843 7        46.000                                                  
G29  21293098.673 7 111895715.515 7        45.000                                                    21293105.338 7  87191471.731 7        44.000                                                  
G31  25553367.658 5 134283042.881 5        33.000                                                    25553375.288 5 104636137.188 5        35.000                                                  
R06  21746377.461 5 116042356.618 5        33.000                                                                                                  
R07  21524414.158 7 115221058.896 7        42.000    21524419.894 7  89616383.008 7        44.000                                                  
R12  23396871.782 6 124981037.274 6        38.000    23396877.071 6  97207469.999 6        41.000                                                  
R13  20789453.417 5 111014323.141 5        34.000    20789456.776 6  86344471.727 6        36.000                                                  
R14  21452280.290 7 114353427.573 7        43.000    21452285.168 7  88940954.284 7        42.000                                                  
R21  24205313.912 5 129527682.682 5        34.000    24205318.058 6 100743859.300 6        36.000                                                  
R22  20344819.019 5 108601455.230 5        35.000    20344822.771 5  84467798.417 5        33.000                                                  
R23  20041195.639 7 107206638.650 7        43.000                                                                                                  
R24  23215925.266 6 124145296.261 6        38.000    23215928.251 6  96557454.975 6        39.000                                                  
C02                                                  39902487.90216 160671040.96516        38.0001 
C05                                                  38935395.615 6 156776077.473 6        40.000  
C08                                                  37791179.640 7 152169351.694 7        43.000  
C11                                                  22252893.608 8  89603166.208 8        48.000  
C12                                                  26290093.554 6 105859408.740 6        40.000  
C13                                                  36817675.734 7 148249117.262 7        44.000  
C14                                                  25152357.298 7 101278576.771 7        43.000  
> 2021 11 07 00 28  0.0000000  0 25                     
G05  21742125.205 7 114256087.794 7        44.000                                                    21742131.513 7  89030722.277 7        43.000                                                  
G16  22834886.882 6 119997715.647 6        39.000    22834893.744 3  93504494.183 3        23.000                                                                                                  
G18  20538964.917 7 107933404.153 7        44.000                                                    20538971.993 8  84103956.094 8        49.000                                                  
G20  23601606.738 6 124027787.173 6        38.000    23601612.474 3  96645033.663 3        19.000                                                                                                  
G23  23980027.096 6 126015709.710 6        38.000                                                    23980034.423 6  98194060.691 6        41.000                                                  
G25  25041002.35415 131590968.69915        33.0001                                                   25041013.54016 102538417.48116        37.0001                                                 
G26  21273902.053 7 111794882.541 7        45.000                                                    21273911.899 7  87112895.504 7        46.000                                                  
G29  21317966.796 7 112026396.630 7        44.000                                                    21317973.425 7  87293301.158 7        45.000                                                  
G31  25591348.605 5 134482635.744 5        34.000                                                    25591357.451 5 104791664.053 5        35.000                                                  
R06  21761237.394 5 116121638.311 5        33.000                                                                                                  
R07  21495832.674 7 115068047.690 7        43.000    21495835.747 7  89497374.334 7        42.000                                                  
R12  23448174.479 6 125255078.944 6        38.000    23448177.767 6  97420613.439 6        40.000                                                  
R13  20817096.170 5 111161934.005 5        34.000    20817098.689 5  86459280.139 5        35.000                                                  
R14  21430384.429 7 114236703.327 7        44.000    21430387.859 7  88850168.762 7        42.000                                                  
R21  24247794.10215 129754318.20915        31.0001   24247796.13916 100920025.41516        36.0001                                                 
R22  20371770.151 5 108745318.259 5        34.000    20371773.707 5  84579691.884 5        33.000                                                  
R23  20018864.042 7 107087177.299 7        43.000                                                                                                  
R24  23174969.537 6 123926291.982 6        38.000    23174973.808 6  96387118.422 6        40.000                                                  
C02                                                  39902255.086 6 160669830.852 6        40.000  
C05                                                  38934864.262 6 156773937.342 6        40.000  
C08                                                  37801577.875 7 152211219.992 7        43.000  
C11                                                  22272710.515 8  89682959.458 8        48.000  
C12                                                  26325526.630 6 106002083.551 6        41.000  
C13                                                  36824517.336 7 148276664.867 7        43.000  
C14                                                  25114118.375 7 101124605.146 7        42.000  
> 2021 11 07 00 29  0.0000000  0 27                     
G05  21756885.983 7 114333658.377 7        43.000                                                    21756892.791 7  89091166.923 7        43.000                                                  
G13  25330745.756 5 133113794.589 5        32.000                                                                                                                                                  
G15  25176420.922 5 132303023.542 5        32.000                                                    25176427.819 6 103093264.990 6        36.000                                                  
G16  22804413.729 6 119837574.375 6        39.000    22804418.929 3  93379708.781 3        23.000                                                                                                  
G18  20521973.352 7 107844110.866 7        45.000                                                    20521980.357 8  84034376.918 8        48.000                                                  
G20  23634988.360 6 124203211.009 6        37.000    23634994.561 3  96781727.568 3        20.000                                                                                                  
G23  23936480.645 6 125786871.354 6        37.000                                                    23936488.989 7  98015745.189 7        42.000                                                  
G25  25086687.174 5 131831047.422 5        32.000                                                    25086699.611 6 102725491.700 6        38.000                                                  
G26  21274247.890 7 111796700.450 7        44.000                                                    21274257.772 7  87114312.036 7        46.000                                                  
G29  21343109.494 7 112158522.714 7        44.000                                                    21343116.463 7  87396256.530 7        44.000                                                  
G31  25629345.689 5 134682321.168 5        31.000                                                    25629355.713 5 104947263.029 5        34.000                                                  
R06  21776689.382 5 116204084.901 5        32.000                                                                                                  
R07  21467738.156 7 114917668.498 7        43.000    21467743.963 7  89380412.747 7        43.000                                                  
R12  23499543.114 6 125529481.714 6        39.000    23499547.384 6  97634037.709 6        38.000                                                  
R13  20845258.429 5 111312319.900 5        35.000    20845262.468 5  86576246.937 5        35.000                                                  
R14  21409040.167 7 114122933.127 7        43.000    21409044.884 7  88761680.826 7        43.000                                                  
R21  24290281.367 5 129981681.541 5        34.000    24290285.780 5 101096863.449 5        34.000                                                  
R22  20398979.866 5 108890557.701 5        34.000    20398980.849 5  84692655.892 5        32.000                                                  
R23  19996838.416 7 106969359.342 7        43.000                                                                                                  
R24  23134105.029 6 123707762.701 6        38.000    23134107.192 6  96217151.273 6        37.000                                                  
C02                                                  39902023.98616 160668683.97816        38.0001 
C05                                                  38934334.588 6 156771806.351 6        39.000  
C08                                                  37812010.454 7 152253227.828 7        43.000  
C11                                                  22292728.181 7  89763564.435 7        47.000  
C12                                                  26360983.97116 106144172.70916        40.0001 
C13                                                  36831404.558 7 148304397.451 7        44.000  
C14                                                  25075981.503 7 100971042.604 7        44.000  
> 2021 11 07 00 30  0.0000000  0 25                     
G05  21772106.638 7 114413641.141 7        43.000                                                    21772113.500 7  89153491.148 7        42.000                                                  
G13  25296614.314 5 132934441.172 5        32.000                                                                                                                                                  
G15  25137723.819 5 132099669.545 5        34.000                                                    25137730.377 5 102934807.345 5        34.000                                                  
G16  22774270.028 6 119679170.737 6        40.000    22774276.192 3  93256277.353 3        21.000                                                                                                  
G18  20505322.532 7 107756611.990 7        44.000                                                    20505329.572 7  83966195.992 7        47.000                                                  
G20  23668621.399 5 124379958.492 5        35.000    23668628.869 3  96919452.847 3        19.000                                                                                                  
G23  23893031.990 6 125558545.191 6        36.000                                                    23893039.477 6  97837828.784 6        39.000                                                  
G25  25132372.458 5 132071124.830 5        32.000                                                    25132384.162 5 102912564.914 5        35.000                                                  
G26  21275051.835 7 111800924.735 7        44.000                                                    21275061.377 7  87117603.680 7        45.000                                                  
G29  21368525.802 7 112292084.856 7        45.000                                                    21368532.664 7  87500330.914 7        44.000                                                  
G31  25667360.37315 134883339.47615        33.0001                                                   25667368.61115 105103901.29515        34.0001                                                 
R06  21792728.20615 116290266.27615        33.0001                                                                                                 
R07  21440142.327 7 114769949.188 7        42.000    21440147.956 7  89265520.009 7        43.000                                                  
R12  23550974.504 6 125804213.773 6        39.000    23550977.685 6  97847718.118 6        37.000                                                  
R13  20873935.674 5 111465453.786 5        34.000    20873939.033 5  86695351.043 5        35.000                                                  
R14  21388255.920 7 114012138.472 7        42.000    21388259.976 6  88675507.174 6        41.000                                                  
R22  20426442.321 5 109037160.885 5        34.000    20426444.573 5  84806680.575 5        32.000                                                  
R23  19975122.907 7 106853192.129 7        44.000                                                                                                  
R24  23093327.169 6 123489717.643 6        38.000    23093331.457 6  96047560.824 6        39.000                                                  
C05                                                  38933807.434 6 156769684.111 6        39.000  
C08                                                  37822477.145 7 152295372.608 7        42.000  
C11                                                  22312948.267 7  89844977.045 7        47.000  
C12                                                  26396463.202 6 106287032.186 6        38.000  
C13                                                  36838336.863 7 148332312.710 7        43.000  
C14                                                  25037949.485 7 100817903.785 7        42.000  
> 2021 11 07 00 31  0.0000000  0 27                     
G05  21787783.222 7 114496023.397 7        43.000                                                    21787789.833 7  89217685.142 7        42.000                                                  
G13  25262643.121 5 132755922.743 5        33.000                                                                                                                                                  
G15  25099096.281 6 131896682.725 6        36.000                                                    25099102.839 5 102776635.885 5        35.000                                                  
G16  22744460.870 6 119522524.610 6        41.000    22744467.106 4  93134215.429 4        24.000                                                                                                  
G18  20489014.708 7 107670911.785 7        44.000                                                    20489021.480 8  83899416.621 8        49.000                                                  
G20  23702504.069 6 124558009.225 6        38.000    23702510.752 3  97058193.658 3        19.000                                                                                                  
G23  23849683.688 6 125330751.270 6        37.000                                                    23849691.694 6  97660327.125 6        40.000                                                  
G25  25178055.133 5 132311182.445 5        34.000                                                    25178066.802 6 103099622.766 6        37.000                                                  
G26  21276314.014 7 111807555.001 7        44.000                                                    21276323.574 7  87122770.120 7        46.000                                                  
G29  21394214.113 7 112427074.689 7        45.000                                                    21394220.349 7  87605517.804 7        44.000                                                  
G31  25705381.830 5 135083143.161 5        30.000                                                    25705388.978 5 105259592.464 5        34.000                                                  
R06  21809353.545 5 116378993.975 5        33.000                                                                                                  
R07  21413050.065 7 114624917.895 7        43.000    21413054.711 7  89152717.918 7        43.000                                                  
R12  23602460.413 6 126079242.810 6        39.000    23602463.486 6  98061629.548 6        38.000                                                  
R13  20903121.649 5 111621306.770 5        33.000    20903124.740 5  86816569.980 5        35.000                                                  
R14  21368032.635 7 113904339.453 7        43.000    21368037.638 7  88591663.510 7        42.000                                                  
R21  24375283.416 5 130437303.712 5        31.000    24375287.508 5 101451235.391 5        34.000                                                  
R22  20454157.480 5 109185113.970 5        34.000    20454161.679 5  84921755.213 5        32.000                                                  
R23  19953716.264 7 106738682.402 7        43.000                                                                                                  
R24  23052645.068 6 123272165.327 6        39.000    23052648.659 6  95878353.629 6        39.000                                                  
C02                                                  39901564.431 6 160667488.918 6        38.000  
C05                                                  38933282.71116 156768226.35016        40.0001 
C08                                                  37832977.108 7 152337651.536 7        44.000  
C11                                                  22333365.306 7  89927192.882 7        47.000  
C12                                                  26431963.179 6 106429977.637 6        38.000  
C13                                                  36845314.377 7 148360408.011 7        43.000  
C14                                                  25000025.950 7 100665203.150 7        44.000  
> 2021 11 07 00 32  0.0000000  0 26                     
G05  21803914.518 7 114580793.890 7        43.000                                                    21803921.004 7  89283740.048 7        43.000                                                  
G13  25228835.84115 132578853.73015        31.0001                                                                                                                                                 
G15  25060543.971 5 131694091.397 5        34.000                                                    25060551.655 5 102618772.548 5        35.000                                                  
G16  22714991.134 6 119367658.094 6        40.000    22714997.138 3  93013540.220 3        23.000                                                                                                  
G18  20473049.736 7 107587016.706 7        45.000                                                    20473056.402 8  83834043.859 8        48.000                                                  
G20  23736630.561 6 124737344.810 6        36.000    23736636.940 3  97197935.605 3        18.000                                                                                                  
G23  23806442.297 6 125103512.338 6        38.000                                                    23806449.087 6  97483257.885 6        39.000                                                  
G25  25223729.160 5 132551204.567 5        33.000                                                    25223741.204 6 103286652.952 6        38.000                                                  
G26  21278033.103 7 111816593.143 7        43.000                                                    21278043.003 7  87129812.817 7        45.000                                                  
G29  21420171.532 7 112563487.037 7        44.000                                                    21420178.518 7  87711813.108 7        44.000                                                  
G31  25743406.80715 135283038.02015        32.0001                                                   25743416.51016 105415354.74416        36.0001                                                 
R06  21826566.70315 116470914.23715        31.0001                                                                                                 
R07  21386464.711 7 114482603.516 7        43.000    21386469.786 7  89042028.986 7        43.000                                                  
R12  23653995.979 6 126354540.528 6        40.000    23654000.464 6  98275749.897 6        37.000                                                  
R13  20932813.104 5 111779853.688 5        33.000    20932816.731 5  86939884.195 5        35.000                                                  
R14  21348376.335 7 113799558.405 7        44.000    21348380.998 6  88510167.131 6        41.000                                                  
R21  24417794.018 5 130664790.024 5        32.000    24417797.699 5 101628169.115 5        32.000                                                  
R22  20482125.020 5 109334407.206 5        34.000    20482129.880 5  85037872.151 5        32.000                                                  
R23  19932622.026 7 106625839.683 7        44.000                                                                                                  
R24  23012056.869 6 123055117.707 6        40.000    23012058.638 6  95709538.958 6        40.000                                                  
C02                                                  39901337.959 6 160666249.823 6        39.000  
C05                                                  38932759.577 6 156766122.444 6        39.000  
C08                                                  37843509.646 7 152380064.068 7        42.000  
C11                                                  22353983.049 8  90010209.455 8        48.000  
C13                                                  36852336.385 7 148388682.819 7        44.000  
C14                                                  24962215.348 7 100512957.067 7        42.000  
> 2021 11 07 00 33  0.0000000  0 26                     
G05  21820497.418 7 114667938.023 7        43.000                                                    21820504.029 7  89351644.588 7        43.000                                                  
G13  25195197.316 5 132402083.437 5        30.000                                                                                                                                                  
G15  25022071.929 6 131491919.694 6        36.000                                                    25022080.024 6 102461236.184 6        36.000                                                  
G16  22685862.679 6 119214590.565 6        40.000    22685869.541 3  92894266.837 3        23.000                                                                                                  
G18  20457429.208 7 107504930.227 7        45.000                                                    20457436.159 8  83770080.387 8        49.000                                                  
G20  23770997.749 6 124917944.736 6        37.000    23771004.325 3  97338662.821 3        19.000                                                                                                  
G23  23763309.013 6 124876848.168 6        38.000                                                    23763317.375 6  97306636.481 6        41.000                                                  
G25  25269393.788 5 132791172.503 5        32.000                                                    25269405.438 6 103473640.885 6        37.000                                                  
G26  21280212.213 7 111828037.747 7        44.000                                                    21280220.897 7  87138730.693 7        45.000                                                  
G29  21446398.790 7 112701311.888 7        43.000                                                    21446405.527 7  87819209.096 7        44.000                                                  
G31  25781435.287 5 135482872.995 5        34.000                                                    25781443.507 6 105571070.295 6        36.000                                                  
R06  21844360.05115 116564896.25415        31.0001                                                                                                 
R07  21360392.020 7 114343032.474 7        43.000    21360396.523 7  88933473.780 7        43.000                                                  
R12  23705576.058 6 126630074.572 6        38.000    23705580.239 6  98490054.126 6        37.000                                                  
R13  20963003.211 5 111941065.823 5        33.000    20963005.641 5  87065271.384 5        35.000                                                  
R14  21329288.233 7 113697814.186 7        43.000    21329293.898 6  88431032.745 6        41.000                                                  
R21  24460312.250 5 130892300.980 5        33.000    24460314.609 5 101805122.001 5        34.000                                                  
R22  20510341.226 5 109485026.471 5        33.000    20510344.675 5  85155020.461 5        31.000                                                  
R23  19911839.941 7 106514670.424 7        44.000                                                                                                  
R24  22971560.481 6 122838582.493 6        38.000    22971566.002 6  95541122.829 6        39.000                                                  
C02                                                  39901111.666 6 160665041.700 6        38.000  
C05                                                  38932239.606 6 156764027.687 6        40.000  
C08                                                  37854075.564 7 152422606.823 7        43.000  
C11                                                  22374797.816 8  90094022.200 8        48.000  
C13                                                  36859402.690 7 148417134.260 7        43.000  
C14                                                  24924521.75217 100360856.75417        42.0001 
> 2021 11 07 00 34  0.0000000  0 26                     
G05  21837528.955 7 114757442.755 7        44.000                                                    21837536.389 7  89421388.546 7        43.000                                                  
G13  25161734.318 5 132225116.281 5        32.000                                                                                                                                                  
G15  24983685.140 5 131290193.678 5        34.000                                                    24983691.716 5 102304047.186 5        35.000                                                  
G16  22657081.437 6 119063342.194 6        40.000    22657088.084 3  92776410.950 3        23.000                                                                                                  
G18  20442154.517 7 107424656.967 7        45.000                                                    20442161.182 8  83707529.836 8        49.000                                                  
G20  23805600.952 5 125099788.981 5        34.000    23805607.456 3  97480359.554 3        18.000                                                                                                  
G23  23720289.322 6 124650779.910 6        38.000                                                    23720296.380 6  97130479.429 6        40.000                                                  
G25  25315043.531 5 133031069.011 5        31.000                                                    25315055.717 6 103660573.193 6        37.000                                                  
G26  21282847.250 7 111841888.344 7        44.000                                                    21282856.578 7  87149523.363 7        45.000                                                  
G29  21472893.208 7 112840542.427 7        44.000                                                    21472900.945 7  87927700.402 7        44.000                                                  
G31  25819459.12015 135682715.02715        34.0001                                                   25819467.26916 105726790.80616        36.0001                                                 
R06  21862728.370 5 116663617.321 5        32.000                                                                                                  
R07  21334835.332 7 114206231.700 7        43.000    21334840.496 7  88827073.218 7        43.000                                                  
R12  23757195.555 6 126905814.383 6        39.000    23757199.647 6  98704518.430 6        37.000                                                  
R13  20993686.36115 112105602.08515        32.0001   20993689.73815  87193245.86715        35.0001                                                 
R14  21310776.122 7 113599126.697 7        44.000    21310780.321 6  88354275.807 6        41.000                                                  
R21  24502830.697 5 131119829.168 5        32.000    24502832.984 5 101982088.328 5        33.000                                                  
R22  20538803.345 5 109636959.766 5        34.000    20538806.883 5  85273190.804 5        31.000                                                  
R23  19891371.851 7 106405182.249 7        44.000                                                                                                  
R24  22931166.732 6 122622569.714 6        37.000    22931170.413 6  95373112.976 6        39.000                                                  
C02                                                  39900887.999 6 160663892.993 6        39.000  
C05                                                  38931721.369 6 156761942.446 6        39.000  
C08                                                  37864674.146 7 152465278.065 7        43.000  
C11                                                  22395809.410 7  90178627.195 7        47.000  
C13                                                  36866511.416 7 148445760.491 7        43.000  
C14                                                  24886948.772 7 100209563.397 7        44.000  
> 2021 11 07 00 35  0.0000000  0 26                     
G05  21855008.023 7 114849292.226 7        43.000                                                    21855013.777 7  89492959.570 7        42.000                                                  
G13  25128446.151 5 132050328.039 5        32.000                                                                                                                                                  
G15  24945388.143 5 131088937.694 5        32.000                                                    24945395.326 6 102147224.457 6        37.000                                                  
G16  22628649.695 6 118913932.341 6        41.000    22628655.788 3  92659987.687 3        23.000                                                                                                  
G18  20427224.323 7 107346200.190 7        45.000                                                    20427230.953 8  83646394.710 8        49.000                                                  
G20  23840438.238 6 125282856.253 6        36.000    23840444.224 3  97623009.393 3        18.000                                                                                                  
G23  23677387.817 6 124425327.588 6        39.000                                                    23677394.607 7  96954802.354 7        42.000                                                  
G25  25360678.53215 133271131.65815        31.0001                                                   25360690.36116 103847634.46516        36.0001                                                 
G26  21285940.271 7 111858142.823 7        44.000                                                    21285949.509 7  87162189.164 7        45.000                                                  
G29  21499654.286 7 112981169.039 7        44.000                                                    21499660.933 7  88037279.581 7        44.000                                                  
G31  25857475.449 5 135882492.117 5        33.000                                                    25857483.883 5 105882461.305 5        34.000                                                  
R06  21881674.663 5 116764336.265 5        30.000                                                                                                  
R07  21309801.885 7 114072226.497 7        43.000    21309808.104 7  88722846.979 7        44.000                                                  
R08  23488856.455 5 125782071.520 5        31.000    23488860.011 6  97830500.436 6        39.000                                                  
R12  23808847.413 6 127181728.820 6        37.000    23808851.470 6  98919118.487 6        36.000                                                  
R13  21024857.924 5 112272057.249 5        33.000    21024861.980 5  87322710.948 5        34.000                                                  
R14  21292839.090 7 113503513.896 7        44.000    21292843.950 7  88279910.290 7        42.000                                                  
R21  24545349.59015 131347782.11615        33.0001   24545354.18316 102159386.33016        36.0001                                                 
R22  20567512.629 5 109790193.847 5        34.000    20567512.682 5  85392372.851 5        32.000                                                  
R23  19871219.595 7 106297381.562 7        44.000                                                                                                  
R24  22890870.245 6 122407087.959 6        38.000    22890873.944 6  95205516.169 6        40.000                                                  
C05                                                  38931205.597 6 156759865.882 6        40.000  
C08                                                  37875301.372 7 152508074.915 7        43.000  
C11                                                  22417015.688 7  90264020.009 7        46.000  
C13                                                  36873663.153 7 148474558.770 7        42.000  
C14                                                  24849498.355 7 100058768.071 7        43.000  
> 2021 11 07 00 36  0.0000000  0 26                     
G05  21872930.009 7 114943473.463 7        43.000                                                    21872936.996 7  89566347.578 7        43.000                                                  
G13  25095345.323 5 131876370.383 5        33.000                                                                                                                                                  
G15  24907183.260 5 130888179.309 5        35.000                                                    24907192.105 6 101990789.385 6        36.000                                                  
G16  22600571.509 6 118766381.290 6        40.000    22600577.960 3  92545012.834 3        22.000                                                                                                  
G18  20412641.128 7 107269564.725 7        45.000                                                    20412647.560 8  83586678.798 8        49.000                                                  
G20  23875503.158 5 125467127.733 5        35.000    23875509.948 3  97766597.493 3        18.000                                                                                                  
G23  23634606.821 6 124200512.986 6        37.000                                                    23634614.111 6  96779622.200 6        41.000                                                  
G25  25406292.447 5 133510832.227 5        31.000                                                    25406304.008 6 104034414.116 6        36.000                                                  
G26  21289490.864 7 111876800.433 7        44.000                                                    21289500.584 7  87176727.555 7        46.000                                                  
G29  21526678.824 7 113123184.309 7        43.000                                                    21526685.454 7  88147940.814 7        44.000                                                  
G31  25895481.163 5 136082209.110 5        33.000                                                    25895488.829 6 106038084.908 6        36.000                                                  
R06  21901188.297 5 116868471.228 5        32.000                                                                                                  
R07  21285296.664 7 113941043.227 7        43.000    21285301.185 7  88620815.574 7        43.000                                                  
R12  23860526.701 6 127457788.127 6        38.000    23860530.668 6  99133831.252 6        38.000                                                  
R13  21056511.629 5 112441090.550 5        33.000    21056515.507 5  87454181.270 5        35.000                                                  
R14  21275482.229 7 113410995.379 7        43.000    21275487.822 6  88207951.450 6        41.000                                                  
R21  24587871.593 5 131575320.572 5        32.000    24587875.095 5 102336360.559 5        34.000                                                  
R22  20596456.032 5 109944717.055 5        34.000    20596459.928 5  85512557.578 5        31.000                                                  
R23  19851384.623 7 106191276.530 7        44.000                                                                                                  
R24  22850673.896 6 122192148.006 6        37.000    22850678.720 6  95038340.768 6        40.000                                                  
C02                                                  39900444.240 6 160662760.107 6        38.000  
C05                                                  38930692.149 6 156757798.930 6        39.000  
C08                                                  37885960.798 7 152550995.917 7        43.000  
C11                                                  22438418.793 8  90350197.368 8        48.000  
C13                                                  36880857.990 7 148503527.871 7        42.000  
C14                                                  24812175.470 7  99908486.544 7        43.000  
> 2021 11 07 00 37  0.0000000  0 25                     
G05  21891293.343 7 115039971.109 7        43.000                                                    21891299.490 7  89641540.547 7        42.000                                                  
G13  25062428.956 5 131703401.049 5        34.000                                                                                                                                                  
G15  24869080.053 5 130687944.264 5        34.000                                                    24869088.076 6 101834762.122 6        37.000                                                  
G16  22572850.830 6 118620709.328 6        41.000    22572856.941 4  92431502.198 4        24.000                                                                                                  
G18  20398404.931 7 107194754.677 7        46.000                                                    20398411.596 8  83528385.284 8        49.000                                                  
G20  23910794.460 5 125652583.940 5        34.000    23910801.107 2  97911108.811 2        17.000                                                                                                  
G23  23591950.514 6 123976357.173 6        38.000                                                    23591958.824 7  96604955.383 7        43.000                                                  
G26  21293498.439 7 111897859.942 7        44.000                                                    21293507.230 7  87193137.582 7        45.000                                                  
G29  21553965.591 7 113266580.248 7        44.000                                                    21553972.685 7  88259677.923 7        44.000                                                  
G31  25933469.41915 136281113.37415        32.0001                                                   25933477.85415 106193075.10915        32.0001                                                 
R06  21921271.059 5 116975632.419 5        31.000                                                                                                  
R07  21261321.886 7 113812707.961 7        43.000    21261327.765 7  88520999.289 7        44.000                                                  
R08  23390586.496 5 125255439.915 5        30.000    23390590.606 6  97420897.428 6        39.000                                                  
R12  23912226.913 6 127733962.143 6        37.000    23912231.719 6  99348633.266 6        37.000                                                  
R13  21088645.47615 112611375.47515        34.0001   21088648.56716  87586625.57616        36.0001                                                 
R14  21258710.382 7 113321588.761 7        44.000    21258714.313 7  88138412.932 7        42.000                                                  
R22  20625645.742 5 110100517.742 5        33.000    20625647.708 5  85633735.860 5        32.000                                                  
R23  19831867.647 7 106086874.769 7        44.000                                                                                                  
R24  22810583.134 6 121977759.565 6        38.000    22810587.334 6  94871594.287 6        41.000                                                  
C02                                                  39900225.02216 160661595.90616        39.0001 
C05                                                  38930181.488 6 156755741.660 6        40.000  
C08                                                  37896650.834 7 152594038.959 7        43.000  
C11                                                  22460014.579 7  90437155.474 7        47.000  
C13                                                  36888094.587 7 148532665.955 7        43.000  
C14                                                  24774984.869 7  99758733.903 7        43.000  
> 2021 11 07 00 38  0.0000000  0 25                     
G05  21910093.896 7 115138769.864 7        43.000                                                    21910099.686 7  89718526.608 7        43.000                                                  
G13  25029706.808 5 131531444.716 5        34.000                                                                                                                                                  
G15  24831081.325 5 130488256.252 5        34.000                                                    24831088.133 6 101679161.060 6        36.000                                                  
G16  22545491.211 6 118476934.135 6        40.000    22545497.555 4  92319469.601 4        24.000                                                                                                  
G18  20384516.411 7 107121771.696 7        45.000                                                    20384523.273 8  83471515.454 8        48.000                                                  
G20  23946307.642 6 125839202.998 6        37.000    23946313.450 2  98056526.180 2        17.000                                                                                                  
G23  23549425.099 6 123752879.151 6        39.000                                                    23549432.407 7  96430816.717 7        44.000                                                  
G26  21297962.031 7 111921316.855 7        44.000                                                    21297971.413 7  87211415.675 7        45.000                                                  
G29  21581514.192 7 113411346.771 7        45.000                                                    21581520.678 7  88372482.987 7        44.000                                                  
G31  25971437.43014 136481226.08014        28.0001                                                   25971447.59815 106349007.84915        30.0001                                                 
R06  21941916.768 5 117085797.831 5        33.000                                                                                                  
R07  21237884.214 7 113687244.006 7        43.000    21237889.485 7  88423416.243 7        43.000                                                  
R08  23341614.884 5 124993194.662 5        33.000    23341618.708 6  97216928.963 6        41.000                                                  
R12  23963942.599 6 128010218.510 6        38.000    23963946.405 6  99563499.386 6        36.000                                                  
R13  21121248.116 5 112785474.601 5        32.000    21121251.207 5  87722035.991 5        34.000                                                  
R14  21242524.853 7 113235309.719 7        44.000    21242529.392 7  88071307.018 7        42.000                                                  
R15  24461379.513 5 130714867.074 5        32.000    24461380.103 4 101666109.310 4        28.000                                                  
R22  20655068.304 5 110257581.114 5        34.000    20655070.126 5  85755896.283 5        32.000                                                  
R23  19812670.419 7 105984181.319 7        44.000                                                                                                  
R24  22770597.282 6 121763930.573 6        40.000    22770599.462 6  94705282.885 6        39.000                                                  
C05                                                  38929672.810 6 156753692.804 6        40.000  
C08                                                  37907370.050 7 152637200.654 7        43.000  
C11                                                  22481803.154 8  90524888.896 8        48.000  
C13                                                  36895372.551 7 148561969.476 7        43.000  
C14                                                  24737928.089 7  99609523.662 7        42.000  
> 2021 11 07 00 39  0.0000000  0 24                     
G05  21929329.899 7 115239855.015 7        43.000                                                    21929336.297 7  89797294.238 7        44.000                                                  
G13  24997182.417 5 131360527.553 5        35.000    24997189.100 2 102358797.958 2        16.000                                                                                                  
G15  24793191.724 6 130289143.042 6        36.000                                                    24793198.031 5 101524007.926 5        35.000                                                  
G16  22518497.515 6 118335075.958 6        41.000    22518502.464 4  92208930.766 4        24.000                                                                                                  
G18  20370976.642 7 107050620.472 7        45.000                                                    20370983.342 8  83416072.960 8        49.000                                                  
G20  23982037.737 6 126026965.423 6        36.000    23982043.723 3  98202834.535 3        18.000                                                                                                  
G23  23507031.306 6 123530101.047 6        40.000                                                    23507038.615 7  96257223.472 7        43.000                                                  
G26  21302881.784 7 111947169.932 7        44.000                                                    21302890.808 7  87231560.924 7        44.000                                                  
G29  21609322.109 7 113557476.005 7        44.000                                                    21609328.381 7  88486349.896 7        45.000                                                  
R07  21214987.849 7 113564676.269 7        43.000    21214993.084 7  88328085.830 7        44.000                                                  
R08  23292757.27615 124730977.39715        32.0001   23292761.74416  97012983.03616        39.0001                                                 
R12  24015668.953 6 128286529.072 6        37.000    24015672.974 6  99778407.547 6        38.000                                                  
R13  21154319.085 5 112962062.550 5        33.000    21154320.621 6  87859382.111 6        36.000                                                  
R14  21226928.805 7 113152175.944 7        44.000    21226933.612 6  88006647.427 6        41.000                                                  
R15  24416121.102 5 130472227.105 5        30.000    24416125.855 5 101478398.209 5        31.000                                                  
R22  20684725.986 5 110415896.923 5        34.000    20684728.202 5  85879030.778 5        32.000                                                  
R23  19793794.209 7 105883204.550 7        44.000                                                                                                  
R24  22730715.463 6 121550671.645 6        39.000    22730719.073 6  94539414.870 6        40.000                                                  
C02                                                  39899790.573 6 160660300.895 6        40.000  
C05                                                  38929166.206 6 156751653.355 6        40.000  
C08                                                  37918118.249 7 152680479.728 7        43.000  
C11                                                  22503782.785 7  90613394.833 7        47.000  
C13                                                  36902691.167 7 148591437.524 7        43.000  
C14                                                  24701011.724 7  99460871.610 7        45.000  
> 2021 11 07 00 40  0.0000000  0 24                     
G05  21948997.386 7 115343210.890 7        42.000                                                    21949004.516 7  89877831.331 7        43.000                                                  
G13  24964859.427 5 131190674.715 5        35.000    24964866.539 2 102226445.072 2        16.000                                                                                                  
G15  24755415.465 5 130090630.529 5        35.000                                                    24755422.595 5 101369322.835 5        34.000                                                  
G16  22491871.026 6 118195154.001 6        40.000    22491876.887 4  92099900.667 4        25.000                                                                                                  
G18  20357786.837 7 106981304.082 7        46.000                                                    20357792.876 8  83362060.209 8        49.000                                                  
G20  24017981.866 5 126215851.329 5        35.000    24017986.834 2  98350018.310 2        17.000                                                                                                  
G23  23464774.427 6 123308043.368 6        38.000                                                    23464782.700 7  96084191.537 7        44.000                                                  
G26  21308257.358 7 111975415.871 7        44.000                                                    21308265.757 7  87253570.718 7        44.000                                                  
G29  21637386.892 7 113704959.461 7        45.000                                                    21637393.539 7  88601272.069 7        44.000                                                  
R06  21984879.939 5 117314892.130 5        32.000                                                                                                  
R07  21192636.739 7 113445028.725 7        43.000    21192642.689 7  88235026.668 7        44.000                                                  
R08  23244026.485 5 124470012.321 5        34.000    23244029.165 6  96810010.281 6        39.000                                                  
R12  24067400.061 6 128562863.287 6        39.000    24067402.562 6  99993334.152 6        37.000                                                  
R13  21187847.537 5 113141108.355 5        32.000    21187850.020 5  87998639.911 5        34.000                                                  
R14  21211927.046 7 113072203.570 7        44.000    21211930.870 7  87944446.678 7        42.000                                                  
R22  20714618.342 5 110575452.068 5        35.000    20714620.164 5  86003129.240 5        32.000                                                  
R23  19775239.605 7 105783950.884 7        45.000                                                                                                  
R24  22690943.754 6 121337991.871 6        40.000    22690947.363 6  94373997.358 6        39.000                                                  
C02                                                  39899575.80516 160659252.85016        37.0001 
C05                                                  38928662.246 6 156749623.029 6        40.000  
C08                                                  37928895.235 7 152723873.653 7        42.000  
C11                                                  22525955.294 8  90702668.923 8        48.000  
C13                                                  36910048.790 7 148621067.694 7        43.000  
C14                                                  24664235.756 7  99312792.497 7        43.000  
> 2021 11 07 00 41  0.0000000  0 26                     
G05  21969094.908 7 115448820.920 7        42.000                                                    21969101.431 7  89960124.845 7        43.000                                                  
G13  24932745.720 5 131021911.098 5        34.000    24932752.009 2 102094940.972 2        16.000                                                                                                  
G15  24717758.787 5 129892743.852 5        34.000                                                    24717766.310 6 101215125.493 6        38.000                                                  
G16  22465616.839 6 118057186.789 6        40.000    22465622.468 4  91992393.758 4        24.000                                                                                                  
G18  20344945.746 7 106913825.137 7        45.000                                                    20344952.197 8  83309479.229 8        49.000                                                  
G20  24054134.866 6 126405840.499 6        36.000    24054141.567 3  98498061.775 3        19.000                                                                                                  
G23  23422659.498 6 123086726.702 6        38.000                                                    23422667.503 7  95911737.044 7        42.000                                                  
G26  21314086.877 7 112006050.887 7        45.000                                                    21314095.811 7  87277442.155 7        45.000                                                  
G27  25021439.687 5 131488701.115 5        32.000                                                    25021447.692 6 102459139.911 6        37.000                                                  
G29  21665708.061 7 113853788.367 7        43.000                                                    21665715.047 7  88717242.631 7        44.000                                                  
R06  22007189.878 5 117433949.100 5        32.000                                                                                                  
R07  21170835.351 7 113328323.914 7        43.000    21170840.623 7  88144256.278 7        44.000                                                  
R08  23195419.86615 124209817.80715        32.0001   23195424.63716  96607635.62116        39.0001                                                 
R12  24119126.772 6 128839190.908 6        37.000    24119132.133 6 100208255.604 6        37.000                                                  
R13  21221831.613 5 113322579.095 5        32.000    21221833.989 6  88139783.789 6        36.000                                                  
R14  21197520.217 7 112995407.789 7        45.000    21197524.578 7  87884716.626 7        42.000                                                  
R15  24326249.584 5 129992110.645 5        32.000    24326251.496 5 101104974.651 5        31.000                                                  
R22  20744736.598 5 110736234.220 5        34.000    20744738.617 5  86128182.000 5        32.000                                                  
R23  19757007.859 7 105686426.911 7        44.000                                                                                                  
R24  22651281.331 6 121125901.604 6        40.000    22651285.369 6  94209038.271 6        40.000                                                  
C02                                                  39899361.305 6 160658073.499 6        39.000  
C05                                                  38928160.126 6 156747601.530 6        40.000  
C08                                                  37939699.722 7 152767380.268 7        43.000  
C11                                                  22548316.071 8  90792706.877 8        48.000  
C13                                                  36917446.959 7 148650857.781 7        43.000  
C14                                                  24627606.010 7  99165300.806 7        44.000  
> 2021 11 07 00 42  0.0000000  0 26                     
G05  21989617.749 7 115556670.958 7        42.000                                                    21989623.878 7  90044163.834 7        42.000                                                  
G13  24900843.313 5 130854264.175 5        33.000    24900850.210 2 101964307.057 2        15.000                                                                                                  
G15  24680227.066 6 129695512.217 6        36.000                                                    24680234.464 6 101061438.566 6        36.000                                                  
G16  22439738.509 6 117921195.200 6        40.000    22439744.281 3  91886426.276 3        23.000                                                                                                  
G18  20332455.567 7 106848188.654 7        45.000                                                    20332462.071 8  83258333.938 8        49.000                                                  
G20  24090494.951 6 126596914.152 6        36.000    24090501.884 2  98646950.252 2        17.000                                                                                                  
G23  23380689.720 6 122866173.767 6        38.000                                                    23380697.957 7  95739877.678 7        43.000                                                  
G26  21320370.215 7 112039073.262 7        44.000                                                    21320379.560 7  87303173.871 7        45.000                                                  
G27  24979478.986 5 131268204.791 5        32.000                                                    24979488.385 6 102287324.731 6        38.000                                                  
G29  21694283.273 7 114003956.097 7        44.000                                                    21694290.456 7  88834256.427 7        43.000                                                  
R06  22030051.185 5 117555928.479 5        31.000                                                                                                  
R07  21149587.510 7 113214587.326 7        43.000    21149593.550 7  88055794.511 7        45.000                                                  
R08  23146951.392 5 123950269.877 5        33.000    23146955.913 6  96405765.036 6        39.000                                                  
R12  24170849.249 6 129115485.349 6        37.000    24170854.109 6 100423151.249 6        37.000                                                  
R13  21256263.683 5 113506446.762 5        33.000    21256266.560 5  88282791.926 5        34.000                                                  
R14  21183711.912 7 112921805.287 7        45.000    21183716.898 7  87827470.215 7        43.000                                                  
R15  24281642.89115 129754264.95515        33.0001   24281648.57415 100919984.03815        32.0001                                                 
R22  20775085.847 5 110898232.947 5        34.000    20775085.686 5  86254181.000 5        32.000                                                  
R23  19739101.597 7 105590641.362 7        45.000                                                                                                  
R24  22611732.233 6 120914411.706 6        41.000    22611735.843 6  94044546.175 6        41.000                                                  
C02                                                  39899150.397 6 160656739.268 6        39.000  
C05                                                  38927660.669 6 156745590.621 6        40.000  
C08                                                  37950532.567 7 152810998.794 7        43.000  
C11                                                  22570865.331 7  90883506.334 7        47.000  
C13                                                  36924885.512 7 148680807.273 7        43.000  
C14                                                  24591126.275 7  99018413.002 7        45.000  
> 2021 11 07 00 43  0.0000000  0 26                     
G05  22010563.675 7 115666742.893 7        42.000                                                    22010570.358 7  90129934.205 7        42.000                                                  
G13  24869157.801 5 130687757.515 5        34.000    24869164.859 2 101834561.683 2        16.000                                                                                                  
G15  24642824.235 5 129498959.502 5        34.000                                                    24642831.686 6 100908280.583 6        37.000                                                  
G16  22414239.271 6 117787196.350 6        40.000    22414245.167 3  91782011.577 3        23.000                                                                                                  
G18  20320316.264 7 106784395.456 7        45.000                                                    20320322.625 8  83208624.973 8        49.000                                                  
G20  24127057.563 6 126789050.731 6        36.000    24127063.888 3  98796667.053 3        19.000                                                                                                  
G23  23338868.022 6 122646403.558 6        39.000                                                    23338876.403 6  95568628.220 6        40.000                                                  
G26  21327107.641 7 112074476.907 7        43.000                                                    21327116.950 7  87330761.118 7        45.000                                                  
G27  24937552.969 5 131047887.170 5        31.000                                                    24937563.244 6 102115648.779 6        38.000                                                  
G29  21723112.386 7 114155451.903 7        44.000                                                    21723119.784 7  88952305.036 7        44.000                                                  
R06  22053450.70615 117680875.08615        32.0001                                                                                                 
R07  21128898.791 7 113103838.616 7        43.000    21128904.920 7  87969656.635 7        44.000                                                  
R08  23098622.814 5 123691481.142 5        32.000    23098628.157 6  96204485.035 6        40.000                                                  
R12  24222561.397 6 129391714.787 6        38.000    24222566.454 6 100637996.465 6        36.000                                                  
R13  21291137.905 5 113692678.065 5        32.000    21291141.711 5  88427638.467 5        33.000                                                  
R14  21170506.275 7 112851408.639 7        45.000    21170510.296 7  87772717.291 7        43.000                                                  
R15  24237269.461 5 129517137.412 5        32.000    24237272.463 5 100735551.404 5        33.000                                                  
R22  20805656.707 5 111061434.587 5        33.000    20805659.370 5  86381115.593 5        33.000                                                  
R23  19721522.034 7 105496599.479 7        44.000                                                                                                  
R24  22572295.496 6 120703530.602 6        40.000    22572299.052 6  93880527.580 6        39.000                                                  
C02                                                  39898938.90016 160656810.89116        38.0001 
C05                                                  38927163.249 6 156743588.684 6        40.000  
C08                                                  37961391.984 7 152854725.732 7        43.000  
C11                                                  22593603.198 7  90975061.777 7        47.000  
C13                                                  36932362.232 7 148710912.952 7        43.000  
C14                                                  24554800.516 7  98872142.356 7        45.000  
> 2021 11 07 00 44  0.0000000  0 26                     
G05  22031929.416 6 115779020.829 6        41.000                                                    22031936.242 7  90217423.514 7        42.000                                                  
G13  24837694.561 5 130522417.486 5        35.000    24837701.566 2 101705725.375 2        16.000                                                                                                  
G15  24605555.528 5 129303112.639 5        35.000                                                    24605562.730 6 100755672.647 6        36.000                                                  
G16  22389123.787 6 117655208.942 6        41.000    22389128.862 4  91679164.253 4        26.000                                                                                                  
G18  20308527.605 7 106722448.950 7        45.000                                                    20308534.610 8  83160354.982 8        49.000                                                  
G20  24163818.700 5 126982230.676 5        35.000    24163825.365 2  98947196.823 2        17.000                                                                                                  
G23  23297201.427 6 122427437.705 6        40.000                                                    23297208.700 6  95398005.489 6        41.000                                                  
G26  21334297.278 7 112112258.186 7        44.000                                                    21334306.284 7  87360201.048 7        46.000                                                  
G27  24895666.335 5 130827760.971 5        33.000                                                    24895674.734 6 101944121.926 6        37.000                                                  
G29  21752192.524 7 114308266.932 7        43.000                                                    21752199.475 7  89071381.688 7        43.000                                                  
R06  22077392.320 5 117808628.776 5        31.000                                                                                                  
R07  21108773.947 7 112996101.101 7        44.000    21108778.272 7  87885860.824 7        44.000                                                  
R08  23050445.302 5 123433486.676 5        33.000    23050449.483 6  96003822.708 6        40.000                                                  
R12  24274253.836 6 129667851.364 6        37.000    24274259.429 6 100852769.367 6        38.000                                                  
R13  21326450.615 5 113881241.271 5        32.000    21326452.759 5  88574298.690 5        34.000                                                  
R14  21157903.682 7 112784232.545 7        44.000    21157908.507 7  87720469.202 7        44.000                                                  
R15  24193128.650 5 129281267.225 5        33.000    24193133.511 6 100552096.737 6        36.000                                                  
R22  20836454.48715 111226309.00115        33.0001   20836456.57715  86509351.15315        31.0001                                                 
R23  19704268.295 7 105404308.329 7        44.000                                                                                                  
R24  22532975.712 6 120493268.802 6        40.000    22532978.392 6  93716990.653 6        38.000                                                  
C02                                                  39898731.08316 160655674.60216        39.0001 
C05                                                  38926669.099 6 156741596.464 6        40.000  
C08                                                  37972277.864 7 152898559.677 7        42.000  
C11                                                  22616528.511 8  91067369.936 8        48.000  
C13                                                  36939877.122 7 148741173.195 7        43.000  
C14                                                  24518630.683 7  98726504.449 7        44.000  
> 2021 11 07 00 45  0.0000000  0 25                     
G05  22053711.379 7 115893487.690 7        43.000                                                    22053717.562 6  90306618.467 6        41.000                                                  
G13  24806457.847 5 130358267.919 5        35.000    24806465.567 2 101577816.600 2        15.000                                                                                                  
G15  24568426.165 5 129107997.818 5        35.000                                                    24568434.045 6 100603635.141 6        36.000                                                  
G16  22364392.452 6 117525251.283 6        40.000    22364398.599 4  91577898.526 4        25.000                                                                                                  
G18  20297091.251 7 106662351.250 7        45.000                                                    20297098.739 8  83113525.640 8        49.000                                                  
G20  24200773.590 5 127176434.260 5        35.000    24200779.755 2  99098524.238 2        17.000                                                                                                  
G23  23255689.954 6 122209296.663 6        41.000                                                    23255697.334 7  95228025.507 7        42.000                                                  
G26  21341938.286 7 112152411.910 7        43.000                                                    21341947.668 7  87391489.660 7        46.000                                                  
G27  24853816.601 5 130607837.892 5        34.000                                                    24853824.964 6 101772753.283 6        38.000                                                  
G29  21781521.380 7 114462392.142 7        43.000                                                    21781527.974 7  89191479.245 7        43.000                                                  
R06  22101868.09215 117939170.01915        31.0001                                                                                                 
R07  21089214.014 7 112891395.583 7        43.000    21089218.249 7  87804423.218 7        43.000                                                  
R08  23002422.267 5 123176320.843 5        34.000    23002425.876 6  95803804.928 6        41.000                                                  
R12  24325925.314 6 129943865.898 6        38.000    24325929.424 6 101067447.280 6        39.000                                                  
R13  21362192.627 5 114072105.102 5        32.000    21362195.862 5  88722748.285 5        34.000                                                  
R14  21145907.582 7 112720289.642 7        44.000    21145912.960 7  87670735.824 7        44.000                                                  
R22  20867470.983 5 111391881.680 5        33.000    20867473.627 5  86638129.885 5        31.000                                                  
R23  19687344.454 7 105313774.441 7        44.000                                                                                                  
R24  22493774.721 6 120283635.603 6        40.000    22493776.508 6  93553942.667 6        39.000                                                  
C02                                                  39898523.945 6 160654468.460 6        39.000  
C05                                                  38926176.611 6 156739613.652 6        40.000  
C08                                                  37983189.797 7 152942498.179 7        42.000  
C11                                                  22639638.715 7  91160426.383 7        47.000  
C13                                                  36947429.732 7 148771585.958 7        43.000  
C14                                                  24482622.208 7  98581513.733 7        44.000  
> 2021 11 07 00 46  0.0000000  0 25                     
G05  22075908.172 7 116010127.352 7        42.000                                                    22075913.587 7  90397506.510 7        42.000                                                  
G13  24775453.484 5 130195335.194 5        35.000    24775460.131 2 101450856.088 2        17.000                                                                                                  
G15  24531441.594 6 128913642.585 6        36.000                                                    24531449.081 6 100452189.498 6        36.000                                                  
G16  22340052.484 6 117397342.324 6        40.000    22340058.112 4  91478229.228 4        24.000                                                                                                  
G18  20286007.901 7 106604105.322 7        45.000                                                    20286014.762 8  83068139.216 8        50.000                                                  
G20  24237921.07315 127370483.53615        34.0001   24237927.23812  99249727.74812        16.0001                                                                                                 
G23  23214341.124 6 121992002.011 6        40.000                                                    23214348.057 7  95058705.019 7        42.000                                                  
G26  21350029.737 7 112194933.799 7        44.000                                                    21350038.779 7  87424623.583 7        45.000                                                  
G27  24812007.590 5 130388130.512 5        34.000                                                    24812016.721 6 101601552.810 6        38.000                                                  
G29  21811097.758 7 114617819.302 7        44.000                                                    21811105.316 7  89312591.284 7        43.000                                                  
R06  22126872.985 5 118072728.035 5        32.000                                                                                                  
R07  21070223.817 7 112789743.395 7        43.000    21070229.089 7  87725360.440 7        45.000                                                  
R08  22954559.839 5 122920018.661 5        34.000    22954564.109 6  95604458.828 6        41.000                                                  
R12  24377566.416 6 130219730.747 6        38.000    24377571.633 6 101282008.855 6        38.000                                                  
R13  21398361.17415 114266401.73415        31.0001   21398364.05115  88873867.73215        35.0001                                                 
R14  21134522.530 7 112659593.213 7        45.000    21134526.193 7  87623527.498 7        42.000                                                  
R15  24105577.907 5 128812662.921 5        34.000    24105582.768 5 100187595.542 5        31.000                                                  
R22  20898707.429 5 111558622.569 5        32.000    20898709.323 5  86767817.241 5        31.000                                                  
R23  19670750.100 7 105225004.958 7        44.000                                                                                                  
R24  22454689.485 6 120074641.616 6        39.000    22454693.863 6  93391391.786 6        38.000                                                  
C05                                                  38925686.768 6 156737640.932 6        40.000  
C08                                                  37994128.034 7 152986539.984 7        42.000  
C11                                                  22662934.060 7  91254227.887 7        47.000  
C13                                                  36955019.975 7 148802149.853 7        43.000  
C14                                                  24446778.592 7  98437185.593 7        45.000  
> 2021 11 07 00 47  0.0000000  0 26                     
G05  22098512.915 7 116128920.970 7        42.000                                                    22098519.402 7  90490072.995 7        42.000                                                  
G13  24744683.634 5 130033643.620 5        35.000    24744691.032 2 101324862.643 2        16.000                                                                                                  
G15  24494606.908 6 128720071.754 6        36.000                                                    24494614.216 6 100301355.189 6        37.000                                                  
G16  22316104.830 6 117271498.864 6        40.000    22316111.334 4  91380169.376 4        24.000                                                                                                  
G18  20275276.623 7 106547712.242 7        45.000                                                    20275283.413 8  83024196.573 8        50.000                                                  
G20  24275254.644 5 127566673.532 5        33.000    24275260.934 2  99402603.013 2        15.000                                                                                                  
G23  23173156.278 6 121775573.507 6        39.000                                                    23173162.943 7  94890059.459 7        42.000                                                  
G26  21358571.041 7 112239817.180 7        45.000                                                    21358580.047 7  87459597.621 7        45.000                                                  
G27  24770242.502 5 130168649.942 5        34.000                                                    24770249.971 6 101430528.971 6        38.000                                                  
G29  21840920.943 7 114774538.505 7        44.000                                                    21840927.804 7  89434710.141 7        43.000                                                  
R06  22152405.24515 118209956.33115        31.0001                                                                                                 
R07  21051808.252 7 112691163.605 7        44.000    21051813.006 7  87648687.296 7        44.000                                                  
R08  22906863.235 5 122664613.743 5        35.000    22906867.398 6  95405810.626 6        39.000                                                  
R12  24429177.247 6 130495417.135 6        37.000    24429180.534 6 101496431.593 6        36.000                                                  
R13  21434947.033 5 114461767.756 5        32.000    21434949.267 5  89025819.051 5        32.000                                                  
R14  21123746.670 7 112602154.238 7        45.000    21123750.386 7  87578852.741 7        44.000                                                  
R15  24062181.520 6 128580759.469 6        36.000    24062185.933 5 100007226.268 5        31.000                                                  
R22  20930160.787 5 111726518.277 5        33.000    20930163.145 5  86898402.773 5        32.000                                                  
R23  19654486.019 7 105138005.284 7        44.000                                                                                                  
R24  22415729.815 6 119866296.157 6        41.000    22415732.067 6  93229345.392 6        40.000                                                  
C02                                                  39898113.065 6 160653303.479 6        38.000  
C05                                                  38925198.264 6 156735677.511 6        40.000  
C08                                                  38005090.429 7 153030682.121 7        42.000  
C11                                                  22686413.688 8  91348769.439 8        48.000  
C13                                                  36962647.850 7 148832862.103 7        43.000  
C14                                                  24411102.444 7  98293534.101 7        45.000  
> 2021 11 07 00 48  0.0000000  0 25                     
G05  22121524.947 7 116249851.358 7        42.000                                                    22121531.594 7  90584304.467 7        43.000                                                  
G13  24714155.927 6 129873217.997 6        36.000    24714162.199 2 101199855.611 2        16.000                                                                                                  
G15  24457926.128 5 128527312.107 5        35.000                                                    24457931.399 5 100151152.898 5        32.000                                                  
G16  22292554.333 6 117147739.300 6        41.000    22292560.051 3  91283733.359 3        23.000                                                                                                  
G18  20264898.438 7 106493174.309 7        45.000                                                    20264905.371 8  82981699.500 8        50.000                                                  
G20  24312771.123 5 127763827.196 5        34.000    24312777.806 2  99556229.172 2        17.000                                                                                                  
G23  23132139.348 6 121560032.147 6        39.000                                                    23132146.710 7  94722105.230 7        43.000                                                  
G26  21367560.053 7 112287056.338 7        43.000                                                    21367569.595 7  87496407.366 7        45.000                                                  
G27  24728520.620 5 129949408.791 5        33.000                                                    24728529.519 6 101259691.765 6        38.000                                                  
G29  21870988.433 7 114932540.840 7        44.000                                                    21870995.312 7  89557828.798 7        43.000                                                  
R06  22178459.978 5 118348887.060 5        33.000                                                                                                  
R07  21033970.947 7 112595676.473 7        43.000    21033975.754 7  87574419.536 7        44.000                                                  
R08  22859342.945 5 122410141.034 5        35.000    22859346.662 6  95207887.497 6        40.000                                                  
R12  24480749.874 5 130770898.602 5        30.000    24480750.749 4 101710695.036 4        28.000                                                  
R14  21113584.717 7 112547984.000 7        44.000    21113587.916 7  87536720.329 7        42.000                                                  
R15  24019044.144 5 128350242.970 5        34.000    24019047.324 5  99827935.690 5        34.000                                                  
R22  20961826.178 5 111895557.604 5        33.000    20961828.376 5  87029877.826 5        32.000                                                  
R23  19638554.338 7 105052781.926 7        44.000                                                                                                  
R24  22376889.742 6 119658609.864 6        38.000    22376894.156 6  93067811.662 6        41.000                                                  
C02                                                  39897910.555 6 160652031.104 6        39.000  
C05                                                  38924713.638 6 156733723.603 6        40.000  
C08                                                  38016077.823 7 153074922.781 7        43.000  
C11                                                  22710076.027 7  91444047.299 7        47.000  
C13                                                  36970312.428 7 148863720.956 7        43.000  
C14                                                  24375598.840 7  98150573.966 7        44.000  
> 2021 11 07 00 49  0.0000000  0 24                     
G05  22144940.765 7 116372899.879 7        42.000                                                    22144947.448 7  90680186.470 7        43.000                                                  
G13  24683874.187 6 129714083.147 6        36.000    24683880.549 2 101075854.472 2        16.000                                                                                                  
G15  24421404.579 6 128335389.602 6        36.000                                                    24421411.619 6 100001602.902 6        38.000                                                  
G16  22269403.620 6 117026080.382 6        40.000    22269409.839 4  91188934.199 4        24.000                                                                                                  
G18  20254873.326 7 106440492.621 7        45.000                                                    20254879.920 8  82940648.852 8        50.000                                                  
G20  24350468.525 5 127961923.519 5        34.000    24350475.190 2  99710589.865 2        17.000                                                                                                  
G23  23091296.211 6 121345398.027 6        41.000                                                    23091303.412 7  94554857.912 7        44.000                                                  
G26  21376996.916 7 112336644.470 7        44.000                                                    21377005.958 7  87535047.453 7        45.000                                                  
G27  24686849.594 6 129730418.816 6        36.000                                                    24686857.653 6 101089050.210 6        39.000                                                  
G29  21901296.851 7 115091816.582 7        44.000                                                    21901303.981 7  89681939.755 7        43.000                                                  
R06  22205025.283 5 118490662.557 5        32.000                                                                                                  
R07  21016713.867 7 112503299.770 7        44.000    21016719.281 7  87502571.038 7        44.000                                                  
R08  22812004.204 5 122156634.440 5        35.000    22812006.170 6  95010715.731 6        40.000                                                  
R14  21104037.566 7 112497093.161 7        45.000    21104041.998 7  87497138.543 7        43.000                                                  
R15  23976169.835 5 128121145.447 5        34.000    23976174.213 5  99649748.828 5        33.000                                                  
R22  20993703.979 5 112065728.049 5        33.000    20993708.000 5  87162232.600 5        33.000                                                  
R23  19622956.664 7 104969340.818 7        44.000                                                                                                  
R24  22338176.469 6 119451591.695 6        40.000    22338180.471 6  92906797.595 6        41.000                                                  
C02                                                  39897708.08116 160651001.31416        37.0001 
C05                                                  38924230.764 6 156731778.950 6        40.000  
C08                                                  38027088.286 7 153119259.552 7        42.000  
C11                                                  22733919.576 8  91540057.076 8        48.000  
C13                                                  36978011.654 7 148894724.070 7        44.000  
C14                                                  24340270.030 7  98008319.656 7        45.000  
> 2021 11 07 00 50  0.0000000  0 25                     
G05  22168755.473 6 116498050.768 6        41.000                                                    22168762.728 7  90777706.618 7        42.000                                                  
G13  24653842.471 5 129556265.447 5        35.000    24653849.529 2 100952879.678 2        16.000                                                                                                  
G15  24385046.978 5 128144333.443 5        35.000                                                    24385054.787 6  99852727.938 6        38.000                                                  
G16  22246656.408 7 116906540.963 7        42.000    22246662.054 4  91095786.614 4        26.000                                                                                                  
G18  20245202.271 7 106389670.677 7        46.000                                                    20245209.222 8  82901047.344 8        50.000                                                  
G20  24388340.61415 128160814.67015        34.0001   24388347.01213  99865570.28413        18.0001                                                                                                 
G23  23050628.727 6 121131693.836 6        40.000                                                    23050636.768 7  94388335.241 7        45.000                                                  
G26  21386879.397 7 112388576.953 7        44.000                                                    21386887.778 7  87575514.302 7        46.000                                                  
G27  24645227.887 5 129511694.274 5        35.000                                                    24645234.820 6 100918615.573 6        38.000                                                  
G29  21931847.162 7 115252358.416 7        43.000                                                    21931853.720 7  89807037.271 7        43.000                                                  
R06  22232106.591 5 118635169.287 5        31.000                                                                                                  
R07  21000042.247 7 112414054.229 7        44.000    21000046.375 7  87433157.860 7        44.000                                                  
R08  22764848.549 5 121904130.857 5        34.000    22764853.017 6  94814324.112 6        40.000                                                  
R13  21547155.009 5 115061231.374 5        30.000    21547155.474 5  89492068.505 5        34.000                                                  
R14  21095106.754 7 112449493.313 7        44.000    21095112.489 7  87460116.441 7        42.000                                                  
R15  23933571.997 5 127893501.727 5        35.000    23933574.534 6  99472692.702 6        36.000                                                  
R22  21025794.243 5 112237019.786 5        33.000    21025796.262 5  87295459.502 5        31.000                                                  
R23  19607692.784 7 104887690.113 7        44.000                                                                                                  
R24  22299590.154 6 119245253.533 6        41.000    22299593.889 6  92746312.410 6        41.000                                                  
C02                                                  39897509.735 6 160650906.993 6        38.000  
C05                                                  38923750.462 6 156729844.842 6        40.000  
C08                                                  38038122.998 7 153163691.938 7        42.000  
C11                                                  22757944.906 7  91636796.109 7        47.000  
C13                                                  36985746.886 7 148925871.143 7        43.000  
C14                                                  24305119.696 7  97866787.126 7        44.000  
> 2021 11 07 00 51  0.0000000  0 25                     
G05  22192967.749 6 116625284.554 6        41.000                                                    22192974.164 6  90876849.854 6        41.000                                                  
G13  24624065.209 5 129399788.168 5        34.000    24624072.643 2 100830949.317 2        15.000                                                                                                  
G15  24348860.581 5 127954167.796 5        35.000                                                    24348867.192 6  99704546.978 6        36.000                                                  
G16  22224315.251 6 116789136.789 6        40.000    22224320.504 4  91004302.828 4        25.000                                                                                                  
G18  20235884.630 7 106340708.231 7        46.000                                                    20235891.653 8  82862894.814 8        49.000                                                  
G20  24426383.961 5 128360739.477 5        32.000    24426392.288 2 100021355.789 2        17.000                                                                                                  
G23  23010143.346 6 120918938.505 6        40.000                                                    23010150.405 7  94222551.965 7        44.000                                                  
G26  21397205.924 7 112442845.063 7        44.000                                                    21397214.715 7  87617801.146 7        44.000                                                  
G27  24603657.83815 129293112.12715        33.0001                                                   24603665.89716 100747879.27216        40.0001                                                 
G29  21962635.900 7 115414155.189 7        43.000                                                    21962643.101 7  89933112.658 7        43.000                                                  
R06  22259695.309 5 118782379.821 5        32.000                                                                                                  
R07  20983957.660 7 112327956.126 7        43.000    20983963.378 7  87366192.695 7        44.000                                                  
R08  22717888.525 5 121652663.622 5        35.000    22717893.457 6  94618738.551 6        41.000                                                  
R13  21585352.81615 115263822.54115        32.0001   21585354.92415  89649639.58015        34.0001                                                 
R14  21086795.424 7 112405192.046 7        43.000    21086801.982 6  87425659.907 6        41.000                                                  
R15  23891246.893 6 127667342.993 6        36.000    23891252.396 5  99296791.544 5        35.000                                                  
R22  21058090.340 5 112409419.606 5        33.000    21058093.574 5  87429548.211 5        31.000                                                  
R23  19592764.627 7 104807834.273 7        45.000                                                                                                  
R24  22261131.871 6 119039604.394 6        41.000    22261135.891 7  92586363.142 7        42.000                                                  
C02                                                  39897311.460 6 160649676.347 6        39.000  
C05                                                  38923272.198 6 156727920.079 6        40.000  
C08                                                  38049180.885 7 153208216.587 7        42.000  
C11                                                  22782150.106 7  91734259.265 7        47.000  
C13                                                  36993517.087 7 148957159.005 7        44.000  
C14                                                  24270153.431 7  97725989.878 7        45.000  
> 2021 11 07 00 52  0.0000000  0 26                     
G05  22217572.965 7 116754581.367 7        42.000                                                    22217578.522 7  90977600.621 7        43.000                                                  
G10  25771842.177 5 135431656.200 5        32.000                                                    25771852.755 6 105531064.771 6        36.000                                                  
G13  24594547.460 5 129244675.076 5        35.000    24594556.001 2 100710081.975 2        17.000                                                                                                  
G15  24312847.441 6 127764918.782 6        37.000                                                    24312854.178 6  99557080.239 6        37.000                                                  
G16  22202382.830 7 116673884.261 7        42.000    22202389.906 4  90914495.689 4        26.000                                                                                                  
G18  20226921.778 7 106293606.120 7        45.000                                                    20226928.265 8  82826191.875 8        50.000                                                  
G20  24464596.581 5 128561547.442 5        33.000    24464605.104 2 100177829.525 2        17.000                                                                                                  
G23  22969841.606 6 120707152.364 6        40.000                                                    22969848.878 7  94057523.876 7        44.000                                                  
G26  21407975.655 7 112499441.057 7        43.000                                                    21407985.519 7  87661901.895 7        46.000                                                  
G27  24562143.881 5 129074952.613 5        35.000                                                    24562151.100 6 100577884.812 6        39.000                                                  
G29  21993661.616 7 115577196.401 7        44.000                                                    21993668.550 7  90060157.726 7        44.000                                                  
R06  22287783.05415 118931381.74115        32.0001                                                                                                 
R07  20968465.307 7 112245021.828 7        43.000    20968470.096 7  87301688.245 7        45.000                                                  
R08  22671129.080 5 121402266.675 5        35.000    22671133.333 7  94423985.452 7        42.000                                                  
R13  21623937.987 5 115469866.233 5        32.000    21623939.416 5  89809895.731 5        33.000                                                  
R14  21079106.241 7 112364197.611 7        45.000    21079111.101 7  87393775.333 7        43.000                                                  
R15  23849210.463 6 127442700.773 6        39.000    23849213.626 6  99122069.977 6        36.000                                                  
R22  21090590.501 5 112582915.375 5        32.000    21090594.754 5  87564489.388 5        31.000                                                  
R23  19578172.747 7 104729778.825 7        44.000                                                                                                  
R24  22222806.230 7 118834653.899 7        42.000    22222809.518 7  92426957.236 7        42.000                                                  
C02                                                  39897114.615 6 160649651.308 6        38.000  
C05                                                  38922796.203 6 156726004.495 6        40.000  
C08                                                  38060261.413 7 153252831.223 7        43.000  
C11                                                  22806533.478 7  91832441.865 7        47.000  
C13                                                  37001322.455 7 148988585.477 7        44.000  
C14                                                  24235371.968 7  97585941.964 7        45.000  
> 2021 11 07 00 53  0.0000000  0 26                     
G05  22242566.617 7 116885925.198 7        42.000                                                    22242572.925 6  91079946.479 6        40.000                                                  
G10  25728260.541 5 135203632.095 5        30.000                                                    25728272.585 5 105353479.876 5        35.000                                                  
G13  24565295.458 5 129090952.411 5        35.000    24565303.124 2 100590298.176 2        15.000                                                                                                  
G15  24277014.636 6 127576614.584 6        37.000                                                    24277020.854 6  99410349.762 6        38.000                                                  
G16  22180864.023 6 116560801.424 6        40.000    22180870.385 4  90826379.188 4        26.000                                                                                                  
G18  20218312.894 7 106248367.143 7        45.000                                                    20218319.738 8  82790940.740 8        49.000                                                  
G20  24502974.328 5 128763220.872 5        34.000    24502981.100 2 100334977.584 2        16.000                                                                                                  
G23  22929728.222 6 120496357.541 6        40.000                                                    22929736.603 7  93893268.259 7        44.000                                                  
G26  21419187.109 7 112558359.009 7        44.000                                                    21419196.437 7  87707811.988 7        45.000                                                  
G27  24520686.890 5 128857096.131 5        34.000                                                    24520694.824 6 100408126.582 6        38.000                                                  
G29  22024922.847 7 115741474.708 7        43.000                                                    22024929.512 7  90188166.808 7        43.000                                                  
R06  22316368.559 5 119085087.100 5        31.000                                                                                                  
R07  20953567.045 7 112165269.911 7        43.000    20953571.905 7  87239659.021 7        44.000                                                  
R08  22624576.576 5 121152976.953 5        35.000    22624580.454 6  94230093.485 6        41.000                                                  
R13  21662904.661 5 115677946.325 5        31.000    21662906.448 5  89971735.750 5        35.000                                                  
R14  21072038.149 7 112326519.903 7        45.000    21072042.348 7  87364470.446 7        42.000                                                  
R15  23807461.796 6 127219609.556 6        39.000    23807464.994 6  98948554.715 6        36.000                                                  
R22  21123297.013 5 112757497.115 5        32.000    21123299.158 5  87700275.165 5        31.000                                                  
R23  19563918.306 7 104653531.522 7        45.000                                                                                                  
R24  22184613.194 7 118630413.678 7        42.000    22184615.410 6  92268103.775 6        41.000                                                  
C02                                                  39896919.897 6 160648486.199 6        39.000  
C05                                                  38922323.192 6 156724099.347 6        41.000  
C08                                                  38071363.330 7 153297535.372 7        43.000  
C11                                                  22831094.897 7  91931341.346 7        46.000  
C13                                                  37009160.827 7 149020149.699 7        43.000  
C14                                                  24200781.471 7  97446659.531 7        44.000  
> 2021 11 07 00 54  0.0000000  0 26                     
G05  22267946.187 6 117019294.825 6        41.000                                                    22267952.245 7  91183870.887 7        43.000                                                  
G10  25684658.356 5 134974491.306 5        33.000                                                    25684669.113 6 105174928.610 6        37.000                                                  
G13  24536312.850 5 128938644.303 5        35.000    24536319.837 2 100471616.531 2        17.000                                                                                                  
G15  24241365.095 6 127389280.591 6        36.000                                                    24241373.565 6  99264375.270 6        38.000                                                  
G16  22159760.278 6 116449903.794 6        41.000    22159766.318 4  90739965.457 4        27.000                                                                                                  
G18  20210058.621 7 106204990.945 7        46.000                                                    20210065.715 8  82757141.119 8        50.000                                                  
G20  24541512.593 5 128965738.367 5        34.000    24541518.936 2 100492783.384 2        16.000                                                                                                  
G23  22889807.503 6 120286573.398 6        39.000                                                    22889814.847 7  93729800.169 7        42.000                                                  
G26  21430838.588 7 112619589.586 7        44.000                                                    21430848.469 7  87755524.107 7        45.000                                                  
G27  24479289.706 5 128639554.324 5        33.000                                                    24479297.908 6 100238613.450 6        41.000                                                  
G29  22056418.108 7 115906979.539 7        43.000                                                    22056424.630 7  90317131.579 7        44.000                                                  
R06  22345447.356 5 119240251.880 5        32.000                                                                                                  
R07  20939266.662 7 112088715.090 7        43.000    20939271.397 7  87180116.393 7        45.000                                                  
R08  22578236.499 5 120904827.545 5        34.000    22578239.216 6  94037088.495 6        40.000                                                  
R13  21702246.49615 115888689.26415        30.0001   21702248.55115  90135647.22215        34.0001                                                 
R14  21065593.114 7 112292164.859 7        44.000    21065598.331 7  87337749.854 7        43.000                                                  
R15  23766006.699 5 126998100.993 5        35.000    23766011.256 6  98776270.329 6        36.000                                                  
R22  21156204.410 5 112933152.049 5        33.000    21156204.499 5  87836895.665 5        31.000                                                  
R23  19550004.698 7 104579097.109 7        45.000                                                                                                  
R24  22146552.586 7 118426893.019 7        42.000    22146556.982 7  92109809.978 7        43.000                                                  
C02                                                  39896726.55416 160647451.54416        38.0001 
C05                                                  38921852.290 6 156722203.576 6        40.000  
C08                                                  38082487.046 7 153342326.038 7        43.000  
C11                                                  22855833.290 7  92030952.664 7        46.000  
C13                                                  37017033.383 7 149051849.204 7        43.000  
C14                                                  24166383.619 7  97308155.964 7        44.000  
> 2021 11 07 00 55  0.0000000  0 25                     
G05  22293708.136 7 117154672.974 7        43.000                                                    22293713.836 6  91289360.337 6        41.000                                                  
G10  25641033.638 5 134745243.339 5        32.000                                                    25641044.002 6 104996293.766 6        37.000                                                  
G13  24507602.333 5 128787775.004 5        35.000    24507609.999 2 100354056.046 2        16.000                                                                                                  
G15  24205906.646 5 127202944.352 5        35.000                                                    24205913.990 6  99119178.376 6        37.000                                                  
G16  22139076.348 6 116341208.373 6        41.000    22139082.674 4  90655267.717 4        25.000                                                                                                  
G18  20202159.476 7 106163479.302 7        46.000                                                    20202165.605 8  82724794.386 8        49.000    20202164.140 3  79277885.772 3        23.000  
G20  24580207.462 5 129169081.311 5        32.000    24580214.270 2 100651232.387 2        16.000                                                                                                  
G23  22850083.557 6 120077821.388 6        40.000                                                    22850091.008 7  93567136.327 7        43.000                                                  
G26  21442929.680 7 112683125.341 7        44.000                                                    21442939.043 7  87805032.477 7        45.000                                                  
G27  24437955.869 5 128422341.232 5        35.000                                                    24437964.017 6 100069356.520 6        41.000                                                  
G29  22088143.093 7 116073701.479 7        42.000                                                    22088149.811 7  90447044.777 7        43.000                                                  
R07  20925564.999 7 112015373.830 7        44.000    20925570.753 7  87123073.219 7        45.000                                                  
R08  22532115.515 6 120657854.586 6        36.000    22532119.446 7  93844998.418 7        42.000                                                  
R13  21741954.324 5 116100998.391 5        31.000    21741958.362 5  90300776.475 5        32.000                                                  
R14  21059773.584 7 112261140.091 7        44.000    21059778.301 7  87313619.483 7        42.000                                                  
R15  23724857.341 6 126778208.949 6        38.000    23724862.755 6  98605243.291 6        36.000                                                  
R22  21189306.185 5 113109869.826 5        32.000    21189311.689 5  87974342.817 5        31.000                                                  
R23  19536430.424 7 104506482.380 7        45.000                                                                                                  
R24  22108629.320 6 118224103.452 6        41.000    22108632.179 7  91952084.811 7        42.000                                                  
C02                                                  39896534.17616 160646285.43116        37.0001 
C05                                                  38921384.032 6 156720318.117 6        40.000  
C08                                                  38093632.260 7 153387201.886 7        42.000  
C11                                                  22880747.390 7  92131272.447 7        47.000  
C13                                                  37024939.353 7 149083682.738 7        43.000  
C14                                                  24132184.328 7  97170446.469 7        45.000  
> 2021 11 07 00 56  0.0000000  0 25                     
G05  22319846.979 7 117292039.290 7        42.000                                                    22319853.769 7  91396399.030 7        42.000                                                  
G10  25597391.927 5 134515903.597 5        33.000                                                    25597401.683 6 104817587.474 6        38.000                                                  
G13  24479172.718 5 128638367.818 5        35.000    24479177.703 2 100237634.846 2        16.000                                                                                                  
G15  24170643.148 6 127017631.712 6        37.000                                                    24170650.242 6  98974779.027 6        37.000                                                  
G16  22118813.680 6 116234729.890 6        41.000    22118819.988 4  90572297.464 4        25.000                                                                                                  
G18  20194614.460 7 106123831.861 7        46.000                                                    20194621.339 8  82693900.290 8        50.000    20194619.910 4  79248278.927 4        26.000  
G20  24619057.130 5 129373229.356 5        32.000    24619061.937 2 100810308.802 2        16.000                                                                                                  
G23  22810559.154 6 119870121.117 6        39.000                                                    22810566.856 7  93405292.008 7        43.000                                                  
G26  21455457.277 7 112748956.784 7        44.000                                                    21455466.533 7  87856329.679 7        45.000                                                  
G27  24396686.252 5 128205468.873 5        35.000                                                    24396694.740 6  99900365.060 6        41.000                                                  
G29  22120100.000 7 116241630.795 7        44.000                                                    22120106.432 7  90577898.762 7        42.000                                                  
R07  20912467.041 7 111945259.641 7        43.000    20912472.277 7  87068539.989 7        45.000                                                  
R08  22486221.020 5 120412092.559 5        35.000    22486225.577 6  93653850.210 6        41.000                                                  
R13  21782028.699 5 116314977.358 5        32.000    21782029.646 5  90467204.517 5        34.000                                                  
R14  21054578.612 7 112233450.618 7        45.000    21054583.508 7  87292083.220 7        43.000                                                  
R15  23684015.295 6 126559964.468 6        37.000    23684020.477 6  98435497.627 6        36.000                                                  
R22  21222612.775 5 113287637.904 5        32.000    21222611.417 4  88112606.853 4        29.000                                                  
R23  19523196.143 7 104435691.937 7        45.000                                                                                                  
R24  22070845.592 6 118022054.239 6        40.000    22070848.773 7  91794935.506 7        42.000                                                  
C02                                                  39896344.210 6 160646081.816 6        39.000  
C05                                                  38920918.151 6 156718442.226 6        40.000  
C08                                                  38104797.004 7 153432160.484 7        42.000  
C11                                                  22905837.035 7  92232295.971 7        47.000  
C13                                                  37032877.702 7 149115647.738 7        43.000  
C14                                                  24098184.742 7  97033544.823 7        45.000  
> 2021 11 07 00 57  0.0000000  0 25                     
G05  22346362.464 7 117431375.388 7        43.000                                                    22346368.468 6  91504972.613 6        41.000                                                  
G10  25553736.278 5 134286489.482 5        35.000                                                    25553746.713 6 104638823.194 6        39.000                                                  
G13  24451023.217 5 128490447.614 5        34.000    24451029.936 2 100122372.388 2        17.000                                                                                                  
G15  24135579.764 6 126833369.072 6        37.000                                                    24135586.108 6  98831197.838 6        39.000                                                  
G16  22098977.313 7 116130484.649 7        42.000    22098984.050 4  90491067.420 4        26.000                                                                                                  
G18  20187425.001 7 106086049.455 7        46.000                                                    20187431.666 8  82664459.455 8        50.000    20187429.844 3  79220064.798 3        23.000  
G20  24658051.519 5 129578163.367 5        31.000    24658059.52512 100970368.57512        14.0001                                                                                                 
G23  22771239.388 6 119663493.326 6        41.000                                                    22771246.607 7  93244283.396 7        43.000                                                  
G26  21468419.948 7 112817075.194 7        44.000                                                    21468429.258 7  87909408.951 7        45.000                                                  
G27  24355484.502 6 127988951.033 6        36.000                                                    24355492.901 6  99731649.849 6        41.000                                                  
G29  22152283.575 7 116410757.380 7        42.000                                                    22152290.437 7  90709685.698 7        42.000                                                  
R06  22435581.067 5 119720745.710 5        31.000                                                                                                  
R07  20899975.093 7 111878387.385 7        44.000    20899979.757 7  87016528.271 7        44.000                                                  
R08  22440559.680 5 120167576.154 5        35.000    22440563.719 7  93463670.845 7        42.000                                                  
R14  21050011.755 7 112209102.562 7        45.000    21050014.238 6  87273145.878 6        41.000                                                  
R15  23643489.298 6 126343400.724 6        38.000    23643493.247 6  98267059.276 6        38.000                                                  
R22  21256105.006 5 113466445.168 5        33.000    21256109.098 5  88251679.170 5        30.000                                                  
R23  19510304.697 7 104366732.288 7        45.000                                                                                                  
R24  22033202.280 6 117820756.006 6        41.000    22033205.478 7  91638370.268 7        42.000                                                  
C02                                                  39896155.299 6 160644967.534 6        39.000  
C05                                                  38920454.825 6 156716576.288 6        40.000  
C08                                                  38115982.673 6 153477200.436 6        41.000  
C11                                                  22931100.081 8  92334019.445 8        48.000  
C13                                                  37040848.931 7 149147742.862 7        44.000  
C14                                                  24064389.237 7  96897465.655 7        45.000  
> 2021 11 07 00 58  0.0000000  0 24                     
G05  22373247.607 7 117572661.062 7        42.000                                                    22373253.825 6  91615065.376 6        41.000                                                  
G10  25510068.728 5 134057018.189 5        35.000                                                    25510079.288 6 104460014.381 6        37.000                                                  
G13  24423162.927 6 128344038.425 6        36.000    24423169.556 2 100008287.381 2        15.000                                                                                                  
G15  24100719.659 6 126650183.538 6        36.000                                                    24100726.932 6  98688455.971 6        39.000                                                  
G16  22079567.802 6 116028488.296 6        41.000    22079573.913 4  90411589.746 4        25.000                                                                                                  
G18  20180589.760 7 106050132.754 7        46.000                                                    20180596.676 8  82636472.429 8        50.000    20180595.068 3  79193243.896 3        23.000  
G23  22732127.438 6 119457958.818 6        40.000                                                    22732134.854 7  93084126.704 7        44.000                                                  
G26  21481815.408 7 112887471.614 7        44.000                                                    21481825.182 7  87964263.295 7        45.000                                                  
G27  24314352.692 5 127772801.332 5        35.000                                                    24314360.483 6  99563221.414 6        39.000                                                  
G29  22184693.426 7 116581072.253 7        42.000                                                    22184699.680 7  90842398.547 7        42.000                                                  
R06  22466575.334 5 119886135.180 5        31.000                                                                                                  
R07  20888091.210 7 111814770.845 7        45.000    20888096.088 7  86967048.749 7        45.000                                                  
R08  22395135.820 5 119924341.144 5        35.000    22395140.877 6  93274488.112 6        41.000                                                  
R14  21046071.563 7 112188100.835 7        43.000    21046075.245 7  87256811.171 7        43.000                                                  
R15  23603283.549 6 126128550.993 6        39.000    23603287.963 6  98099953.955 6        37.000                                                  
R22  21289797.639 5 113646280.829 5        33.000    21289798.425 5  88391551.343 5        30.000                                                  
R23  19497757.212 7 104299609.007 7        45.000                                                                                                  
R24  21995699.954 6 117620219.838 6        41.000    21995703.867 7  91482397.750 7        42.000                                                  
C02                                                  39895968.42516 160645006.97416        40.0001 
C05                                                  38919993.858 6 156714720.650 6        41.000  
C08                                                  38127188.444 6 153522320.018 6        41.000  
C11                                                  22956535.867 7  92436439.111 7        46.000  
C13                                                  37048851.215 7 149179966.666 7        43.000  
C14                                                  24030802.122 7  96762223.693 7        45.000  
> 2021 11 07 00 59  0.0000000  0 25                     
G05  22400501.226 6 117715877.349 6        41.000                                                    22400507.194 6  91726662.480 6        41.000                                                  
G10  25466394.513 5 133827506.004 5        33.000                                                    25466404.394 6 104281173.717 6        38.000                                                  
G13  24395594.366 6 128199163.442 6        37.000    24395601.049 2  99895397.795 2        16.000                                                                                                  
G15  24066070.391 6 126468101.448 6        36.000                                                    24066077.074 6  98546573.910 6        39.000                                                  
G16  22060589.416 6 115928755.626 6        41.000    22060595.456 4  90333875.975 4        27.000                                                                                                  
G18  20174110.757 7 106016081.608 7        46.000                                                    20174117.225 8  82609939.080 8        50.000    20174115.188 4  79167816.112 4        25.000  
G20  24736482.646 4 129990920.918 4        29.000                                                                                                                                                  
G23  22693226.986 6 119253537.758 6        41.000                                                    22693234.973 7  92924837.618 7        44.000                                                  
G26  21495642.922 7 112960135.984 7        44.000                                                    21495652.661 7  88020884.859 7        45.000                                                  
G27  24273292.465 6 127557032.895 6        36.000                                                    24273301.649 6  99395090.142 6        39.000                                                  
G29  22217326.908 7 116752564.562 7        43.000                                                    22217333.823 7  90976028.899 7        43.000                                                  
R06  22498034.571 5 120053248.175 5        32.000                                                                                                  
R07  20876817.143 7 111754422.596 7        45.000    20876821.539 7  86920111.251 7        45.000                                                  
R08  22349959.249 5 119682421.946 5        34.000    22349963.519 6  93086328.803 6        41.000                                                  
R14  21042760.023 7 112170448.679 7        44.000    21042764.079 7  87243081.748 7        43.000                                                  
R15  23563404.840 6 125915446.563 6        37.000    23563407.091 5  97934206.105 5        35.000                                                  
R22  21323675.412 5 113827133.376 5        32.000    21323677.074 5  88532214.405 5        30.000                                                  
R23  19485553.527 7 104234327.542 7        45.000                                                                                                  
R24  21958344.743 6 117420456.141 6        41.000    21958347.424 7  91327026.037 7        42.000                                                  
C02                                                  39895782.623 6 160643242.907 6        40.000  
C05                                                  38919535.124 6 156712874.981 6        40.000  
C08                                                  38138413.300 7 153567517.170 7        42.000  
C11                                                  22982143.838 7  92539550.657 7        47.000  
C13                                                  37056884.663 7 149212316.772 7        42.000  
C14                                                  23997426.486 7  96627832.935 7        46.000  
> 2021 11 07 01 00  0.0000000  0 26                     
G05  22428117.694 7 117861003.503 7        43.000                                                    22428123.841 6  91839747.829 6        41.000                                                  
G10  25422714.919 5 133597969.485 5        34.000                                                    25422725.194 6 104102314.117 6        39.000                                                  
G13  24368323.038 6 128055846.777 6        37.000    24368327.398 2  99783722.485 2        15.000                                                                                                  
G15  24031636.873 6 126287148.944 6        36.000                                                    24031643.127 6  98405572.082 6        37.000                                                  
G16  22042044.694 6 115831301.282 6        41.000    22042050.591 4  90257937.519 4        27.000                                                                                                  
G18  20167985.452 7 105983895.777 7        47.000                                                    20167992.421 8  82584859.229 8        50.000    20167990.741 4  79143781.242 4        24.000  
G20  24775907.321 5 130197881.799 5        32.000                                                                                                                                                  
G23  22654542.874 6 119050249.906 6        40.000                                                    22654549.789 7  92766431.573 7        43.000                                                  
G26  21509900.312 7 113035058.198 7        43.000                                                    21509909.783 7  88079265.794 7        45.000                                                  
G27  24232308.949 5 127341659.059 5        34.000                                                    24232317.419 6  99227266.426 6        39.000                                                  
G29  22250183.646 7 116925225.118 7        43.000                                                    22250190.078 7  91110569.542 7        42.000                                                  
R06  22529954.918 5 120223580.032 5        32.000                                                                                                  
R07  20866156.162 7 111697354.210 7        43.000    20866161.326 7  86875724.751 7        44.000                                                  
R08  22305034.220 5 119441853.952 5        35.000    22305038.669 7  92899220.387 7        42.000                                                  
R13  21945804.388 5 117189629.677 5        30.000    21945804.674 5  91147489.644 5        32.000                                                  
R14  21040077.132 7 112156149.796 7        45.000    21040081.456 7  87231960.374 7        43.000                                                  
R15  23523856.993 6 125704120.319 6        37.000    23523859.173 5  97769841.401 5        34.000                                                  
R22  21357745.582 5 114008991.472 5        32.000    21357746.225 5  88673659.607 5        30.000                                                  
R23  19473694.732 7 104170893.017 7        45.000                                                                                                  
R24  21921134.111 7 117221475.536 7        42.000    21921136.845 7  91172263.388 7        42.000                                                  
C02                                                  39895598.75016 160642428.08716        40.0001 
C05                                                  38919080.000 6 156711039.489 6        40.000  
C08                                                  38149656.775 7 153612789.958 7        42.000  
C11                                                  23007921.226 7  92643349.908 7        46.000  
C13                                                  37064950.401 7 149244791.595 7        43.000  
C14                                                  23964265.456 7  96494307.496 7        46.000  
> 2021 11 07 01 01  0.0000000  0 24                     
G05  22456093.937 6 118008019.345 6        41.000                                                    22456100.495 7  91954305.597 7        42.000                                                  
G10  25379035.415 5 133368425.517 5        35.000                                                    25379044.242 6 103923448.701 6        39.000                                                  
G13  24341350.230 6 127914111.398 6        37.000    24341356.002 2  99673279.383 2        17.000                                                                                                  
G15  23997421.750 6 126107352.238 6        36.000                                                    23997428.934 6  98265470.759 6        38.000                                                  
G16  22023935.833 6 115736139.065 6        40.000    22023941.337 4  90183785.142 4        25.000                                                                                                  
G18  20162216.134 7 105953574.699 7        46.000                                                    20162222.353 8  82561232.434 8        50.000    20162220.566 3  79121138.899 3        23.000  
G20  24815466.140 5 130405765.635 5        33.000                                                                                                                                                  
G23  22616077.926 6 118848115.342 6        39.000                                                    22616085.699 7  92608924.180 7        44.000                                                  
G26  21524584.861 7 113112227.428 7        44.000                                                    21524594.492 7  88139397.640 7        45.000                                                  
G27  24191402.145 5 127126693.205 5        35.000                                                    24191410.044 6  99059760.499 6        39.000                                                  
G29  22283260.172 7 117099043.012 7        43.000                                                    22283266.462 6  91246012.073 6        41.000                                                  
R06  22562328.405 5 120396339.661 5        32.000                                                                                                  
R07  20856110.555 7 111643577.039 7        44.000    20856115.254 7  86833898.075 7        46.000                                                  
R08  22260370.919 6 119202671.374 6        36.000    22260373.242 7  92713189.553 7        42.000                                                  
R14  21038024.267 7 112145206.127 7        45.000    21038028.841 7  87223448.606 7        43.000                                                  
R15  23484649.337 6 125494603.991 6        38.000    23484651.981 5  97606884.304 5        35.000                                                  
R22  21391997.33615 114191826.03715        32.0001   21392001.19515  88815865.45115        30.0001                                                 
R23  19462182.793 7 104109310.691 7        45.000                                                                                                  
R24  21884070.488 6 117023288.099 6        41.000    21884075.133 6  91018117.639 6        41.000                                                  
C05                                                  38918625.930 6 156709213.617 6        40.000  
C08                                                  38160918.602 7 153658136.245 7        42.000  
C11                                                  23033869.925 7  92747832.414 7        46.000  
C13                                                  37073045.836 7 149277388.869 7        43.000  
C14                                                  23931322.251 7  96361661.284 7        46.000  
> 2021 11 07 01 02  0.0000000  0 26                     
G05  22484426.291 7 118156905.321 7        42.000                                                    22484432.170 6  92070320.711 6        40.000                                                  
G10  25335355.535 6 133138891.262 6        36.000                                                    25335365.720 6 103744590.904 6        38.000                                                  
G13  24314685.145 6 127773981.124 6        37.000    24314690.631 3  99564087.008 3        18.000                                                                                                  
G15  23963433.046 6 125928738.193 6        36.000                                                    23963439.925 6  98126291.064 6        37.000                                                  
G16  22006266.139 6 115643284.845 6        40.000    22006272.358 4  90111431.204 4        27.000                                                                                                  
G18  20156801.284 7 105925118.702 7        47.000                                                    20156807.199 8  82539058.929 8        50.000    20156805.644 4  79099889.288 4        24.000  
G20  24855157.510 5 130614338.901 5        34.000                                                                                                                                                  
G23  22577836.484 6 118647154.771 6        41.000                                                    22577844.346 7  92452331.600 7        46.000                                                  
G26  21539695.568 7 113191633.672 7        44.000                                                    21539705.342 7  88201272.600 7        45.000                                                  
G27  24150575.859 5 126912149.754 5        35.000                                                    24150584.294 6  98892583.804 6        41.000                                                  
G29  22316554.111 6 117274008.628 6        41.000                                                    22316561.205 7  91382348.875 7        42.000                                                  
R06  22595154.42615 120571782.75715        32.0001                                                                                                 
R07  20846681.286 7 111593102.961 7        45.000    20846686.772 7  86794640.465 7        45.000                                                  
R08  22215969.702 6 118964909.511 6        36.000    22215973.455 6  92528263.702 6        41.000                                                  
R13  22029693.626 4 117636835.372 4        29.000    22029694.733 5  91495317.043 5        33.000                                                  
R14  21036600.678 7 112137620.288 7        44.000    21036605.359 7  87217548.498 7        43.000                                                  
R15  23445785.588 6 125286930.498 6        39.000    23445788.447 6  97445360.560 6        37.000                                                  
R22  21426436.965 5 114375661.148 5        33.000    21426439.324 4  88958848.267 4        29.000                                                  
R23  19451017.459 7 104049586.261 7        44.000                                                                                                  
R24  21847160.788 7 116825904.910 7        42.000    21847163.003 7  90864597.429 7        42.000                                                  
C02                                                  39895235.062 6 160641509.166 6        40.000  
C05                                                  38918175.166 6 156707398.006 6        41.000  
C08                                                  38172197.833 7 153703554.788 7        42.000  
C11                                                  23059986.270 7  92852994.615 7        45.000  
C13                                                  37081171.685 7 149310107.640 7        43.000  
C14                                                  23898602.015 7  96229908.928 7        46.000  
> 2021 11 07 01 03  0.0000000  0 26                     
G05  22513110.022 7 118307641.947 7        42.000                                                    22513116.508 7  92187777.765 7        42.000                                                  
G10  25291681.606 5 132909384.686 5        35.000                                                    25291691.380 6 103565754.611 6        36.000                                                  
G13  24288328.658 6 127635479.986 6        36.000    24288335.019 2  99456164.102 2        17.000                                                                                                  
G15  23929673.387 6 125751334.459 6        37.000                                                    23929681.285 6  97988054.491 6        38.000                                                  
G16  21989039.097 6 115552752.704 6        40.000    21989044.618 4  90040886.674 4        27.000                                                                                                  
G18  20151740.527 7 105898527.951 7        46.000                                                    20151747.531 8  82518338.877 8        50.000    20151746.191 4  79080032.571 4        26.000  
G20  24894973.37515 130824425.56215        31.0001                                                                                                                                                 
G23  22539821.781 6 118447389.055 6        41.000                                                    22539829.697 7  92296670.051 7        46.000                                                  
G26  21555230.217 7 113273266.644 7        43.000                                                    21555239.491 7  88264882.710 7        45.000                                                  
G27  24109831.735 5 126698043.165 5        32.000                                                    24109840.688 6  98725747.504 6        41.000                                                  
G29  22350066.302 7 117450113.144 7        42.000                                                    22350072.913 7  91519573.142 7        42.000                                                  
R06  22628422.508 5 120749310.864 5        30.000                                                                                                  
R07  20837871.804 7 111545942.478 7        45.000    20837876.557 7  86757960.096 7        45.000                                                  
R08  22171840.202 6 118728603.999 6        37.000    22171845.170 6  92344470.563 6        41.000                                                  
R13  22072116.52715 117863942.42415        30.0001   22072117.24115  91671955.14915        31.0001                                                 
R14  21035808.740 7 112133394.245 7        45.000    21035813.011 7  87214261.583 7        43.000                                                  
R15  23407272.357 6 125081133.097 6        36.000    23407276.503 6  97285296.005 6        38.000                                                  
R22  21461056.98215 114561204.54415        32.0001   21461059.73414  89103159.12714        29.0001                                                 
R23  19440201.339 7 103991725.833 7        45.000                                                                                                  
R24  21810399.204 6 116629338.024 6        41.000    21810403.886 7  90711712.137 7        42.000                                                  
C02                                                  39895056.211 6 160640331.226 6        39.000  
C05                                                  38917726.886 6 156705593.286 6        39.000  
C08                                                  38183495.147 6 153749044.370 6        41.000  
C11                                                  23086271.781 7  92958832.957 7        46.000  
C13                                                  37089327.286 7 149342946.665 7        43.000  
C14                                                  23866106.107 7  96099064.971 7        45.000  
> 2021 11 07 01 04  0.0000000  0 26                     
G05  22542141.430 6 118460205.660 6        41.000                                                    22542147.863 6  92306658.629 6        40.000                                                  
G07  25701770.787 5 135063202.100 5        30.000                                                    25701780.114 5 105244052.705 5        30.000                                                  
G10  25248017.594 5 132679919.273 5        35.000                                                    25248026.564 6 103386950.482 6        38.000                                                  
G13  24262287.970 6 127498627.503 6        37.000    24262292.777 2  99349525.838 2        16.000                                                                                                  
G15  23896148.991 6 125575163.069 6        37.000                                                    23896156.568 6  97850778.050 6        37.000                                                  
G16  21972254.741 7 115464552.630 7        42.000    21972260.924 4  89972159.373 4        27.000                                                                                                  
G18  20147035.005 7 105873798.347 7        47.000                                                    20147041.420 8  82499069.059 8        50.000    20147039.580 4  79061565.668 4        24.000  
G20  24934914.161 5 131034319.278 5        30.000                                                                                                                                                  
G23  22502038.465 6 118248834.623 6        40.000                                                    22502045.594 7  92141952.388 7        44.000                                                  
G26  21571185.504 7 113357111.597 7        43.000                                                    21571194.653 7  88330216.398 7        45.000                                                  
G27  24069174.723 6 126484383.880 6        36.000                                                    24069183.139 7  98559259.743 7        42.000                                                  
G29  22383791.599 7 117627342.716 7        43.000                                                    22383798.907 7  91657674.068 7        43.000                                                  
R07  20829681.394 7 111502101.949 7        44.000    20829686.165 7  86723861.944 7        44.000                                                  
R08  22127991.032 5 118493786.406 5        35.000    22127994.552 6  92161834.648 6        41.000                                                  
R13  22114847.758 5 118091313.288 5        31.000    22114849.813 5  91848799.213 5        33.000                                                  
R14  21035645.292 7 112132524.744 7        45.000    21035649.617 7  87213585.306 7        42.000                                                  
R15  23369117.365 6 124877239.584 6        39.000    23369120.635 6  97126712.231 6        38.000                                                  
R22  21495858.15515 114745822.61115        32.0001   21495859.97814  89246750.60414        29.0001                                                 
R23  19429734.470 7 103935730.963 7        45.000                                                                                                  
R24  21773794.886 6 116433594.612 6        41.000    21773798.603 7  90559467.290 7        43.000                                                  
C02                                                  39894878.25316 160640367.84516        39.0001 
C05                                                  38917281.108 6 156703796.842 6        40.000  
C08                                                  38194808.616 6 153794600.547 6        41.000  
C11                                                  23112723.332 7  93065340.548 7        46.000  
C13                                                  37097511.602 7 149375901.443 7        43.000  
C14                                                  23833840.208 7  95969140.844 7        46.000  
> 2021 11 07 01 05  0.0000000  0 26                     
G05  22571518.158 6 118614578.966 6        41.000                                                    22571524.859 7  92426949.509 7        42.000                                                  
G07  25681250.358 5 134956227.363 5        34.000                                                    25681256.666 5 105160696.061 5        31.000                                                  
G10  25204362.195 6 132450515.807 6        36.000                                                    25204371.558 6 103208194.619 6        38.000                                                  
G13  24236563.117 5 127363449.718 5        35.000    24236568.263 2  99244192.575 2        16.000                                                                                                  
G15  23862865.917 6 125400254.115 6        37.000                                                    23862873.332 6  97714485.410 6        38.000                                                  
G16  21955918.398 7 115378701.647 7        42.000    21955923.526 4  89905262.487 4        26.000                                                                                                  
G18  20142683.577 7 105850932.277 7        46.000                                                    20142690.295 8  82481251.344 8        50.000    20142688.223 4  79044490.358 4        24.000  
G20  24974976.064 5 131244845.851 5        31.000                                                                                                                                                  
G23  22464490.430 6 118051514.802 6        41.000                                                    22464496.737 7  91988196.747 7        44.000                                                  
G26  21587559.658 7 113443160.103 7        43.000                                                    21587568.735 7  88397267.176 7        45.000                                                  
G27  24028604.035 6 126271189.412 6        36.000                                                    24028613.345 6  98393134.256 6        40.000                                                  
G29  22417730.735 7 117805689.461 7        42.000                                                    22417737.060 7  91796645.517 7        42.000                                                  
R06  22696270.295 5 121112138.759 5        31.000                                                                                                  
R07  20822113.702 7 111461593.369 7        44.000    20822119.367 7  86692355.292 7        45.000                                                  
R08  22084426.318 6 118260494.609 6        37.000    22084428.552 7  91980385.510 7        42.000                                                  
R14  21036112.496 7 112135015.192 7        45.000    21036116.749 7  87215522.338 7        43.000                                                  
R15  23331323.560 6 124675285.329 6        38.000    23331326.812 6  96969636.700 6        37.000                                                  
R22  21530837.750 5 114932540.515 5        33.000    21530838.912 5  89391975.606 5        31.000                                                  
R23  19419616.636 7 103881609.668 7        45.000                                                                                                  
R24  21737345.599 7 116238688.712 7        42.000    21737350.388 7  90407873.878 7        43.000                                                  
C02                                                  39894702.297 6 160639188.584 6        39.000  
C05                                                  38916837.098 6 156702011.169 6        40.000  
C08                                                  38206140.185 7 153840224.331 7        42.000  
C11                                                  23139339.527 7  93172515.989 7        45.000  
C13                                                  37105725.081 7 149408972.780 7        43.000  
C14                                                  23801805.464 7  95840152.849 7        45.000  
> 2021 11 07 01 06  0.0000000  0 25                     
G05  22601234.361 6 118770740.774 6        40.000                                                    22601241.437 6  92548634.010 6        41.000                                                  
G10  25160722.717 6 132221191.190 6        36.000                                                    25160731.795 6 103029500.131 6        37.000                                                  
G13  24211163.087 6 127229969.110 6        37.000    24211168.376 2  99140181.766 2        17.000                                                                                                  
G15  23829826.504 6 125226633.721 6        38.000                                                    23829833.580 6  97579196.849 6        38.000                                                  
G16  21940029.763 6 115295212.807 6        41.000    21940036.214 4  89840206.244 4        27.000                                                                                                  
G18  20138686.723 7 105829928.523 7        47.000                                                    20138693.531 8  82464884.803 8        50.000    20138691.798 4  79028805.745 4        25.000  
G20  25015156.97415 131455551.34315        33.0001                                                                                                                                                 
G23  22427179.463 6 117855449.120 6        40.000                                                    22427187.415 7  91835418.367 7        44.000                                                  
G26  21604351.554 7 113531400.094 7        43.000                                                    21604360.667 7  88466025.571 7        45.000                                                  
G27  23988125.927 6 126058473.485 6        36.000                                                    23988134.808 6  98227381.597 6        41.000                                                  
G29  22451879.260 7 117985144.190 7        43.000                                                    22451886.961 7  91936480.320 7        42.000                                                  
R06  22730835.15015 121296127.24715        31.0001                                                                                                 
R07  20815169.782 7 111424424.519 7        45.000    20815175.268 7  86663446.182 7        45.000                                                  
R08  22041151.047 6 118028763.437 6        36.000    22041155.174 7  91800150.226 7        42.000                                                  
R14  21037209.672 7 112140864.290 7        45.000    21037214.014 7  87220071.643 7        43.000                                                  
R15  23293899.196 6 124475302.283 6        39.000    23293903.252 6  96814094.398 6        38.000                                                  
R22  21565989.871 5 115120198.456 5        32.000    21565993.016 5  89537931.784 5        31.000                                                  
R23  19409850.321 7 103829366.748 7        45.000                                                                                                  
R24  21701056.330 7 116044631.057 7        42.000    21701060.225 7  90256940.200 7        42.000                                                  
C02                                                  39894527.824 6 160639189.146 6        38.000  
C05                                                  38916396.734 6 156700236.382 6        40.000  
C08                                                  38217486.747 7 153885913.491 7        42.000  
C11                                                  23166122.334 7  93280354.819 7        46.000  
C13                                                  37113966.721 7 149442159.129 7        43.000  
C14                                                  23770008.502 7  95712114.831 7        46.000  
> 2021 11 07 01 07  0.0000000  0 25                     
G05  22631287.359 6 118928669.305 6        40.000                                                    22631294.400 6  92671695.242 6        41.000                                                  
G10  25117102.967 6 131991960.791 6        37.000                                                    25117112.205 6 102850879.062 6        39.000                                                  
G13  24186088.863 6 127098206.683 6        36.000    24186095.189 2  99037509.755 2        16.000                                                                                                  
G15  23797037.455 6 125054325.903 6        37.000                                                    23797043.619 6  97444931.023 6        38.000                                                  
G16  21924594.537 7 115214097.067 7        42.000    21924600.809 4  89776999.172 4        27.000                                                                                                  
G18  20135044.319 7 105810784.425 7        47.000                                                    20135050.770 8  82449967.324 8        49.000    20135048.465 4  79014509.854 4        24.000  
G20  25055449.459 5 131667286.085 5        35.000                                                                                                                                                  
G23  22390111.533 7 117660655.950 7        42.000                                                    22390119.431 7  91683631.506 7        45.000                                                  
G26  21621556.707 7 113621817.622 7        44.000                                                    21621566.517 7  88536480.762 7        45.000                                                  
G27  23947740.077 5 125846248.873 5        34.000                                                    23947750.191 7  98062011.783 7        42.000                                                  
G29  22486236.727 7 118165694.152 7        42.000                                                    22486244.035 7  92077168.568 7        42.000                                                  
R07  20808852.582 7 111390600.966 7        44.000    20808856.728 7  86637138.988 7        45.000                                                  
R08  21998174.009 6 117798625.633 6        37.000    21998177.833 6  91621154.217 6        41.000                                                  
R13  22244832.338 5 118786743.914 5        31.000    22244835.787 5  92389689.585 5        32.000                                                  
R14  21038937.499 7 112150069.057 7        45.000    21038941.323 7  87227230.867 7        43.000                                                  
R15  23256850.457 6 124277320.544 6        39.000    23256853.048 6  96660108.675 6        38.000                                                  
R22  21601318.913 5 115308783.563 5        33.000    21601322.147 5  89684609.049 5        30.000                                                  
R23  19400436.027 7 103779005.918 7        45.000                                                                                                  
R24  21664927.703 7 115851430.869 7        42.000    21664931.419 7  90106673.463 7        42.000                                                  
C02                                                  39894354.995 6 160638010.559 6        38.000  
C05                                                  38915958.067 6 156698471.146 6        40.000  
C08                                                  38228849.891 7 153931665.344 7        43.000  
C11                                                  23193067.016 7  93388851.848 7        46.000  
C13                                                  37122235.844 7 149475457.308 7        43.000  
C14                                                  23738449.378 7  95585039.316 7        46.000  
> 2021 11 07 01 08  0.0000000  0 25                     
G05  22661673.365 6 119088344.525 6        41.000                                                    22661679.422 6  92796117.468 6        41.000                                                  
G10  25073501.586 6 131762843.176 6        36.000                                                    25073511.289 6 102672345.914 6        39.000                                                  
G13  24161347.307 6 126968185.611 6        37.000    24161352.917 2  98936194.690 2        17.000                                                                                                  
G15  23764503.557 6 124883358.077 6        37.000                                                    23764510.204 6  97311709.435 6        39.000                                                  
G16  21909612.934 6 115135367.409 6        41.000    21909618.759 4  89715651.395 4        27.000                                                                                                  
G18  20131754.632 7 105793499.649 7        47.000                                                    20131761.565 8  82436498.688 8        50.000    20131759.707 4  79001602.394 4        25.000  
G20  25095849.55115 131879168.11515        30.0001                                                                                                                                                 
G23  22353289.141 6 117467155.701 6        40.000                                                    22353296.610 7  91532852.190 7        44.000                                                  
G26  21639174.688 7 113714401.233 7        43.000                                                    21639184.159 7  88608623.834 7        44.000                                                  
G27  23907453.185 6 125634531.060 6        36.000                                                    23907461.316 6  97897036.842 6        40.000                                                  
G29  22520800.707 7 118347329.895 7        42.000                                                    22520807.979 7  92218702.902 7        42.000                                                  
R06  22801229.952 5 121672337.960 5        32.000                                                                                                  
R07  20803159.654 7 111360131.004 7        44.000    20803165.086 7  86613440.138 7        45.000                                                  
R08  21955502.139 6 117570117.684 6        36.000    21955505.838 7  91443425.796 7        42.000                                                  
R14  21041291.850 7 112162628.247 7        44.000    21041297.193 7  87236999.114 7        44.000                                                  
R15  23220181.453 6 124081372.074 6        41.000    23220184.259 6  96507704.342 6        37.000                                                  
R22  21636820.56915 115499157.01015        32.0001   21636821.17714  89832677.83914        29.0001                                                 
R23  19391373.466 7 103730532.334 7        44.000                                                                                                  
R24  21628961.791 7 115659100.709 7        43.000    21628963.756 7  89957083.367 7        43.000                                                  
C02                                                  39894182.988 6 160636786.335 6        39.000  
C05                                                  38915522.367 6 156696716.241 6        40.000  
C08                                                  38240227.759 7 153977479.001 7        42.000  
C11                                                  23220174.467 7  93498003.628 7        45.000  
C13                                                  37130533.128 7 149508866.561 7        42.000  
C14                                                  23707131.681 7  95458940.755 7        45.000  
> 2021 11 07 01 09  0.0000000  0 26                     
G05  22692386.588 6 119249744.285 6        41.000                                                    22692392.377 6  92921883.561 6        41.000                                                  
G10  25029927.491 6 131533855.113 6        36.000                                                    25029936.908 6 102493913.726 6        38.000                                                  
G13  24136939.919 6 126839927.511 6        37.000    24136946.191 2  98836253.355 2        17.000                                                                                                  
G15  23732229.760 6 124713755.997 6        38.000                                                    23732235.764 6  97179552.054 6        39.000                                                  
G16  21895087.330 7 115059035.894 7        42.000    21895093.173 4  89656172.302 4        27.000                                                                                                  
G18  20128819.252 7 105778072.420 7        46.000                                                    20128825.184 8  82424477.466 8        50.000    20128823.487 4  78990082.070 4        25.000  
G20  25136357.322 5 132092562.352 5        35.000                                                                                                                                                  
G23  22316718.524 6 117274967.702 6        41.000                                                    22316724.492 7  91383095.360 7        44.000                                                  
G26  21657203.067 7 113809137.618 7        43.000                                                    21657212.645 7  88682444.361 7        45.000                                                  
G27  23867263.573 6 125423334.001 6        36.000                                                    23867272.293 6  97732467.755 6        41.000                                                  
G29  22555569.572 7 118530040.911 7        42.000                                                    22555576.327 6  92361075.081 6        40.000                                                  
R06  22837040.617 5 121863444.228 5        32.000                                                                                                  
R07  20798095.716 7 111333020.085 7        45.000    20798100.755 7  86592353.893 7        46.000                                                  
R08  21913141.994 6 117343272.434 6        38.000    21913143.424 7  91266990.692 7        42.000                                                  
R13  22332918.580 5 119256693.922 5        30.000    22332919.849 5  92755206.584 5        31.000                                                  
R14  21044275.959 7 112178538.150 7        43.000    21044280.962 7  87249373.485 7        42.000                                                  
R15  23183898.384 6 123887488.431 6        41.000    23183901.726 6  96356906.007 6        40.000                                                  
R22  21672491.606 5 115688623.339 5        32.000    21672492.482 5  89980039.953 5        31.000                                                  
R23  19382665.766 7 103683950.586 7        44.000                                                                                                  
R24  21593159.148 7 115467651.306 7        43.000    21593161.704 7  89808178.271 7        42.000                                                  
C02                                                  39894013.607 6 160636684.513 6        39.000  
C05                                                  38915088.793 6 156694971.511 6        40.000  
C08                                                  38251619.708 6 154023352.430 6        41.000  
C11                                                  23247444.418 7  93607805.678 7        46.000  
C13                                                  37138857.109 7 149542384.996 7        43.000  
C14                                                  23676061.453 7  95333832.483 7        46.000  
> 2021 11 07 01 10  0.0000000  0 26                     
G05  22723424.259 6 119412849.814 6        41.000                                                    22723430.656 7  93048978.755 7        42.000                                                  
G10  24986380.575 6 131305015.348 6        38.000                                                    24986390.170 6 102315597.035 6        38.000                                                  
G13  24112873.722 6 126713455.328 6        38.000    24112879.637 2  98737703.666 2        17.000                                                                                                  
G15  23700220.318 6 124545546.247 6        39.000                                                    23700226.501 6  97048479.600 6        38.000                                                  
G16  21881020.603 7 114985115.886 7        43.000    21881026.839 4  89598572.291 4        28.000                                                                                                  
G18  20126236.463 7 105764502.216 7        47.000                                                    20126243.218 8  82413903.283 8        50.000    20126241.806 3  78979948.476 3        23.000  
G20  25176967.500 5 132305970.603 5        31.000                                                                                                                                                  
G23  22280399.288 6 117084112.662 6        41.000                                                    22280406.132 7  91234377.222 7        44.000                                                  
G26  21675637.716 7 113906014.829 7        44.000                                                    21675647.597 7  88757933.097 7        44.000                                                  
G27  23827175.813 6 125212673.438 6        36.000                                                    23827184.712 6  97568316.614 6        41.000                                                  
G29  22590540.948 7 118713817.566 7        42.000                                                    22590548.292 7  92504277.644 7        42.000                                                  
R06  22873257.67815 122056429.07315        31.0001                                                                                                 
R07  20793659.928 7 111309274.837 7        45.000    20793664.913 7  86573885.386 7        45.000                                                  
R08  21871097.559 6 117118126.737 6        38.000    21871100.704 7  91091877.391 7        44.000                                                  
R13  22377369.651 4 119494395.027 4        29.000    22377369.615 5  92940084.910 5        31.000                                                  
R14  21047889.790 7 112197796.754 7        44.000    21047894.704 7  87264352.379 7        43.000                                                  
R15  23148007.612 6 123695701.902 6        40.000    23148011.632 6  96207738.736 6        39.000                                                  
R22  21708328.986 5 115879929.257 5        32.000    21708329.987 5  90128833.419 5        31.000                                                  
R23  19374312.784 7 103639266.492 7        45.000                                                                                                  
R24  21557522.581 7 115277094.730 7        42.000    21557526.976 6  89659967.675 6        41.000                                                  
C02                                                  39893844.87016 160635609.04116        39.0001 
C05                                                  38914658.650 6 156693237.869 6        40.000  
C08                                                  38263026.827 7 154069284.970 7        42.000  
C11                                                  23274873.797 7  93718254.789 7        45.000  
C13                                                  37147208.679 7 149576011.762 7        43.000  
C14                                                  23645240.837 7  95209729.042 7        46.000  
> 2021 11 07 01 11  0.0000000  0 27                     
G05  22754782.339 6 119577637.686 6        39.000                                                    22754788.433 6  93177384.907 6        41.000                                                  
G07  25564919.534 5 134344866.786 5        32.000                                                    25564928.272 5 104684311.021 5        33.000                                                  
G10  24942865.090 6 131076339.176 6        37.000                                                    24942874.239 6 102137407.868 6        38.000                                                  
G13  24089149.181 6 126588789.912 6        37.000    24089156.293 3  98640561.772 3        18.000                                                                                                  
G15  23668479.644 6 124378753.566 6        36.000                                                    23668486.667 6  96918511.346 6        36.000                                                  
G16  21867415.379 7 114913616.691 7        43.000    21867421.472 4  89542858.639 4        28.000                                                                                                  
G18  20124006.945 7 105752785.727 7        47.000                                                    20124013.575 8  82404773.549 8        50.000    20124012.181 4  78971199.156 4        24.000  
G20  25217676.63614 132519284.01914        28.0001                                                                                                                                                 
G23  22244338.170 7 116894608.204 7        42.000                                                    22244344.835 7  91086711.459 7        45.000                                                  
G26  21694477.616 7 114005017.734 7        43.000                                                    21694486.801 7  88835078.177 7        45.000                                                  
G27  23787193.606 6 125002562.512 6        37.000                                                    23787202.273 6  97404593.849 6        41.000                                                  
G29  22625713.600 7 118898647.582 7        42.000                                                    22625720.158 7  92648301.031 7        42.000                                                  
R06  22909874.112 5 122251523.968 5        32.000                                                                                                  
R07  20789853.236 7 111288898.282 7        44.000    20789858.293 7  86558036.954 7        45.000                                                  
R08  21829374.516 6 116894712.391 6        36.000    21829377.607 6  90918110.708 6        41.000                                                  
R13  22422081.02015 119731931.00515        30.0001   22422081.59215  93124835.17315        31.0001                                                 
R14  21052129.412 7 112220397.481 7        43.000    21052133.898 7  87281930.734 7        44.000                                                  
R15  23112515.622 6 123506041.522 6        40.000    23112519.000 6  96060225.193 6        40.000                                                  
R22  21744331.97615 116072514.33715        32.0001   21744333.85214  90278622.33414        29.0001                                                 
R23  19366314.645 7 103596482.687 7        44.000                                                                                                  
R24  21522057.663 7 115087440.790 7        42.000    21522061.004 7  89512459.048 7        43.000                                                  
C02                                                  39893678.599 6 160635609.407 6        39.000  
C05                                                  38914230.186 6 156691514.088 6        40.000  
C08                                                  38274448.796 7 154115273.621 7        43.000  
C11                                                  23302463.479 7  93829345.583 7        45.000  
C13                                                  37155586.070 7 149609744.125 7        43.000  
C14                                                  23614671.656 7  95086642.469 7        46.000  
> 2021 11 07 01 12  0.0000000  0 26                     
G05  22786456.308 6 119744087.808 6        39.000                                                    22786462.544 6  93307086.308 6        41.000                                                  
G07  25546691.987 5 134249071.723 5        33.000                                                    25546699.028 5 104609665.483 5        30.000                                                  
G10  24899383.610 6 130847845.225 6        38.000                                                    24899392.992 6 101959360.610 6        40.000                                                  
G13  24065774.801 6 126465953.091 6        36.000    24065782.521 2  98544844.812 2        16.000                                                                                                  
G15  23637014.904 6 124213404.619 6        39.000                                                    23637021.104 6  96789668.072 6        36.000                                                  
G16  21854273.070 7 114844550.483 7        42.000    21854278.502 4  89489040.817 4        27.000                                                                                                  
G18  20122129.751 7 105742921.983 7        47.000                                                    20122136.291 8  82397087.536 8        50.000    20122135.272 4  78963833.378 4        25.000  
G20  25258481.65815 132734251.74515        33.0001                                                                                                                                                 
G23  22208536.957 7 116706474.689 7        42.000                                                    22208543.962 7  90940113.978 7        44.000                                                  
G26  21713719.284 7 114106133.623 7        43.000                                                    21713729.255 7  88913869.777 7        46.000                                                  
G27  23747317.899 6 124793016.830 6        36.000                                                    23747326.583 6  97241311.507 6        41.000                                                  
G29  22661083.669 6 119084521.435 6        41.000                                                    22661091.317 6  92793137.742 6        41.000                                                  
R07  20786677.571 7 111271895.336 7        43.000    20786681.717 7  86544812.447 7        45.000                                                  
R08  21787984.748 6 116673065.351 6        38.000    21787987.733 7  90745718.633 7        43.000                                                  
R13  22467049.041 5 119972926.241 5        31.000    22467050.918 5  93312276.608 5        30.000                                                  
R14  21056996.613 7 112246336.644 7        44.000    21057000.580 7  87302105.608 7        42.000                                                  
R15  23077426.526 6 123318539.505 6        41.000    23077431.529 6  95914390.351 6        41.000                                                  
R22  21780501.023 5 116265580.133 5        32.000    21780502.202 5  90428784.622 5        30.000                                                  
R23  19358671.724 7 103555604.614 7        44.000                                                                                                  
R24  21486761.875 7 114898701.203 7        42.000    21486765.663 6  89365661.622 6        40.000                                                  
C02                                                  39893513.75716 160634475.66916        38.0001 
C05                                                  38913804.832 6 156689800.978 6        40.000  
C08                                                  38285883.380 7 154161317.638 7        42.000  
C11                                                  23330211.499 7  93941074.480 7        45.000  
C13                                                  37163989.121 7 149643581.142 7        43.000  
C14                                                  23584359.664 7  94964587.008 7        46.000  
