     3.02           OBSERVATION DATA    M                   RINEX VERSION / TYPE
HIVE                geosystems.aero     18-JAN-22 11:21     PGM / RUN BY / DATE 
KZIL                                                        MARKER NAME         
454                                                         MARKER NUMBER       
                                                            MARKER TYPE         
geosystems.aero     Industrial Geodetic Systems             OBSERVER / AGENCY   
                    IGS GR111 (NOV OEM628)                  REC # / TYPE / VERS 
                    HXCCSX601A      NONE                    ANT # / TYPE        
  3183977.2540  3398463.8320  4343629.1770                  APPROX POSITION XYZ 
        0.0000        0.0000        0.0000                  ANTENNA: DELTA H/E/N
G  6   C1C L1C S1C C2W L2W S2W                              SYS / # / OBS TYPES 
R  6   C1C L1C S1C C2C L2C S2C                              SYS / # / OBS TYPES 
    60.000                                                  INTERVAL            
  2021    11    07    00    00   00.0000000     GPS         TIME OF FIRST OBS   
  2021    11    07    23    59   00.0000000     GPS         TIME OF LAST OBS    
 C1C    0.000 C1P    0.000 C2C    0.000 C2P    0.000        GLONASS COD/PHS/BIS 
    18                                                      LEAP SECONDS        
    50                                                      # OF SATELLITES     
   G01   328   328   328   328   328   328                  PRN / # OF OBS      
   G02   102   102   102   101   101   101                  PRN / # OF OBS      
   G04   310   310   310   310   310   310                  PRN / # OF OBS      
   G05   121   121   121   121   121   121                  PRN / # OF OBS      
   G06   192   192   192   192   192   192                  PRN / # OF OBS      
   G07   140   140   140   140   140   140                  PRN / # OF OBS      
   G08   297   297   297   296   296   296                  PRN / # OF OBS      
   G09   216   216   216   216   216   216                  PRN / # OF OBS      
   G10   411   411   411   410   410   410                  PRN / # OF OBS      
   G12     9     9     9     9     9     9                  PRN / # OF OBS      
   G13   163   163   163   163   163   163                  PRN / # OF OBS      
   G15   228   228   228   228   228   228                  PRN / # OF OBS      
   G16   428   428   428   428   428   428                  PRN / # OF OBS      
   G17   149   149   149   148   148   148                  PRN / # OF OBS      
   G18   299   299   299   299   299   299                  PRN / # OF OBS      
   G19    96    96    96    96    96    96                  PRN / # OF OBS      
   G20    88    88    88    88    88    88                  PRN / # OF OBS      
   G21   364   364   364   364   364   364                  PRN / # OF OBS      
   G22   410   410   410   410   410   410                  PRN / # OF OBS      
   G23   353   353   353   353   353   353                  PRN / # OF OBS      
   G24   132   132   132   132   132   132                  PRN / # OF OBS      
   G25    69    69    69    69    69    69                  PRN / # OF OBS      
   G26   433   433   433   433   433   433                  PRN / # OF OBS      
   G27   338   338   338   338   338   338                  PRN / # OF OBS      
   G29   171   171   171   171   171   171                  PRN / # OF OBS      
   G30    61    61    61    61    61    61                  PRN / # OF OBS      
   G31   332   332   332   332   332   332                  PRN / # OF OBS      
   G32   361   361   361   361   361   361                  PRN / # OF OBS      
   R01   311   311   311   311   311   311                  PRN / # OF OBS      
   R02   356   356   356   355   355   355                  PRN / # OF OBS      
   R03   388   388   388   388   388   388                  PRN / # OF OBS      
   R04   353   353   353   352   352   352                  PRN / # OF OBS      
   R05   226   226   226   225   225   225                  PRN / # OF OBS      
   R06   141   141   141     0     0     0                  PRN / # OF OBS      
   R07   172   172   172   172   172   172                  PRN / # OF OBS      
   R08   269   269   269   269   269   269                  PRN / # OF OBS      
   R10    31    31    31     0     0     0                  PRN / # OF OBS      
   R12   244   244   244   244   244   244                  PRN / # OF OBS      
   R13   321   321   321   320   320   320                  PRN / # OF OBS      
   R14   419   419   419   419   419   419                  PRN / # OF OBS      
   R15   294   294   294   293   293   293                  PRN / # OF OBS      
   R16    78    78    78    78    78    78                  PRN / # OF OBS      
   R17   314   314   314   314   314   314                  PRN / # OF OBS      
   R18   281   281   281   280   280   280                  PRN / # OF OBS      
   R19   240   240   240   239   239   239                  PRN / # OF OBS      
   R20   193   193   193   193   193   193                  PRN / # OF OBS      
   R21   161   161   161   161   161   161                  PRN / # OF OBS      
   R22   187   187   187   180   180   180                  PRN / # OF OBS      
   R23   291   291   291     0     0     0                  PRN / # OF OBS      
   R24   357   357   357   357   357   357                  PRN / # OF OBS      
                                                            END OF HEADER       
> 2021 11 07 00 00  0.0000000  0 20                     
G02  25541343.967 6 134220674.972 6        41.000    25541330.994 6 104587539.764 6        39.000  
G05  21340454.747 8 112144860.134 8        49.000    21340441.881 8  87385607.217 8        49.000  
G12  25052490.313 6 131651729.086 6        40.000    25052478.966 6 102585765.325 6        40.000  
G15  25016847.473 6 131464440.096 6        36.000    25016837.270 5 102439810.967 5        34.000  
G18  21012400.553 8 110420912.909 8        49.000    21012388.777 8  86042272.031 8        48.000  
G20  23215605.429 6 121998833.269 6        40.000    23215592.545 6  95064028.757 6        37.000  
G23  23936315.195 7 125786177.222 7        43.000    23936304.134 6  98015205.159 6        41.000  
G25  22486184.031 7 118165697.635 7        44.000    22486175.365 7  92077168.223 7        44.000  
G26  22276917.437 7 117065996.134 7        46.000    22276908.199 7  91220254.325 7        46.000  
G29  20560321.508 8 108045230.994 8        49.000    20560309.429 8  84191084.847 8        49.000  
G31  24630176.898 7 129432418.821 7        42.000    24630165.480 7 100856426.333 7        42.000  
R06  21943348.398 6 117093912.942 6        39.000                                                  
R07  21582360.040 8 115532045.398 8        51.000    21582358.736 8  89858258.931 8        48.000  
R08  23755481.809 7 127209525.443 7        42.000    23755480.361 7  98940738.835 7        42.000  
R12  21301273.501 8 113787566.902 8        50.000    21301271.767 7  88501437.430 7        44.000  
R13  20757263.516 6 110842617.171 6        41.000    20757261.943 7  86210924.339 7        43.000  
R14  23658726.767 6 126114314.600 6        38.000    23658725.302 6  98088911.101 6        40.000  
R21  23006758.346 7 123113824.308 7        44.000    23006758.006 7  95755196.247 7        43.000  
R22  20100122.244 6 107295825.318 6        40.000    20100120.565 6  83452313.145 6        37.000  
R23  21360593.797 8 114264782.107 8        49.000                                                  
> 2021 11 07 00 01  0.0000000  0 20                     
G02  25573239.405 6 134388279.693 6        41.000    25573225.002 6 104718140.741 6        36.000  
G05  21352863.961 8 112210068.235 8        49.000    21352850.756 8  87436418.729 8        49.000  
G12  25097279.537 6 131887101.619 6        39.000    25097267.297 6 102769172.471 6        40.000  
G15  24981767.686 6 131280090.601 6        36.000    24981754.195 5 102296162.122 5        34.000  
G18  20992828.433 8 110318058.831 8        49.000    20992816.264 8  85962126.035 8        48.000  
G20  23247138.608 7 122164542.387 7        42.000    23247124.313 6  95193152.717 6        37.000  
G23  23893310.944 7 125560189.104 7        42.000    23893300.329 6  97839110.570 6        40.000  
G25  22525251.433 7 118370998.381 7        44.000    22525242.963 7  92237142.849 7        44.000  
G26  22255390.732 7 116952871.026 7        46.000    22255381.637 7  91132104.908 7        46.000  
G29  20567368.247 8 108082260.391 8        50.000    20567355.685 8  84219938.934 8        50.000  
G31  24658190.165 7 129579625.714 7        42.000    24658178.211 7 100971132.996 7        43.000  
R06  21954350.356 6 117152621.441 6        38.000                                                  
R07  21552988.977 8 115374819.013 8        51.000    21552987.226 8  89735971.773 8        48.000  
R08  23707563.039 7 126952920.780 7        42.000    23707562.021 6  98741157.539 6        40.000  
R12  21340894.039 8 113999212.737 8        50.000    21340892.698 7  88666050.815 7        45.000  
R13  20757878.549 6 110845902.408 6        41.000    20757877.209 7  86213479.504 7        43.000  
R14  23620425.053 6 125910175.525 6        39.000    23620429.967 6  97930136.137 6        40.000  
R21  23039366.222 7 123288315.314 7        45.000    23039365.310 6  95890911.381 6        41.000  
R22  20113749.876 6 107368571.376 6        40.000    20113748.536 6  83508893.392 6        37.000  
R23  21336019.798 8 114133329.807 8        48.000                                                  
> 2021 11 07 00 02  0.0000000  0 20                     
G02  25605101.499 6 134555713.733 6        41.000    25605085.649 5 104848608.758 5        34.000  
G05  21365729.300 8 112277678.783 8        49.000    21365716.685 8  87489102.278 8        49.000  
G12  25142081.895 6 132122531.213 6        40.000    25142068.226 6 102952624.025 6        40.000  
G15  24946696.870 5 131095790.432 5        35.000    24946683.432 5 102152551.737 5        33.000  
G18  20973518.488 8 110216583.865 8        49.000    20973506.301 8  85883054.660 8        48.000  
G20  23278925.848 7 122331578.386 7        44.000    23278910.928 6  95323310.646 6        40.000  
G23  23850385.029 7 125334612.062 7        43.000    23850373.611 6  97663336.290 6        38.000  
G25  22564509.409 7 118577299.543 7        45.000    22564500.742 7  92397896.985 7        45.000  
G26  22234228.592 7 116841667.855 7        46.000    22234220.211 7  91045453.089 7        45.000  
G29  20574678.000 8 108120671.558 8        50.000    20574665.009 8  84249869.743 8        50.000  
G31  24686363.628 6 129727690.105 6        40.000    24686355.283 6 101086507.807 6        40.000  
R06  21965935.129 6 117214441.133 6        38.000                                                  
R07  21524055.723 8 115219935.156 8        51.000    21524053.722 8  89615506.607 8        48.000  
R08  23659648.112 6 126696337.096 6        41.000    23659645.771 6  98541592.473 6        40.000  
R12  21380845.243 8 114212626.187 8        49.000    21380844.421 7  88832039.006 7        44.000  
R13  20759113.942 6 110852502.142 6        41.000    20759112.977 7  86218612.613 7        42.000  
R14  23582467.424 7 125707827.261 7        45.000    23582469.675 6  97772754.187 6        38.000  
R21  23072009.228 7 123462990.901 7        46.000    23072006.994 7  96026770.117 7        42.000  
R22  20127565.865 6 107442322.248 6        41.000    20127564.310 6  83566255.196 6        36.000  
R23  21311596.417 8 114002684.084 8        48.000                                                  
> 2021 11 07 00 03  0.0000000  0 20                     
G02  25636929.052 6 134722971.477 6        41.000    25636914.274 6 104978939.433 6        38.000  
G05  21379049.424 7 112347679.243 7        47.000    21379037.291 7  87543648.123 7        47.000  
G12  25186888.774 6 132357998.438 6        41.000    25186877.267 6 103136105.084 6        41.000  
G15  24911639.098 6 130911561.476 6        38.000    24911626.446 6 102008996.695 6        37.000  
G18  20954470.234 8 110116488.019 8        49.000    20954458.816 8  85805057.915 8        49.000  
G20  23310960.521 7 122499920.074 7        44.000    23310946.548 6  95454485.978 6        40.000  
G23  23807540.670 7 125109464.949 7        42.000    23807530.002 6  97487897.029 6        41.000  
G25  22603953.544 7 118784579.125 7        45.000    22603944.288 7  92559413.504 7        45.000  
G26  22213435.160 7 116732400.229 7        46.000    22213426.440 7  90960309.526 7        46.000  
G29  20582250.409 8 108160465.850 8        50.000    20582237.543 8  84280878.303 8        50.000  
G31  24714699.896 7 129876585.729 7        44.000    24714688.871 7 101202530.383 7        44.000  
R06  21978101.468 6 117279361.382 6        39.000                                                  
R07  21495564.728 8 115067422.906 8        50.000    21495563.548 8  89496885.984 8        49.000  
R08  23611742.280 6 126439805.565 6        39.000    23611741.029 7  98342067.953 7        42.000  
R12  21421120.484 8 114427770.796 8        49.000    21421119.001 7  88999373.701 7        44.000  
R13  20760969.158 6 110862411.925 6        40.000    20760968.389 7  86226320.206 7        42.000  
R14  23544852.809 7 125507300.019 7        44.000    23544850.468 6  97616788.588 6        39.000  
R21  23104685.327 7 123637846.413 7        46.000    23104683.308 7  96162768.740 7        42.000  
R22  20141568.567 6 107517070.397 6        40.000    20141566.441 5  83624392.645 5        35.000  
R23  21287323.887 8 113872844.039 8        48.000                                                  
> 2021 11 07 00 04  0.0000000  0 19                     
G02  25668724.834 6 134890060.578 6        39.000    25668711.432 6 105109138.744 6        38.000  
G05  21392824.761 8 112420070.246 8        49.000    21392812.556 8  87600056.735 8        49.000  
G12  25231703.569 7 132593498.341 7        42.000    25231691.311 7 103319611.502 7        42.000  
G18  20935687.157 8 110017785.361 8        48.000    20935676.757 8  85728146.742 8        48.000  
G20  23343241.126 7 122669560.203 7        45.000    23343228.600 6  95586673.133 6        41.000  
G23  23764784.690 7 124884780.698 7        44.000    23764772.664 6  97312818.426 6        40.000  
G25  22643582.158 7 118992829.218 7        45.000    22643573.313 7  92721686.250 7        45.000  
G26  22193013.958 7 116625095.796 7        44.000    22193006.685 7  90876695.688 7        44.000  
G29  20590088.996 8 108201658.496 8        50.000    20590076.291 8  84312976.469 8        50.000  
G31  24743188.068 6 130026301.971 6        40.000    24743179.509 6 101319192.298 6        40.000  
R06  21990848.961 6 117347384.164 6        38.000                                                  
R07  21467524.925 8 114917326.151 8        50.000    21467524.085 8  89380144.103 8        48.000  
R08  23563854.567 6 126183371.902 6        39.000    23563853.799 7  98142619.576 7        42.000  
R12  21461715.938 8 114644623.852 8        49.000    21461714.347 7  89168037.138 7        44.000  
R13  20763446.483 6 110875640.772 6        40.000    20763445.787 7  86236609.283 7        43.000  
R14  23507582.798 7 125308636.975 7        44.000    23507580.975 6  97462272.902 6        40.000  
R21  23137397.129 7 123812891.844 7        46.000    23137395.807 7  96298915.114 7        42.000  
R22  20155759.842 6 107592822.612 6        41.000    20155757.644 5  83683311.046 5        35.000  
R23  21263204.816 8 113743823.210 8        48.000                                                  
> 2021 11 07 00 05  0.0000000  0 20                     
G02  25700483.735 6 135056956.296 6        37.000    25700471.405 6 105239187.342 6        36.000  
G05  21407049.414 8 112494818.406 8        49.000    21407036.585 8  87658302.066 8        49.000  
G12  25276516.345 7 132828992.149 7        42.000    25276503.908 7 103503113.139 7        42.000  
G16  24996708.620 6 131358593.092 6        38.000    24996693.181 5 102357343.597 5        35.000  
G18  20917165.986 8 109920456.165 8        49.000    20917154.675 7  85652305.854 7        47.000  
G20  23375762.480 7 122840457.919 7        43.000    23375748.863 6  95719840.175 6        41.000  
G23  23722116.626 7 124660558.666 7        43.000    23722105.261 6  97138100.015 6        41.000  
G25  22683387.748 7 119202008.149 7        45.000    22683378.742 7  92884682.822 7        45.000  
G26  22172968.309 7 116519748.394 7        46.000    22172960.733 7  90794606.780 7        46.000  
G29  20598190.007 8 108244231.700 8        50.000    20598177.730 8  84346150.389 8        50.000  
G31  24771827.430 6 130176793.843 6        41.000    24771816.441 6 101436458.713 6        40.000  
R06  22004170.871 6 117418477.369 6        39.000                                                  
R07  21439938.352 8 114769653.488 8        50.000    21439937.494 8  89265287.664 8        49.000  
R08  23515987.976 7 125927047.374 7        43.000    23515986.510 7  97943256.068 7        44.000  
R12  21502621.080 8 114863128.887 8        49.000    21502619.061 7  89337985.506 7        45.000  
R13  20766541.202 6 110892163.538 6        41.000    20766540.701 7  86249460.283 7        44.000  
R14  23470666.183 7 125111847.336 7        45.000    23470665.164 6  97309214.242 6        41.000  
R21  23170139.505 7 123988103.065 7        46.000    23170138.754 7  96435190.464 7        42.000  
R22  20170134.077 6 107669551.953 6        41.000    20170131.540 6  83742989.457 6        36.000  
R23  21239234.701 7 113615601.145 7        47.000                                                  
> 2021 11 07 00 06  0.0000000  0 20                     
G02  25732207.237 6 135223663.165 6        38.000    25732194.353 6 105369088.789 6        37.000  
G05  21421721.651 8 112571920.483 8        49.000    21421708.625 8  87718381.614 8        49.000  
G12  25321327.316 6 133064470.696 6        41.000    25321313.878 6 103686602.897 6        40.000  
G16  24956941.753 6 131149629.461 6        38.000    24956929.173 5 102194514.748 5        35.000  
G18  20898908.938 8 109824510.263 8        48.000    20898896.304 8  85577542.843 8        48.000  
G20  23408520.098 7 123012602.455 7        44.000    23408506.553 6  95853978.766 6        41.000  
G23  23679542.964 7 124436827.747 7        44.000    23679531.028 6  96963764.270 6        41.000  
G25  22723367.274 7 119412103.968 7        45.000    22723358.554 7  93048393.834 7        45.000  
G26  22153300.340 7 116416381.025 7        47.000    22153291.281 7  90714060.758 7        47.000  
G29  20606556.104 8 108288196.448 8        49.000    20606544.079 8  84380408.632 8        49.000  
G31  24800611.532 7 130328046.375 7        43.000    24800598.362 7 101554317.767 7        43.000  
R06  22018069.594 6 117492638.142 6        39.000                                                  
R07  21412812.103 8 114624444.452 8        49.000    21412811.460 8  89152347.366 8        49.000  
R08  23468149.796 6 125670874.403 6        40.000    23468147.312 6  97744010.469 6        40.000  
R12  21543830.156 8 115083259.343 8        49.000    21543828.923 7  89509198.048 7        45.000  
R13  20770253.366 6 110911984.061 6        41.000    20770252.651 7  86264876.230 7        43.000  
R14  23434106.859 7 124916970.670 7        42.000    23434107.556 7  97157643.424 7        42.000  
R21  23202913.383 7 124163486.356 7        45.000    23202913.401 6  96571599.670 6        41.000  
R22  20184691.791 6 107747261.389 6        41.000    20184689.307 6  83803430.131 6        36.000  
R23  21215415.597 7 113488187.540 7        47.000                                                  
> 2021 11 07 00 07  0.0000000  0 21                     
G02  25763897.377 6 135390190.724 6        38.000    25763882.939 6 105498850.462 6        38.000  
G05  21436841.632 8 112651375.883 8        48.000    21436828.284 8  87780294.901 8        48.000  
G12  25366132.497 6 133299929.942 6        38.000    25366120.900 6 103870077.653 6        38.000  
G15  24771648.061 5 130175916.068 5        34.000    24771632.622 5 101435779.010 5        34.000  
G16  24917324.181 6 130941437.130 6        38.000    24917312.137 6 102032286.979 6        37.000  
G18  20880916.797 8 109729961.865 8        48.000    20880905.021 8  85503868.787 8        48.000  
G20  23441513.265 7 123185986.797 7        43.000    23441501.025 7  95989083.470 7        42.000  
G23  23637067.707 7 124213621.496 7        42.000    23637056.950 7  96789837.365 7        42.000  
G25  22763520.631 7 119623109.118 7        45.000    22763511.750 7  93212813.393 7        44.000  
G26  22134011.892 7 116315021.250 7        46.000    22134002.528 7  90635079.111 7        46.000  
G29  20615190.238 8 108333568.520 8        48.000    20615178.105 8  84415763.466 8        48.000  
G31  24829534.940 6 130480048.764 6        40.000    24829522.753 6 101672761.177 6        40.000  
R06  22032542.091 6 117569867.413 6        39.000                                                  
R07  21386153.683 8 114481741.399 8        49.000    21386152.843 8  89041356.174 8        48.000  
R08  23420348.051 7 125414899.363 7        42.000    23420346.746 6  97544918.789 6        41.000  
R12  21585338.717 8 115304993.104 8        49.000    21585338.074 7  89681657.594 7        46.000  
R13  20774584.424 6 110935109.773 6        41.000    20774583.388 7  86282862.885 7        43.000  
R14  23397915.243 7 124724050.462 7        45.000    23397914.922 6  97007594.353 6        41.000  
R21  23235722.125 7 124339052.654 7        46.000    23235721.875 6  96708151.211 6        40.000  
R22  20199434.110 6 107825958.771 6        41.000    20199432.395 6  83864639.197 6        37.000  
R23  21191750.507 7 113361596.547 7        47.000                                                  
> 2021 11 07 00 08  0.0000000  0 20                     
G02  25795550.189 6 135556527.040 6        38.000    25795535.572 6 105628463.179 6        36.000  
G05  21452405.426 8 112733164.873 8        48.000    21452392.185 8  87844026.589 8        48.000  
G12  25410930.191 6 133535344.869 6        38.000    25410918.969 6 104053517.856 6        38.000  
G16  24877855.976 6 130734030.498 6        38.000    24877843.843 6 101870671.432 6        36.000  
G18  20863189.565 8 109636804.593 8        49.000    20863177.539 8  85431278.718 8        49.000  
G20  23474738.498 7 123360584.092 7        44.000    23474726.007 6  96125133.283 6        40.000  
G23  23594694.857 7 123990953.008 7        43.000    23594684.064 7  96616329.436 7        43.000  
G25  22803840.902 7 119834995.512 7        45.000    22803832.289 7  93377919.676 7        45.000  
G26  22115105.500 7 116215675.827 7        45.000    22115097.442 7  90557667.057 7        45.000  
G29  20624091.102 8 108380343.566 8        49.000    20624079.058 8  84452211.531 8        49.000  
G31  24858596.690 6 130632769.925 6        41.000    24858583.485 6 101791764.712 6        41.000  
R06  22047586.343 6 117650145.096 6        39.000                                                  
R07  21359967.720 8 114341566.982 8        49.000    21359966.987 8  88932331.679 8        48.000  
R08  23372588.905 7 125159148.408 7        42.000    23372586.672 6  97346001.403 6        41.000  
R12  21627139.454 8 115528286.695 8        49.000    21627139.669 7  89855330.386 7        46.000  
R13  20779531.481 6 110961526.316 6        41.000    20779529.998 7  86303409.053 7        43.000  
R14  23362095.393 7 124533109.536 7        45.000    23362094.464 6  96859084.741 6        41.000  
R21  23268564.120 7 124514791.553 7        44.000    23268562.172 6  96844836.938 6        41.000  
R22  20214359.426 6 107905631.290 6        41.000    20214357.586 6  83926606.712 6        37.000  
R23  21168238.196 8 113235821.701 8        48.000                                                  
> 2021 11 07 00 09  0.0000000  0 19                     
G05  21468410.085 8 112817272.140 8        48.000    21468397.433 8  87909564.730 8        48.000  
G15  24701854.445 4 129809102.832 4        29.000    24701848.816 4 101149950.059 4        29.000  
G16  24838541.428 6 130527428.799 6        39.000    24838529.348 6 101709683.036 6        36.000  
G18  20845727.509 8 109545037.577 8        49.000    20845715.304 8  85359771.962 8        49.000  
G20  23508190.756 6 123536372.788 6        41.000    23508176.747 6  96262111.458 6        39.000  
G23  23552428.739 7 123768840.813 7        43.000    23552417.160 6  96443255.042 6        41.000  
G25  22844325.586 7 120047740.768 7        46.000    22844316.526 7  93543695.150 7        47.000  
G26  22096586.831 7 116118356.902 7        46.000    22096578.272 7  90481834.105 7        46.000  
G29  20633260.126 8 108428522.036 8        48.000    20633246.796 8  84489753.148 8        48.000  
G31  24887790.867 7 130786184.271 7        43.000    24887778.841 7 101911308.296 7        43.000  
R06  22063198.508 6 117733455.770 6        38.000                                                  
R07  21334259.932 8 114203947.820 8        50.000    21334258.752 8  88825294.595 8        49.000  
R08  23324876.523 7 124903653.481 7        43.000    23324874.576 7  97147283.138 7        42.000  
R12  21669226.221 8 115753102.998 8        49.000    21669225.631 7  90030187.497 7        46.000  
R13  20785093.036 6 110991225.399 6        41.000    20785091.856 7  86326508.317 7        44.000  
R14  23326652.686 7 124344176.253 7        45.000    23326651.900 7  96712136.609 7        43.000  
R21  23301436.511 7 124690699.327 7        43.000    23301434.420 6  96981653.900 6        40.000  
R22  20229466.291 6 107986272.092 6        41.000    20229464.433 6  83989327.326 6        37.000  
R23  21144878.934 8 113110862.539 8        49.000                                                  
> 2021 11 07 00 10  0.0000000  0 19                     
G05  21484849.550 8 112903663.537 8        49.000    21484837.363 8  87976882.731 8        49.000  
G15  24667028.720 5 129626113.263 5        35.000    24667006.795 5 101007360.433 5        32.000  
G16  24799381.517 6 130321632.284 6        40.000    24799367.633 5 101549322.134 5        35.000  
G18  20828525.447 8 109454641.248 8        49.000    20828513.689 8  85289333.278 8        49.000  
G20  23541860.123 7 123713312.733 7        42.000    23541847.740 6  96399986.746 6        39.000  
G23  23510268.798 7 123547285.001 7        46.000    23510256.844 7  96270614.191 7        42.000  
G25  22884965.265 7 120261303.721 7        45.000    22884956.528 7  93710107.831 7        45.000  
G26  22078452.561 7 116023057.700 7        46.000    22078442.786 7  90407575.018 7        46.000  
G29  20642691.450 8 108478085.993 8        48.000    20642678.424 8  84528374.441 8        48.000  
G31  24917110.557 7 130940247.737 7        43.000    24917096.619 7 102031357.752 7        44.000  
R06  22079373.673 6 117819764.983 6        40.000                                                  
R07  21309030.765 8 114068891.738 8        50.000    21309028.818 8  88720251.040 8        48.000  
R08  23277214.997 7 124648427.404 7        44.000    23277213.728 7  96948774.007 7        43.000  
R12  21711586.813 8 115979385.702 8        49.000    21711586.116 7  90206185.116 7        45.000  
R13  20791263.870 6 111024178.476 6        40.000    20791263.227 7  86352138.476 7        43.000  
R14  23291587.927 7 124157259.436 7        45.000    23291587.516 7  96566756.886 7        43.000  
R21  23334336.134 7 124866753.048 7        46.000    23334334.865 6  97118584.544 6        41.000  
R22  20244749.434 6 108067855.146 6        40.000    20244747.630 6  84052780.811 6        37.000  
R23  21121668.395 8 112986699.040 8        48.000                                                  
> 2021 11 07 00 11  0.0000000  0 18                     
G05  21501726.074 8 112992347.527 8        49.000    21501713.494 8  88045987.144 8        49.000  
G16  24760381.195 6 130116685.060 6        39.000    24760367.704 6 101389623.030 6        36.000  
G18  20811588.455 8 109365638.400 8        49.000    20811576.697 8  85219980.441 8        48.000  
G20  23575751.513 7 123891406.373 7        43.000    23575736.985 6  96538760.982 6        40.000  
G23  23468221.951 7 123326328.136 7        45.000    23468209.764 7  96098440.031 7        45.000  
G25  22925760.835 7 120475685.793 7        46.000    22925751.775 7  93877158.771 7        46.000  
G26  22060708.942 7 115929813.829 7        46.000    22060698.793 7  90334917.459 7        46.000  
G29  20652391.506 8 108529060.579 8        49.000    20652378.587 8  84568094.915 8        49.000  
G31  24946551.487 7 131094958.513 7        43.000    24946536.370 7 102151911.579 7        43.000  
R06  22096111.712 6 117909080.730 6        40.000                                                  
R07  21284289.673 8 113936449.379 8        50.000    21284287.887 8  88617240.377 8        48.000  
R08  23229614.296 7 124393527.075 7        45.000    23229612.188 7  96750518.207 7        42.000  
R12  21754218.639 8 116207121.436 8        48.000    21754218.764 7  90383312.870 7        45.000  
R13  20798047.077 6 111060400.239 6        41.000    20798046.183 7  86380310.929 7        42.000  
R14  23256910.444 7 123972411.664 7        42.000    23256909.372 7  96422986.456 7        42.000  
R21  23367266.903 7 125042972.892 7        47.000    23367265.170 6  97255644.337 6        40.000  
R22  20260211.947 6 108150397.487 6        40.000    20260210.821 6  84116980.406 6        37.000  
R23  21098610.637 8 112863355.392 8        49.000                                                  
> 2021 11 07 00 12  0.0000000  0 19                     
G05  21519038.280 8 113083322.626 8        49.000    21519025.683 8  88116876.841 8        49.000  
G15  24597541.093 5 129260938.641 5        32.000    24597519.293 4 100722809.376 4        27.000  
G16  24721547.574 6 129912622.478 6        37.000    24721535.994 6 101230613.187 6        36.000  
G18  20794919.247 8 109278043.099 8        48.000    20794907.525 8  85151724.413 8        48.000  
G20  23609858.849 6 124070647.102 6        41.000    23609845.930 6  96678429.064 6        41.000  
G23  23426295.844 7 123106004.033 7        46.000    23426283.533 7  95926758.955 7        44.000  
G25  22966710.864 7 120690879.715 7        44.000    22966701.875 7  94044842.308 7        44.000  
G26  22043361.552 7 115838651.832 7        47.000    22043351.188 7  90263882.148 7        47.000  
G29  20662363.368 8 108581461.297 8        50.000    20662350.145 8  84608926.641 8        50.000  
G31  24976112.498 6 131250306.305 6        41.000    24976098.703 7 102272961.790 7        42.000  
R06  22113411.213 6 118001401.226 6        36.000                                                  
R07  21260044.125 8 113806662.216 8        49.000    21260042.178 8  88516294.843 8        48.000  
R08  23182082.749 7 124139000.251 7        43.000    23182080.515 7  96552553.002 7        42.000  
R12  21797119.250 8 116436287.982 8        48.000    21797119.125 7  90561553.538 7        44.000  
R13  20805442.976 6 111099894.048 6        41.000    20805441.600 7  86411028.321 7        43.000  
R14  23222629.009 7 123789675.982 7        42.000    23222628.902 7  96280858.727 7        43.000  
R21  23400231.158 7 125219370.675 7        47.000    23400230.229 6  97392842.570 6        41.000  
R22  20275856.169 6 108233908.609 6        41.000    20275855.294 6  84181933.502 6        37.000  
R23  21075709.572 8 112740846.003 8        49.000                                                  
> 2021 11 07 00 13  0.0000000  0 18                     
G05  21536780.326 8 113176559.502 8        48.000    21536768.104 8  88189528.967 8        48.000  
G16  24682886.370 6 129709450.560 6        38.000    24682874.219 6 101072297.438 6        36.000  
G18  20778514.823 7 109191840.827 7        47.000    20778503.458 7  85084553.852 7        47.000  
G20  23644178.041 6 124251000.658 6        41.000    23644166.623 6  96818964.360 6        40.000  
G23  23384491.086 7 122886318.142 7        45.000    23384479.311 7  95755575.178 7        44.000  
G25  23007808.348 7 120906849.690 7        45.000    23007799.217 7  94213130.566 7        45.000  
G26  22026409.871 7 115749569.672 7        47.000    22026399.954 7  90194467.455 7        47.000  
G29  20672603.784 8 108635275.275 8        50.000    20672590.489 8  84650859.630 8        50.000  
G31  25005787.960 7 131406252.768 7        42.000    25005775.130 7 102394478.531 7        42.000  
R06  22131268.139 6 118096695.660 6        38.000                                                  
R07  21236296.694 8 113679542.814 8        49.000    21236294.818 7  88417424.202 7        47.000  
R08  23134624.303 6 123884866.223 6        41.000    23134623.392 7  96354893.326 7        43.000  
R12  21840278.444 8 116666834.744 8        49.000    21840277.604 7  90740867.651 7        44.000  
R13  20813446.404 6 111142635.275 6        40.000    20813445.689 7  86444271.467 7        43.000  
R14  23188747.126 7 123609066.195 7        43.000    23188746.965 7  96140384.474 7        42.000  
R21  23433225.416 7 125395928.936 7        46.000    23433224.897 6  97530165.695 6        41.000  
R22  20291678.546 6 108318367.837 6        41.000    20291677.116 6  84247624.010 6        37.000  
R23  21052960.947 8 112619157.141 8        49.000                                                  
> 2021 11 07 00 14  0.0000000  0 18                     
G05  21554947.690 8 113272029.331 8        49.000    21554934.950 8  88263921.086 8        49.000  
G16  24644395.208 6 129507177.797 6        40.000    24644383.396 5 100914682.315 5        34.000  
G18  20762373.234 7 109107018.949 7        46.000    20762362.977 7  85018458.885 7        47.000  
G20  23678704.156 7 124432433.822 7        43.000    23678691.362 6  96960340.819 6        38.000  
G23  23342808.624 7 122667277.815 7        45.000    23342797.081 7  95584894.413 7        44.000  
G25  23049047.247 7 121123561.881 7        45.000    23049038.509 7  94381997.181 7        45.000  
G26  22009853.346 7 115662566.882 7        46.000    22009844.358 7  90126673.064 7        46.000  
G29  20683110.716 8 108690491.688 8        50.000    20683098.225 8  84693885.417 8        50.000  
G31  25035569.939 7 131562760.466 7        42.000    25035557.681 7 102516432.592 7        43.000  
R06  22149679.254 6 118194934.565 6        39.000                                                  
R07  21213050.275 8 113555104.091 8        49.000    21213048.917 7  88320638.550 7        47.000  
R08  23087243.803 7 123631146.033 7        45.000    23087242.731 7  96157555.365 7        45.000  
R12  21883686.375 8 116898712.173 8        48.000    21883685.392 7  90921216.737 7        44.000  
R13  20822054.252 6 111188599.995 6        41.000    20822053.823 7  86480021.785 7        42.000  
R14  23155267.331 7 123430598.467 7        44.000    23155266.491 6  96001576.275 6        41.000  
R21  23466246.763 7 125572632.722 7        46.000    23466246.316 7  97667601.960 7        42.000  
R22  20307674.824 6 108403757.454 6        40.000    20307673.430 6  84314038.180 6        36.000  
R23  21030362.762 8 112498276.827 8        49.000                                                  
> 2021 11 07 00 15  0.0000000  0 18                     
G05  21573541.338 7 113369740.398 7        47.000    21573528.561 7  88340059.582 7        47.000  
G16  24606081.056 6 129305849.080 6        40.000    24606070.085 5 100757802.747 5        34.000  
G18  20746499.877 8 109023600.242 8        48.000    20746489.102 8  84953457.279 8        48.000  
G20  23713436.391 6 124614949.421 6        41.000    23713421.863 6  97102560.693 6        40.000  
G23  23301257.392 7 122448925.916 7        45.000    23301245.312 7  95414750.120 7        43.000  
G25  23090428.009 7 121341018.022 7        46.000    23090418.735 7  94551443.474 7        46.000  
G26  21993699.427 7 115577678.366 7        46.000    21993690.457 7  90060526.153 7        46.000  
G29  20693889.828 8 108747135.727 8        50.000    20693877.302 8  84738023.625 8        50.000  
G31  25065458.578 6 131719828.681 6        41.000    25065447.445 6 102638823.444 6        41.000  
R06  22168641.469 6 118296123.832 6        38.000                                                  
R07  21190314.177 8 113433395.730 8        50.000    21190312.568 7  88225976.556 7        47.000  
R08  23039951.968 7 123377896.441 7        45.000    23039950.842 7  95960583.516 7        46.000  
R12  21927341.184 8 117131907.536 8        48.000    21927340.345 7  91102590.887 7        45.000  
R13  20831267.931 6 111237799.601 6        41.000    20831267.252 7  86518288.117 7        42.000  
R14  23122199.561 7 123254324.031 7        44.000    23122197.184 6  95864474.029 6        41.000  
R21  23499299.738 7 125749502.925 7        45.000    23499298.791 6  97805167.661 6        41.000  
R22  20323849.363 6 108490095.706 6        41.000    20323847.451 6  84381190.172 6        36.000  
R23  21007921.164 8 112378229.379 8        49.000                                                  
> 2021 11 07 00 16  0.0000000  0 19                     
G05  21592552.799 8 113469648.850 8        48.000    21592540.702 8  88417910.330 8        48.000  
G15  24459345.697 5 128534712.715 5        34.000    24459330.544 5 100156919.486 5        35.000  
G16  24567949.366 6 129105457.158 6        41.000    24567936.518 5 100601653.120 5        34.000  
G18  20730888.730 8 108941556.398 8        49.000    20730876.526 8  84889527.057 8        49.000  
G20  23748366.203 6 124798499.243 6        41.000    23748351.658 6  97245586.503 6        40.000  
G23  23259836.121 7 122231254.475 7        45.000    23259824.202 7  95245136.050 7        44.000  
G25  23131941.001 7 121559168.949 7        45.000    23131931.513 7  94721431.151 7        45.000  
G26  21977945.614 8 115494887.831 8        48.000    21977936.269 8  89996014.061 8        48.000  
G29  20704935.368 8 108805180.490 8        50.000    20704922.914 8  84783253.310 8        50.000  
G31  25095441.512 6 131877405.427 6        39.000    25095432.792 6 102761610.448 6        38.000  
R06  22188148.831 6 118400217.416 6        39.000                                                  
R07  21168087.453 8 113314414.795 8        50.000    21168085.880 7  88133435.887 7        47.000  
R08  22992748.746 7 123125124.162 7        44.000    22992746.137 7  95763982.884 7        43.000  
R12  21971230.703 8 117366355.818 8        48.000    21971229.202 7  91284939.500 7        44.000  
R13  20841079.222 6 111290193.452 6        38.000    20841079.168 7  86559038.867 7        42.000  
R14  23089541.223 7 123080243.134 7        43.000    23089540.347 6  95729077.773 6        41.000  
R21  23532378.158 7 125926509.621 7        42.000    23532375.853 6  97942839.461 6        40.000  
R22  20340194.766 6 108577349.024 6        41.000    20340192.889 6  84449053.882 6        36.000  
R23  20985630.433 8 112258987.445 8        49.000                                                  
> 2021 11 07 00 17  0.0000000  0 18                     
G05  21611987.970 8 113571778.022 8        49.000    21611975.390 8  88497491.488 8        49.000  
G16  24530006.657 6 128906063.413 6        41.000    24529993.113 5 100446281.361 5        35.000  
G18  20715545.583 8 108860926.808 8        49.000    20715533.057 8  84826698.830 8        49.000  
G20  23783494.719 6 124983103.298 6        41.000    23783480.781 6  97389433.810 6        39.000  
G23  23218554.943 7 122014323.101 7        44.000    23218543.579 7  95076098.639 7        44.000  
G25  23173588.458 7 121778033.018 7        43.000    23173580.364 7  94891974.592 7        44.000  
G26  21962599.626 7 115414246.321 7        47.000    21962590.566 7  89933176.519 7        47.000  
G29  20716255.448 8 108864667.062 8        49.000    20716242.582 8  84829606.456 8        49.000  
G31  25125528.247 7 132035505.746 7        43.000    25125518.151 7 102884805.582 7        43.000  
R06  22208205.111 6 118507237.401 6        40.000                                                  
R07  21146382.433 8 113198226.678 8        50.000    21146381.254 7  88043067.389 7        47.000  
R08  22945648.325 7 122872903.773 7        44.000    22945646.752 7  95567811.508 7        46.000  
R12  22015355.379 8 117602061.034 8        48.000    22015354.378 7  91468265.733 7        45.000  
R13  20851493.467 6 111345809.264 6        39.000    20851494.325 7  86602295.582 7        43.000  
R14  23057307.775 7 122908423.953 7        45.000    23057308.222 7  95595440.591 7        42.000  
R21  23565488.546 7 126103690.561 7        42.000    23565486.491 6  98080646.745 6        40.000  
R22  20356718.216 6 108665553.120 6        40.000    20356716.929 6  84517657.061 6        37.000  
R23  20963498.219 8 112140592.634 8        50.000                                                  
> 2021 11 07 00 18  0.0000000  0 18                     
G05  21631835.630 8 113676075.808 8        49.000    21631822.264 8  88578762.490 8        49.000  
G16  24492251.002 7 128707653.875 7        42.000    24492237.136 5 100291676.467 5        35.000  
G18  20700464.235 8 108781675.984 8        49.000    20700452.316 8  84764944.966 8        49.000  
G20  23818812.664 6 125168706.219 6        41.000    23818799.923 6  97534059.469 6        41.000  
G23  23177411.554 7 121798116.674 7        44.000    23177400.940 7  94907626.112 7        44.000  
G25  23215362.410 7 121997554.084 7        44.000    23215353.869 7  95063029.945 7        44.000  
G26  21947657.674 7 115335729.928 7        47.000    21947649.097 7  89871994.925 7        47.000  
G29  20727843.724 8 108925562.375 8        49.000    20727830.787 8  84877057.319 8        49.000  
G31  25155703.058 7 132194071.328 7        42.000    25155691.747 6 103008363.114 6        41.000  
R06  22228798.517 6 118617129.312 6        39.000                                                  
R07  21125197.134 8 113084820.346 8        51.000    21125195.794 7  87954862.482 7        47.000  
R08  22898650.328 7 122621233.727 7        42.000    22898649.042 7  95372068.220 7        45.000  
R12  22059701.398 8 117838951.428 8        48.000    22059700.540 7  91652513.824 7        45.000  
R13  20862503.001 6 111404597.012 6        40.000    20862503.216 7  86648019.388 7        42.000  
R14  23025498.877 7 122738858.579 7        46.000    23025498.073 6  95463556.432 6        39.000  
R21  23598623.362 7 126281007.967 7        42.000    23598622.289 6  98218560.172 6        40.000  
R22  20373412.743 6 108754668.156 6        41.000    20373411.082 6  84586968.760 6        36.000  
R23  20941518.087 8 112023010.274 8        50.000                                                  
> 2021 11 07 00 19  0.0000000  0 21                     
G05  21652095.832 8 113782544.029 8        48.000    21652082.430 8  88661724.751 8        48.000  
G13  25046255.847 6 131618963.402 6        40.000    25046243.839 6 102560229.196 6        38.000  
G15  24356530.769 6 127994406.904 6        37.000    24356519.673 6  99735900.617 6        37.000  
G16  24454688.601 6 128510268.111 6        40.000    24454676.324 6 100137869.401 6        40.000  
G18  20685648.957 8 108703821.590 8        49.000    20685637.217 8  84704279.230 8        49.000  
G20  23854321.843 6 125355305.886 6        41.000    23854308.870 6  97679461.794 6        40.000  
G23  23136414.279 7 121582673.297 7        44.000    23136403.933 7  94739748.175 7        44.000  
G25  23257260.301 7 122217729.047 7        44.000    23257251.420 7  95234594.820 7        45.000  
G26  21933126.352 7 115259367.701 7        47.000    21933117.936 7  89812491.911 7        47.000  
G29  20739703.770 8 108987886.068 8        49.000    20739690.618 8  84925621.216 8        49.000  
G31  25185966.232 7 132353095.620 7        42.000    25185950.525 7 103132278.124 7        42.000  
R06  22249931.031 6 118729892.219 6        39.000                                                  
R07  21104539.614 8 112974238.054 8        51.000    21104537.792 7  87868854.058 7        47.000  
R08  22851765.193 7 122370167.540 7        45.000    22851763.870 7  95176794.533 7        46.000  
R12  22104265.937 8 118077009.285 8        49.000    22104265.544 7  91837669.898 7        44.000  
R13  20874107.306 6 111466561.495 6        39.000    20874107.627 7  86696213.960 7        43.000  
R14  22994120.176 7 122571592.974 7        46.000    22994118.925 6  95333460.978 6        40.000  
R21  23631787.000 7 126458478.761 7        43.000    23631787.285 6  98356593.026 6        40.000  
R22  20390280.118 6 108844707.488 6        40.000    20390277.885 6  84656999.329 6        36.000  
R23  20919693.042 8 111906260.406 8        48.000                                                  
R24  24113629.260 7 128946405.654 7        43.000    24113628.653 6 100291651.176 6        40.000  
> 2021 11 07 00 20  0.0000000  0 21                     
G05  21672764.341 8 113891158.934 8        48.000    21672750.922 8  88746359.747 8        49.000  
G13  25018466.460 7 131472933.945 7        42.000    25018455.399 6 102446440.036 6        36.000  
G15  24322449.932 6 127815292.228 6        38.000    24322435.744 6  99596330.819 6        38.000  
G16  24417324.563 7 128313921.077 7        42.000    24417313.484 6  99984871.758 6        36.000  
G18  20671097.693 8 108627356.293 8        49.000    20671086.328 8  84644695.898 8        49.000  
G20  23890013.483 6 125542875.885 6        39.000    23890001.386 6  97825620.273 6        38.000  
G23  23095564.442 7 121368006.206 7        44.000    23095553.845 7  94572475.146 7        44.000  
G25  23299277.969 7 122438530.099 7        45.000    23299268.462 7  95406647.546 7        45.000  
G26  21919006.322 8 115185163.458 8        48.000    21918997.476 8  89754670.453 8        48.000  
G29  20751833.262 8 109051632.529 8        48.000    20751821.326 8  84975293.758 8        49.000  
G31  25216309.138 7 132512547.884 7        42.000    25216293.324 7 103256526.643 7        42.000  
R06  22271596.024 6 118845499.654 6        38.000                                                  
R07  21084412.697 8 112866496.987 8        51.000    21084411.143 8  87785055.490 8        48.000  
R08  22804998.457 7 122119732.527 7        44.000    22804997.403 7  94982011.776 7        46.000  
R12  22149041.473 8 118316191.467 8        48.000    22149041.598 7  92023700.463 7        44.000  
R13  20886301.752 6 111531680.668 6        39.000    20886302.092 7  86746862.183 7        42.000  
R14  22963175.960 7 122406647.412 7        45.000    22963176.353 6  95205169.934 6        40.000  
R21  23664978.745 7 126636094.367 7        46.000    23664979.532 6  98494738.517 6        41.000  
R22  20407317.749 6 108935659.779 6        39.000    20407315.891 5  84727739.993 5        35.000  
R23  20898021.330 8 111790337.684 8        48.000                                                  
R24  24079882.681 7 128765944.520 7        43.000    24079881.662 6 100151292.582 6        41.000  
> 2021 11 07 00 21  0.0000000  0 21                     
G05  21693838.531 7 114001907.653 7        47.000    21693826.058 7  88832657.470 7        47.000  
G13  24990850.547 7 131327806.417 7        42.000    24990838.610 6 102333353.635 6        36.000  
G15  24288464.641 6 127636710.852 6        36.000    24288451.722 6  99457176.597 6        37.000  
G16  24380164.625 6 128118638.893 6        41.000    24380152.242 6  99832703.752 6        36.000  
G18  20656811.909 8 108552283.739 8        49.000    20656800.348 8  84586197.828 8        49.000  
G20  23925889.496 7 125731400.416 7        42.000    23925876.702 6  97972522.503 6        37.000  
G23  23054867.224 7 121154139.535 7        45.000    23054856.860 7  94405825.772 7        45.000  
G25  23341410.409 7 122659940.300 7        45.000    23341401.170 7  95579174.944 7        45.000  
G26  21905298.172 7 115113131.887 7        45.000    21905290.739 7  89698541.927 7        45.000  
G29  20764235.562 8 109116807.216 8        49.000    20764223.518 8  85026079.216 8        49.000  
G31  25246730.524 6 132672409.430 6        40.000    25246714.549 6 103381094.057 6        40.000  
R06  22293790.083 6 118963935.518 6        38.000                                                  
R07  21064821.922 8 112761624.589 8        51.000    21064819.707 7  87703488.086 7        47.000  
R08  22758356.394 7 121869968.633 7        43.000    22758354.947 7  94787751.007 7        45.000  
R12  22194021.574 8 118556465.862 8        49.000    22194020.824 7  92210580.534 7        45.000  
R13  20899085.412 6 111599943.402 6        39.000    20899085.108 7  86799955.383 7        42.000  
R14  22932673.466 7 122244053.391 7        46.000    22932674.628 6  95078707.887 6        41.000  
R21  23698198.832 7 126813857.121 7        47.000    23698198.528 6  98632998.402 6        41.000  
R22  20424527.691 6 109027525.510 6        40.000    20424525.743 5  84799191.115 5        35.000  
R23  20876505.596 8 111675247.548 8        48.000                                                  
R24  24046163.513 7 128585629.882 7        44.000    24046162.763 7 100011047.898 7        42.000  
> 2021 11 07 00 22  0.0000000  0 21                     
G05  21715315.524 7 114114771.950 7        47.000    21715303.677 7  88920603.705 7        47.000  
G13  24963409.678 6 131183604.479 6        39.000    24963397.688 6 102220988.523 6        36.000  
G15  24254587.779 6 127458687.556 6        36.000    24254575.306 6  99318457.095 6        36.000  
G16  24343211.378 6 127924441.437 6        40.000    24343197.959 6  99681381.147 6        37.000  
G18  20642790.552 8 108478601.861 8        49.000    20642779.169 8  84528783.403 8        49.000  
G20  23961943.788 7 125920857.761 7        42.000    23961929.796 6  98120151.566 6        38.000  
G23  23014326.270 7 120941091.856 7        46.000    23014315.120 7  94239814.605 7        45.000  
G25  23383655.584 7 122881937.333 7        46.000    23383645.149 7  95752159.551 7        46.000  
G26  21892005.477 7 115043281.648 7        45.000    21891998.526 7  89644113.137 7        45.000  
G29  20776910.256 8 109183410.482 8        49.000    20776897.748 8  85077977.863 8        49.000  
G31  25277222.689 6 132832654.367 6        41.000    25277208.376 6 103505960.260 6        41.000  
R06  22316510.868 6 119085177.750 6        38.000                                                  
R07  21045770.846 8 112659642.053 8        51.000    21045768.755 8  87624168.352 8        48.000  
R08  22711846.704 7 121620909.372 7        45.000    22711845.025 7  94594038.346 7        45.000  
R12  22239198.825 8 118797795.178 8        48.000    22239197.949 7  92398281.106 7        44.000  
R13  20912453.586 6 111671331.961 6        39.000    20912454.032 7  86855479.758 7        42.000  
R14  22902617.734 7 122083836.183 7        46.000    22902617.734 6  94954094.517 6        41.000  
R21  23731445.864 7 126991764.668 7        46.000    23731444.667 6  98771370.921 6        41.000  
R22  20441907.299 6 109120298.861 6        40.000    20441905.262 5  84871348.181 5        35.000  
R23  20855145.753 8 111560990.634 8        48.000                                                  
R24  24012471.399 7 128405461.026 7        45.000    24012471.399 7  99870916.631 7        42.000  
> 2021 11 07 00 23  0.0000000  0 21                     
G05  21737192.337 8 114229735.068 8        48.000    21737180.454 8  89010185.335 8        48.000  
G13  24936150.537 6 131040355.016 6        41.000    24936138.207 5 102109365.546 5        31.000  
G15  24220822.723 5 127281249.717 5        35.000    24220810.840 6  99180193.917 6        36.000  
G16  24306468.522 6 127731352.462 6        40.000    24306454.566 6  99530922.220 6        39.000  
G18  20629033.530 8 108406311.688 8        48.000    20629022.738 8  84472453.413 8        48.000  
G20  23998169.533 6 126111230.349 6        40.000    23998155.881 6  98268493.840 6        37.000  
G23  22973944.030 7 120728884.968 7        44.000    22973932.844 7  94074458.591 7        44.000  
G25  23426008.171 7 123104501.800 7        43.000    23425998.879 7  95925586.365 7        44.000  
G26  21879131.883 7 114975624.301 7        47.000    21879123.073 7  89591393.115 7        47.000  
G29  20789856.220 8 109251444.595 8        49.000    20789844.141 8  85130991.455 8        49.000  
G31  25307784.187 7 132993261.099 7        42.000    25307772.447 7 103631108.404 7        42.000  
R06  22339753.249 6 119209207.113 6        37.000                                                  
R07  21027263.881 8 112560573.107 8        51.000    21027261.826 7  87547114.765 7        47.000  
R08  22665475.500 7 121372591.216 7        44.000    22665473.356 7  94400902.060 7        46.000  
R12  22284567.184 8 119040145.272 8        48.000    22284566.576 7  92586775.591 7        43.000  
R13  20926405.111 6 111745831.572 6        39.000    20926405.379 7  86913423.872 7        42.000  
R14  22873011.997 7 121926023.837 7        45.000    22873011.729 6  94831351.588 6        40.000  
R21  23764719.236 7 127169816.833 7        44.000    23764717.431 6  98909855.933 6        41.000  
R22  20459456.556 6 109213977.815 6        40.000    20459454.859 6  84944209.570 6        36.000  
R23  20833943.246 8 111447570.398 8        49.000                                                  
R24  23978805.945 7 128225440.344 7        45.000    23978806.463 7  99730900.595 7        42.000  
> 2021 11 07 00 24  0.0000000  0 21                     
G05  21759466.949 8 114346783.572 8        49.000    21759453.816 8  89101391.927 8        49.000  
G13  24909077.609 6 130898085.911 6        41.000    24909066.226 5 101998506.510 5        31.000  
G15  24187173.638 6 127104427.362 6        36.000    24187163.560 5  99042410.273 5        35.000  
G16  24269938.914 6 127539396.162 6        39.000    24269926.709 6  99381345.953 6        37.000  
G18  20615542.490 8 108335415.884 8        48.000    20615531.304 8  84417209.942 8        48.000  
G20  24034566.785 7 126302501.826 7        42.000    24034553.937 6  98417536.524 6        38.000  
G23  22933726.720 7 120517542.158 7        46.000    22933715.873 7  93909775.929 7        44.000  
G25  23468464.791 7 123327616.207 7        45.000    23468456.053 7  96099441.810 7        45.000  
G26  21866678.299 7 114910172.808 7        47.000    21866667.364 7  89540391.963 7        47.000  
G29  20803076.117 8 109320914.501 8        50.000    20803063.984 8  85185123.847 8        50.000  
G31  25338412.085 7 133154208.916 7        42.000    25338398.647 7 103756522.310 7        42.000  
R06  22363514.725 6 119336005.222 6        38.000                                                  
R07  21009306.120 8 112464443.196 8        50.000    21009303.762 7  87472347.091 7        47.000  
R08  22619249.427 7 121125053.436 7        45.000    22619247.569 7  94208372.685 7        47.000  
R12  22330120.237 7 119283483.419 7        47.000    22330119.969 7  92776038.535 7        42.000  
R13  20940935.236 6 111823427.325 6        38.000    20940935.557 6  86973776.099 6        41.000  
R14  22843863.421 7 121770646.303 7        45.000    22843863.654 6  94710502.400 6        41.000  
R21  23798020.501 6 127348016.278 6        41.000    23798018.196 6  99048455.455 6        40.000  
R22  20477175.658 6 109308561.656 6        41.000    20477173.496 6  85017774.784 6        37.000  
R23  20812899.076 8 111334992.020 8        50.000                                                  
R24  23945168.689 7 128045572.545 7        46.000    23945168.653 6  99591003.430 6        40.000  
> 2021 11 07 00 25  0.0000000  0 21                     
G05  21782133.573 8 114465896.739 8        48.000    21782120.081 8  89194207.375 8        49.000  
G13  24882194.611 6 130756819.501 6        40.000    24882183.693 5 101888428.754 5        33.000  
G15  24153645.722 6 126928243.939 6        38.000    24153636.484 6  98905124.518 6        38.000  
G16  24233628.040 6 127348593.701 6        37.000    24233615.586 6  99232668.765 6        37.000  
G18  20602316.679 8 108265911.111 8        49.000    20602304.778 8  84363050.415 8        49.000  
G20  24071131.577 7 126494650.515 7        42.000    24071117.514 5  98567262.773 5        34.000  
G23  22893677.451 7 120307081.046 7        45.000    22893666.801 7  93745780.249 7        45.000  
G25  23511022.871 7 123551257.361 7        45.000    23511013.651 7  96273707.581 7        45.000  
G26  21854644.424 7 114846934.068 7        47.000    21854632.863 7  89491115.034 7        47.000  
G29  20816569.034 8 109391818.971 8        50.000    20816556.400 8  85240374.088 8        50.000  
G31  25369099.255 7 133315472.717 7        42.000    25369085.192 7 103882182.456 7        42.000  
R06  22387791.884 6 119465548.086 6        40.000                                                  
R07  20991900.495 8 112371270.691 8        50.000    20991898.064 8  87399879.650 8        48.000  
R08  22573174.849 7 120878328.724 7        45.000    22573173.491 7  94016475.740 7        46.000  
R12  22375851.159 8 119527771.322 8        48.000    22375850.605 7  92966040.272 7        44.000  
R13  20956043.798 6 111904100.309 6        40.000    20956044.191 7  87036521.713 7        42.000  
R14  22815176.510 7 121617726.713 7        44.000    22815176.349 7  94591564.971 7        42.000  
R21  23831347.640 6 127526358.960 6        41.000    23831345.836 6  99187166.306 6        39.000  
R22  20495062.997 7 109404044.695 7        42.000    20495060.960 6  85092039.376 6        36.000  
R23  20792012.011 8 111223255.185 8        49.000                                                  
R24  23911560.523 7 127865855.479 7        46.000    23911559.129 6  99451223.578 6        39.000  
> 2021 11 07 00 26  0.0000000  0 21                     
G05  21805186.417 7 114587041.762 7        47.000    21805173.283 7  89288606.085 7        47.000  
G13  24855505.849 6 130616566.191 6        40.000    24855493.520 5 101779140.408 5        31.000  
G15  24120243.801 6 126752711.690 6        40.000    24120233.294 6  98768346.264 6        40.000  
G16  24197542.799 6 127158950.705 6        41.000    24197527.932 6  99084894.993 6        38.000  
G18  20589352.113 8 108197781.688 8        49.000    20589340.480 8  84309962.569 8        49.000  
G20  24107857.762 6 126687641.983 6        41.000    24107842.341 6  98717645.713 6        38.000  
G23  22853796.507 7 120097506.792 7        45.000    22853786.161 7  93582475.640 7        44.000  
G25  23553673.906 7 123775389.504 7        44.000    23553664.096 7  96448355.904 7        44.000  
G26  21843030.041 7 114785902.239 7        47.000    21843018.641 7  89443557.781 7        47.000  
G29  20830332.202 8 109464144.415 8        50.000    20830319.497 8  85296731.577 8        50.000  
G31  25399840.943 6 133477013.845 6        40.000    25399826.505 6 104008058.643 6        40.000  
R06  22412576.379 6 119597797.942 6        40.000                                                  
R07  20975048.469 8 112281061.389 8        50.000    20975046.218 8  87329716.920 8        48.000  
R08  22527256.016 7 120632438.281 7        45.000    22527255.266 7  93825227.618 7        47.000  
R12  22421751.712 8 119772958.370 8        48.000    22421751.390 7  93156741.237 7        44.000  
R13  20971721.436 6 111987815.886 6        39.000    20971721.740 7  87101633.782 7        42.000  
R14  22786952.442 7 121467275.669 7        44.000    22786952.817 7  94474547.509 7        43.000  
R21  23864698.724 7 127704828.671 7        44.000    23864697.956 6  99325976.035 6        40.000  
R22  20513114.856 6 109500408.415 6        41.000    20513112.997 6  85166988.918 6        37.000  
R23  20771278.387 8 111112347.113 8        48.000                                                  
R24  23877979.268 8 127686275.777 8        48.000    23877976.659 6  99311550.548 6        38.000  
> 2021 11 07 00 27  0.0000000  0 21                     
G05  21828625.983 7 114710222.201 7        47.000    21828613.296 7  89384590.859 7        47.000  
G13  24829017.882 6 130477373.401 6        39.000    24829005.516 6 101670678.505 6        37.000  
G15  24086974.753 5 126577879.028 5        33.000    24086963.532 5  98632113.028 5        34.000  
G16  24161682.744 6 126970512.224 6        40.000    24161668.752 6  98938059.872 6        39.000  
G18  20576653.349 8 108131049.575 8        48.000    20576642.216 8  84257963.520 8        48.000  
G20  24144742.624 6 126881479.269 6        38.000    24144728.704 6  98868687.742 6        36.000  
G23  22814092.843 7 119888862.113 7        45.000    22814082.014 7  93419895.373 7        45.000  
G25  23596418.521 7 124000014.655 7        42.000    23596409.157 7  96623388.457 7        42.000  
G26  21831841.871 7 114727108.875 7        47.000    21831831.185 7  89397744.781 7        47.000  
G29  20844370.357 8 109537914.676 8        50.000    20844357.384 8  85354214.892 8        50.000  
G31  25430633.719 6 133638832.093 6        40.000    25430620.228 6 104134150.860 6        41.000  
R06  22437866.997 6 119732755.593 6        39.000                                                  
R07  20958758.139 8 112193858.745 8        50.000    20958756.298 8  87261892.688 8        49.000  
R08  22481504.724 7 120387440.381 7        45.000    22481503.384 7  93634673.745 7        45.000  
R12  22467816.498 7 120019032.108 7        46.000    22467816.570 7  93348131.917 7        44.000  
R13  20987969.256 6 112074579.025 6        40.000    20987969.077 7  87169116.182 7        42.000  
R14  22759200.544 7 121319341.985 7        44.000    22759200.348 7  94359488.005 7        43.000  
R21  23898077.488 7 127883447.565 7        44.000    23898077.023 6  99464901.851 6        38.000  
R22  20531336.005 6 109597672.070 6        40.000    20531334.147 6  85242638.414 6        37.000  
R23  20750704.083 8 111002293.034 8        48.000                                                  
R24  23844426.086 7 127506856.931 7        45.000    23844424.585 6  99172002.566 6        38.000  
> 2021 11 07 00 28  0.0000000  0 21                     
G05  21852448.571 7 114835410.178 7        46.000    21852436.456 7  89482139.914 7        47.000  
G13  24802734.908 6 130339254.694 6        39.000    24802722.131 5 101563053.630 5        33.000  
G15  24053838.16915 126403782.32615        35.0001   24053831.14715  98496452.95115        35.0001 
G16  24126056.612 7 126783289.529 7        44.000    24126041.512 6  98792172.053 6        37.000  
G18  20564218.349 8 108065702.763 8        49.000    20564207.163 8  84207043.935 8        49.000  
G20  24181782.232 6 127076131.931 6        41.000    24181769.777 6  99020365.210 6        36.000  
G23  22774567.797 7 119681156.047 7        47.000    22774556.218 7  93258046.535 7        44.000  
G25  23639251.641 7 124225101.246 7        44.000    23639242.063 7  96798780.603 7        44.000  
G26  21821079.644 7 114670551.495 7        47.000    21821069.655 7  89353674.080 7        47.000  
G29  20858681.085 8 109613118.943 8        50.000    20858668.220 8  85412815.618 8        50.000  
G31  25461472.669 7 133800892.925 7        43.000    25461457.659 7 104260432.081 7        43.000  
R06  22463657.018 5 119870386.080 5        35.000                                                  
R07  20943031.129 8 112109671.241 8        51.000    20943029.717 8  87196413.541 8        49.000  
R08  22435924.295 7 120143359.867 7        45.000    22435922.990 7  93444833.373 7        46.000  
R12  22514039.515 7 120265945.652 7        47.000    22514039.533 7  93540175.803 7        45.000  
R13  21004781.719 6 112164358.004 6        38.000    21004782.023 7  87238944.235 7        42.000  
R14  22731924.178 7 121173939.233 7        45.000    22731922.480 7  94246397.049 7        42.000  
R21  23931482.429 7 128062203.430 7        46.000    23931482.250 6  99603934.179 6        39.000  
R22  20549722.301 6 109695822.059 6        39.000    20549720.585 6  85318977.284 6        37.000  
R23  20730288.689 8 110893084.404 8        49.000                                                  
R24  23810900.868 7 127327589.137 7        46.000    23810901.225 6  99032572.104 6        38.000  
> 2021 11 07 00 29  0.0000000  0 21                     
G05  21876649.018 7 114962582.673 7        47.000    21876637.153 7  89581235.412 7        47.000  
G13  24776659.607 6 130202231.206 6        37.000    24776647.188 5 101456282.102 5        32.000  
G15  24020848.397 6 126230403.000 6        39.000    24020836.442 6  98361352.219 6        38.000  
G16  24090663.795 7 126597300.235 7        43.000    24090648.017 5  98647245.361 5        35.000  
G18  20552045.864 8 108001736.180 8        49.000    20552034.517 8  84157199.856 8        49.000  
G20  24218975.460 6 127271577.156 6        40.000    24218962.719 6  99172660.152 6        39.000  
G23  22735224.443 7 119474404.398 7        46.000    22735213.168 7  93096941.377 7        45.000  
G25  23682166.923 7 124450624.435 7        42.000    23682157.792 7  96974512.926 7        42.000  
G26  21810742.700 7 114616234.107 7        46.000    21810733.659 7  89311348.837 7        46.000  
G29  20873263.977 8 109689754.907 8        49.000    20873251.254 8  85472531.963 8        49.000  
G31  25492352.842 7 133963168.815 7        42.000    25492335.348 7 104386880.815 7        42.000  
R06  22489945.657 6 120010662.492 6        38.000                                                  
R07  20927869.906 8 112028513.153 8        51.000    20927867.977 8  87133290.605 8        49.000  
R08  22390521.198 7 119900228.047 7        45.000    22390519.125 7  93255730.897 7        46.000  
R12  22560412.810 7 120513659.791 7        47.000    22560412.596 7  93732842.337 7        44.000  
R13  21022154.555 6 112257128.894 6        39.000    21022155.484 7  87311099.374 7        42.000  
R14  22705125.825 7 121031087.770 7        44.000    22705122.734 6  94135290.395 6        41.000  
R21  23964912.780 7 128241091.508 7        46.000    23964912.387 6  99743069.372 6        39.000  
R22  20568273.063 6 109794850.672 6        37.000    20568272.223 5  85395999.509 5        35.000  
R23  20710031.453 8 110784719.487 8        49.000                                                  
R24  23777404.902 7 127148469.162 7        47.000    23777404.848 6  98893256.612 6        38.000  
> 2021 11 07 00 30  0.0000000  0 21                     
G05  21901225.893 8 115091732.569 8        49.000    21901213.546 8  89681871.704 8        49.000  
G13  24750798.789 5 130066339.864 5        35.000    24750788.139 5 101350392.776 5        31.000  
G15  23988003.417 6 126057800.452 6        38.000    23987991.481 6  98226856.823 6        39.000  
G16  24055510.978 7 126412578.796 7        42.000    24055496.897 6  98503306.571 6        36.000  
G18  20540138.161 8 107939161.204 8        49.000    20540127.172 8  84108440.139 8        49.000  
G20  24256317.286 7 127467808.018 7        42.000    24256304.992 6  99325567.349 6        36.000  
G23  22696068.857 7 119268639.483 7        47.000    22696057.368 7  92936605.122 7        44.000  
G25  23725163.402 7 124676576.118 7        42.000    23725154.664 7  97150579.178 7        42.000  
G26  21800836.096 7 114564177.042 7        47.000    21800827.108 7  89270784.891 7        47.000  
G29  20888122.266 8 109767834.969 8        49.000    20888109.758 8  85533373.549 8        49.000  
G31  25523271.666 6 134125650.087 6        41.000    25523254.387 6 104513489.612 6        41.000  
R06  22516726.819 6 120153573.116 6        37.000                                                  
R07  20913280.421 8 111950415.598 8        51.000    20913278.688 8  87072548.081 8        48.000  
R08  22345304.475 7 119658094.293 7        45.000    22345302.420 7  93067404.688 7        46.000  
R12  22606930.648 7 120762151.672 7        47.000    22606929.665 7  93926113.798 7        43.000  
R13  21040086.817 6 112352884.076 6        38.000    21040086.013 6  87385575.611 6        41.000  
R14  22678812.170 7 120890824.997 7        46.000    22678808.954 6  94026197.171 6        41.000  
R21  23998369.487 7 128420123.965 7        45.000    23998368.505 6  99882316.848 6        40.000  
R22  20586991.329 6 109894767.905 6        38.000    20586989.346 5  85473712.926 5        34.000  
R23  20689933.948 8 110677213.731 8        48.000                                                  
R24  23743939.957 7 126969511.201 7        47.000    23743938.777 6  98754067.110 6        38.000  
> 2021 11 07 00 31  0.0000000  0 21                     
G05  21926172.979 8 115222830.255 8        48.000    21926160.292 8  89784025.661 8        48.000  
G13  24725158.099 6 129931594.271 6        37.000    24725146.842 5 101245396.155 5        35.000  
G15  23955307.108 6 125885989.509 6        40.000    23955295.814 6  98092978.157 6        40.000  
G16  24020604.377 7 126229135.844 7        43.000    24020590.082 6  98360363.983 6        36.000  
G18  20528492.722 8 107877965.386 8        49.000    20528482.305 8  84060755.093 8        49.000  
G20  24293803.083 6 127664794.328 6        41.000    24293791.004 6  99479063.197 6        38.000  
G23  22657102.415 7 119063869.952 7        47.000    22657090.657 7  92777044.484 7        44.000  
G25  23768236.110 7 124902924.527 7        42.000    23768227.640 7  97326954.529 7        42.000  
G26  21791359.170 7 114514376.515 7        47.000    21791350.236 7  89231979.280 7        47.000  
G29  20903253.451 8 109847348.670 8        49.000    20903240.478 8  85595332.272 8        49.000  
G31  25554222.011 7 134288302.255 7        43.000    25554205.518 7 104640231.581 7        43.000  
R06  22543996.039 6 120299082.249 6        37.000                                                  
R07  20899264.120 8 111875385.649 8        50.000    20899262.673 8  87014191.482 8        48.000  
R08  22300278.272 7 119416982.304 7        47.000    22300276.807 7  92879873.191 7        46.000  
R12  22653585.756 8 121011374.102 8        49.000    22653584.987 7  94119953.398 7        43.000  
R13  21058571.428 6 112451589.862 6        40.000    21058570.052 7  87462346.715 7        42.000  
R14  22652986.375 7 120753163.045 7        45.000    22652983.981 6  93919126.744 6        41.000  
R21  24031849.979 7 128599288.564 7        43.000    24031849.639 6 100021667.012 6        40.000  
R22  20605872.382 6 109995558.930 6        40.000    20605871.203 5  85552105.934 5        35.000  
R23  20669995.442 8 110570558.086 8        49.000                                                  
R24  23710503.048 7 126790704.947 7        47.000    23710502.690 6  98614995.577 6        41.000  
> 2021 11 07 00 32  0.0000000  0 20                     
G05  21951486.166 7 115355858.319 7        46.000    21951474.426 7  89887683.890 7        46.000  
G13  24699741.040 6 129798019.757 6        38.000    24699729.211 6 101141312.226 6        38.000  
G15  23922769.261 7 125714999.514 7        42.000    23922757.968 7  97959739.236 7        43.000  
G16  23985944.941 7 126046995.023 7        42.000    23985928.984 6  98218436.039 6        36.000  
G18  20517110.208 8 107818149.343 8        49.000    20517099.362 8  84014145.176 8        49.000  
G20  24331428.098 7 127862518.428 7        42.000    24331416.412 5  99633133.984 5        34.000  
G23  22618329.208 7 118860117.377 7        46.000    22618317.594 7  92618276.290 7        43.000  
G25  23811380.723 7 125129650.852 7        42.000    23811372.110 7  97503624.395 7        42.000  
G26  21782313.335 7 114466841.479 7        47.000    21782304.937 7  89194938.974 7        47.000  
G29  20918657.960 8 109928299.171 8        49.000    20918645.005 8  85658410.578 8        49.000  
R06  22571746.667 6 120447167.026 6        37.000                                                  
R07  20885824.238 8 111803441.648 8        50.000    20885822.845 8  86958235.059 8        48.000  
R08  22255450.415 7 119176930.480 7        47.000    22255449.075 7  92693166.279 7        46.000  
R12  22700371.718 8 121261294.383 8        48.000    22700371.164 7  94314335.804 7        43.000  
R13  21077605.797 6 112553226.678 6        39.000    21077604.385 7  87541397.525 7        42.000  
R14  22627653.890 7 120618127.133 7        47.000    22627651.174 6  93814098.789 6        40.000  
R21  24065355.844 7 128778586.240 7        43.000    24065355.147 6 100161120.744 6        40.000  
R22  20624917.991 6 110097223.177 6        40.000    20624915.596 5  85631178.135 5        35.000  
R23  20650217.239 8 110464757.353 8        50.000                                                  
R24  23677094.926 7 126612053.860 7        47.000    23677094.979 6  98476044.819 6        40.000  
> 2021 11 07 00 33  0.0000000  0 20                     
G05  21977164.398 7 115490796.984 7        47.000    21977152.551 7  89992830.938 7        47.000  
G13  24674551.436 6 129665641.601 6        39.000    24674538.481 6 101038160.437 6        38.000  
G15  23890392.753 7 125544856.729 7        43.000    23890382.068 7  97827160.516 7        43.000  
G16  23951536.351 7 125866178.121 7        42.000    23951519.000 5  98077539.808 5        33.000  
G18  20505989.940 8 107759711.413 8        49.000    20505978.468 8  83968609.150 8        49.000  
G20  24369190.972 7 128060961.784 7        43.000    24369177.481 5  99787765.205 5        35.000  
G23  22579754.151 7 118657401.078 7        47.000    22579742.447 7  92460315.579 7        45.000  
G25  23854593.703 7 125356734.352 7        43.000    23854584.840 7  97680572.547 7        43.000  
G26  21773700.537 7 114421578.495 7        47.000    21773692.157 7  89159669.092 7        47.000  
G29  20934335.669 8 110010685.724 8        48.000    20934322.839 8  85722607.876 8        48.000  
R06  22599976.811 6 120597802.257 6        39.000                                                  
R07  20872964.010 8 111734600.258 8        49.000    20872962.616 7  86904691.801 7        47.000  
R08  22210827.265 7 118937974.046 7        46.000    22210825.532 7  92507311.312 7        46.000  
R12  22747281.084 7 121511876.861 7        47.000    22747279.690 7  94509233.266 7        44.000  
R13  21097183.009 6 112657772.190 6        39.000    21097182.312 6  87622710.659 6        41.000  
R14  22602818.539 7 120485740.089 7        46.000    22602816.377 6  93711131.095 6        40.000  
R21  24098886.780 7 128958016.157 7        43.000    24098885.833 6 100300677.260 6        41.000  
R22  20644126.940 6 110199757.403 6        41.000    20644124.331 6  85710926.999 6        36.000  
R23  20630600.090 8 110359814.120 8        50.000                                                  
R24  23643713.536 6 126433558.827 6        41.000    23643713.393 6  98337215.359 6        40.000  
> 2021 11 07 00 34  0.0000000  0 20                     
G05  22003204.461 7 115627635.103 7        47.000    22003191.631 7  90099458.032 7        47.000  
G13  24649594.093 6 129534491.183 6        39.000    24649581.674 6 100935965.365 6        37.000  
G15  23858183.518 7 125375595.405 7        42.000    23858170.920 7  97695268.616 7        42.000  
G16  23917384.431 6 125686714.468 6        41.000    23917369.314 6  97937698.038 6        36.000  
G18  20495133.025 8 107702657.775 8        49.000    20495121.178 8  83924151.808 8        49.000  
G20  24407088.454 6 128260112.651 6        41.000    24407074.802 6  99942947.729 6        37.000  
G23  22541380.335 7 118455748.374 7        46.000    22541369.078 7  92303183.631 7        44.000  
G25  23897872.280 7 125584162.139 7        43.000    23897862.523 7  97857788.982 7        43.000  
G26  21765523.351 7 114378601.637 7        47.000    21765513.844 7  89126180.593 7        47.000  
G29  20950288.168 8 110094517.281 8        48.000    20950275.624 8  85787931.147 8        48.000  
R06  22628679.626 6 120750969.995 6        36.000                                                  
R07  20860688.116 8 111668885.192 8        50.000    20860686.401 7  86853580.087 7        47.000  
R08  22166416.632 7 118700157.761 7        45.000    22166414.917 7  92322343.092 7        46.000  
R12  22794308.832 7 121763094.105 7        47.000    22794309.136 7  94704624.445 7        43.000  
R13  21117303.314 6 112765210.173 6        39.000    21117302.385 7  87706273.508 7        42.000  
R14  22578486.058 7 120356032.464 7        46.000    22578484.772 6  93610247.342 6        40.000  
R21  24132443.483 6 129137585.551 6        41.000    24132442.732 6 100440342.242 6        41.000  
R22  20663498.802 6 110303167.089 6        40.000    20663496.693 6  85791356.734 6        36.000  
R23  20611143.833 8 110255739.208 8        49.000                                                  
R24  23610362.845 7 126255228.624 7        43.000    23610363.792 6  98198514.250 6        40.000  
> 2021 11 07 00 35  0.0000000  0 21                     
G05  22029598.813 7 115766338.557 7        47.000    22029585.858 7  90207538.660 7        47.000  
G10  25385062.958 6 133399414.713 6        40.000                                                  
G13  24624872.711 6 129404579.779 6        40.000    24624860.470 6 100834735.743 6        38.000  
G15  23826144.806 6 125207228.437 6        41.000    23826132.602 6  97564073.633 6        41.000  
G16  23883494.542 6 125508612.549 6        39.000    23883480.050 6  97798917.328 6        39.000  
G18  20484537.088 8 107646973.459 8        49.000    20484524.812 8  83880761.468 8        49.000  
G20  24445113.359 7 128459938.465 7        42.000    24445100.565 6 100098656.205 6        38.000  
G23  22503210.494 7 118255165.267 7        47.000    22503199.290 7  92146885.127 7        46.000  
G25  23941208.895 7 125811900.218 7        43.000    23941200.122 7  98035247.211 7        42.000  
G26  21757779.113 7 114337903.446 7        47.000    21757768.534 7  89094467.735 7        47.000  
G29  20966512.919 8 110179779.954 8        48.000    20966500.608 8  85854369.568 8        48.000  
R06  22657849.894 6 120906630.769 6        38.000                                                  
R07  20848996.450 8 111606298.020 8        51.000    20848994.717 8  86804901.192 8        49.000  
R08  22122223.090 7 118463503.557 7        46.000    22122221.481 7  92138278.821 7        46.000  
R12  22841447.672 7 122014897.956 7        47.000    22841446.582 7  94900471.943 7        42.000  
R13  21137957.099 6 112875504.181 6        39.000    21137956.152 6  87792057.678 6        41.000  
R14  22554658.091 7 120229012.783 7        46.000    22554655.786 6  93511454.243 6        38.000  
R21  24166024.059 7 129317280.053 7        42.000    24166023.523 6 100580104.612 6        41.000  
R22  20683031.985 6 110407435.765 6        40.000    20683029.858 6  85872454.556 6        36.000  
R23  20591847.951 8 110152521.868 8        49.000                                                  
R24  23577043.264 6 126077051.510 6        41.000    23577042.800 7  98059932.092 7        42.000  
> 2021 11 07 00 36  0.0000000  0 21                     
G05  22056348.347 7 115906907.548 7        47.000    22056335.839 7  90317072.971 7        47.000  
G10  25342618.935 7 133176369.439 7        44.000    25342610.734 7 103773788.418 7        44.000  
G13  24600395.133 7 129275951.141 7        42.000    24600383.233 6 100734505.688 6        37.000  
G15  23794283.677 6 125039802.458 6        41.000    23794272.170 6  97433611.829 6        41.000  
G16  23849869.919 6 125331913.323 6        41.000    23849854.194 6  97661229.704 6        39.000  
G18  20474204.433 8 107592676.605 8        49.000    20474192.728 8  83838452.266 8        49.000  
G20  24483268.155 7 128660440.311 7        42.000    24483254.700 6 100254891.431 6        37.000  
G23  22465252.025 7 118055690.974 7        47.000    22465240.661 7  91991450.629 7        45.000  
G25  23984605.122 7 126039947.940 7        42.000    23984596.134 7  98212946.732 7        42.000  
G26  21750471.969 7 114299509.235 7        46.000    21750461.373 7  89064550.181 7        46.000  
G29  20983013.497 8 110266493.501 8        48.000    20983001.542 8  85921938.538 8        48.000  
R06  22687486.777 6 121064778.295 6        38.000                                                  
R07  20837895.570 8 111546872.895 8        50.000    20837894.337 8  86758681.645 8        49.000  
R08  22078256.716 7 118228067.264 7        45.000    22078255.304 7  91955161.732 7        47.000  
R12  22888692.887 8 122267273.411 8        48.000    22888692.029 7  95096763.854 7        43.000  
R13  21159145.561 6 112988649.363 6        39.000    21159145.365 6  87880059.488 6        41.000  
R14  22531342.394 7 120104722.952 7        46.000    22531338.927 6  93414784.361 6        39.000  
R21  24199631.688 7 129497119.379 7        44.000    24199631.063 7 100719979.615 7        43.000  
R22  20702728.490 6 110512580.917 6        38.000    20702726.882 5  85954234.077 5        35.000  
R23  20572717.518 8 110050185.273 8        49.000                                                  
R24  23543754.918 6 125899048.925 6        39.000    23543755.776 7  97921485.883 7        42.000  
> 2021 11 07 00 37  0.0000000  0 20                     
G05  22083444.451 7 116049301.018 7        47.000    22083432.407 7  90428028.965 7        47.000  
G10  25300180.024 6 132953346.740 6        40.000    25300170.446 6 103600004.550 6        40.000  
G13  24576162.254 7 129148608.401 7        42.000    24576150.622 6 100635277.641 6        37.000  
G15  23762602.328 6 124873323.883 6        39.000    23762592.483 6  97303888.246 6        39.000  
G16  23816510.705 6 125156618.803 6        41.000    23816497.071 6  97524636.620 6        39.000  
G18  20464131.432 8 107539745.277 8        49.000    20464120.264 8  83797207.103 8        49.000  
G20  24521543.030 6 128861579.754 6        40.000    24521530.433 6 100411623.526 6        38.000  
G23  22427504.465 8 117857324.509 8        48.000    22427492.975 7  91836879.378 7        45.000  
G25  24028052.669 7 126268264.568 7        45.000    24028043.109 7  98390855.789 7        45.000  
G26  21743600.454 7 114263404.506 7        47.000    21743591.055 7  89036416.633 7        47.000  
G29  20999787.149 8 110354637.758 8        49.000    20999774.980 8  85990622.372 8        49.000  
R06  22717581.499 6 121225365.765 6        38.000                                                  
R07  20827384.153 8 111490603.569 8        51.000    20827382.777 8  86714916.628 8        49.000  
R08  22034521.085 7 117993864.641 7        46.000    22034519.656 7  91773004.190 7        46.000  
R12  22936034.093 7 122520165.040 7        46.000    22936034.522 7  95293457.324 7        43.000  
R13  21180859.123 6 113104601.627 6        36.000    21180859.158 6  87970244.571 6        41.000  
R14  22508537.732 7 119983163.131 7        44.000    22508533.747 6  93320237.870 6        38.000  
R22  20722585.960 6 110618579.929 6        38.000    20722584.138 5  86036677.743 5        35.000  
R23  20553748.102 8 109948712.298 8        48.000                                                  
R24  23510497.629 7 125721202.235 7        42.000    23510497.039 7  97783160.694 7        42.000  
> 2021 11 07 00 38  0.0000000  0 20                     
G05  22110885.999 7 116193509.256 7        47.000    22110873.615 7  90540398.963 7        47.000  
G10  25257749.314 7 132730372.463 7        43.000    25257741.505 7 103426258.385 7        43.000  
G13  24552180.757 7 129022584.951 7        43.000    24552168.820 6 100537077.598 6        36.000  
G15  23731110.784 6 124707827.530 6        39.000    23731098.079 6  97174930.042 6        39.000  
G16  23783426.638 7 124982759.398 7        43.000    23783414.147 6  97389161.791 6        41.000  
G18  20454320.785 8 107488186.569 8        49.000    20454309.027 8  83757031.480 8        49.000  
G20  24559938.575 6 129063346.940 6        41.000    24559924.727 6 100568844.730 6        36.000  
G23  22389972.405 7 117660093.951 7        46.000    22389960.915 7  91683193.272 7        45.000  
G25  24071547.729 7 126496838.698 7        43.000    24071539.920 7  98568965.457 7        43.000  
G26  21737168.481 7 114229602.865 7        47.000    21737159.743 7  89010077.674 7        47.000  
G29  21016834.518 8 110444221.597 8        49.000    21016822.135 8  86060427.945 8        49.000  
R06  22748129.881 6 121388375.090 6        38.000                                                  
R07  20817466.148 8 111437512.852 8        50.000    20817464.379 8  86673623.886 8        49.000  
R08  21991024.292 7 117760940.488 7        46.000    21991022.612 7  91591840.965 7        47.000  
R12  22983468.290 7 122773547.259 7        46.000    22983467.325 6  95490532.405 6        41.000  
R13  21203094.727 6 113223343.179 6        39.000    21203095.442 6  88062599.037 6        39.000  
R14  22486250.129 7 119864363.794 7        43.000    22486246.537 6  93227838.430 6        39.000  
R22  20742604.698 6 110725439.109 6        40.000    20742602.590 5  86119790.392 5        35.000  
R23  20534942.224 8 109848115.244 8        49.000                                                  
R24  23477271.003 7 125543521.621 7        46.000    23477271.181 7  97644964.736 7        44.000  
> 2021 11 07 00 39  0.0000000  0 20                     
G05  22138669.631 8 116339506.607 8        48.000    22138656.569 8  90654163.094 8        48.000  
G10  25215330.684 6 132507458.940 6        38.000    25215321.946 6 103252559.591 6        39.000  
G13  24528454.179 7 128897899.487 7        43.000    24528441.742 6 100439920.162 6        37.000  
G15  23699809.938 6 124543335.619 6        41.000    23699796.608 7  97046754.652 7        42.000  
G16  23750618.075 7 124810351.501 7        43.000    23750606.246 6  97254817.975 6        41.000  
G18  20444769.452 8 107437993.918 8        48.000    20444757.980 8  83717920.348 8        48.000  
G20  24598448.178 6 129265718.038 6        39.000    24598434.812 6 100726536.532 6        38.000  
G23  22352659.598 7 117464013.896 7        47.000    22352647.697 7  91530403.644 7        45.000  
G25  24115088.605 7 126725645.200 7        42.000    24115080.600 7  98747256.243 7        42.000  
G26  21731175.336 8 114198104.273 8        48.000    21731166.437 8  88985533.300 8        48.000  
G29  21034154.855 8 110535239.437 8        49.000    21034142.168 8  86131350.935 8        49.000  
R06  22779124.737 6 121553774.433 6        36.000                                                  
R07  20808143.057 8 111387607.800 8        50.000    20808141.520 8  86634808.878 8        49.000  
R08  21947771.714 7 117529325.978 7        46.000    21947770.392 8  91411696.399 8        48.000  
R12  23030986.901 7 123027381.150 7        46.000    23030986.329 7  95687958.702 7        42.000  
R13  21225849.624 6 113344845.204 6        38.000    21225848.069 6  88157100.620 6        40.000  
R14  22464483.729 7 119748340.165 7        43.000    22464483.228 7  93137597.869 7        42.000  
R22  20762782.077 6 110833151.949 6        38.000    20762780.844 5  86203567.062 5        35.000  
R23  20516300.545 8 109748392.537 8        49.000                                                  
R24  23444075.058 7 125366004.210 7        46.000    23444074.861 7  97506895.754 7        43.000  
> 2021 11 07 00 40  0.0000000  0 20                     
G05  22166790.988 7 116487281.815 7        46.000    22166777.426 7  90769312.604 7        47.000  
G10  25172926.831 6 132284632.157 6        41.000    25172918.647 6 103078928.388 6        41.000  
G13  24504987.935 7 128774584.541 7        43.000    24504976.070 5 100343830.626 5        34.000  
G15  23668705.956 6 124379883.778 6        40.000    23668693.197 6  96919389.644 6        40.000  
G16  23718091.843 7 124639425.734 7        44.000    23718080.175 6  97121629.086 6        41.000  
G18  20435478.632 8 107389174.377 8        49.000    20435467.911 8  83679879.156 8        49.000  
G20  24637070.034 6 129468683.988 6        37.000    24637058.294 6 100884691.881 6        36.000  
G23  22315570.832 7 117269112.263 7        47.000    22315559.378 7  91378532.276 7        46.000  
G25  24158671.528 7 126954672.869 7        45.000    24158662.522 7  98925719.316 7        45.000  
G26  21725622.376 8 114168921.914 8        48.000    21725613.281 8  88962793.806 8        48.000  
G29  21051749.803 8 110627700.200 8        49.000    21051736.884 8  86203398.288 8        49.000  
R06  22810564.408 6 121721545.250 6        36.000                                                  
R07  20799419.293 8 111340909.758 8        50.000    20799418.220 8  86598488.208 8        49.000  
R08  21904772.197 7 117299066.761 7        46.000    21904770.982 7  91232605.936 7        47.000  
R12  23078584.563 7 123281641.186 7        47.000    23078585.046 7  95885716.464 7        42.000  
R13  21249115.806 6 113469090.683 6        36.000    21249116.181 6  88253735.885 6        41.000  
R14  22443244.072 7 119635121.340 7        45.000    22443244.376 7  93049538.759 7        42.000  
R22  20783121.564 6 110941725.186 6        39.000    20783120.331 5  86288012.941 5        35.000  
R23  20497824.297 8 109649556.913 8        49.000                                                  
R24  23410910.901 7 125188660.387 7        47.000    23410910.991 7  97368961.723 7        43.000  
> 2021 11 07 00 41  0.0000000  0 20                     
G05  22195242.315 7 116636802.508 7        47.000    22195229.788 7  90885822.256 7        47.000  
G10  25130543.117 6 132061897.914 6        38.000    25130533.092 6 102905369.122 6        39.000  
G13  24481784.919 7 128652652.256 7        42.000    24481773.215 5 100248818.453 5        35.000  
G15  23637802.106 7 124217486.860 7        42.000    23637790.705 7  96792846.561 7        42.000  
G16  23685849.782 7 124469992.200 7        44.000    23685837.917 6  96989602.951 6        40.000  
G18  20426447.342 8 107341714.750 8        49.000    20426436.567 8  83642897.656 8        49.000  
G20  24675800.194 6 129672215.302 6        38.000    24675789.223 6 101043287.715 6        37.000  
G23  22278707.645 7 117075396.810 7        47.000    22278696.709 7  91227585.177 7        45.000  
G25  24202290.259 7 127183890.127 7        45.000    24202281.682 7  99104330.104 7        45.000  
G26  21720508.655 8 114142048.458 8        48.000    21720499.363 8  88941853.433 8        48.000  
G29  21069616.253 8 110721592.352 8        49.000    21069604.138 8  86276561.006 8        49.000  
R06  22842441.780 6 121891648.371 6        37.000                                                  
R07  20791294.837 8 111297418.283 8        50.000    20791294.105 8  86564661.499 8        49.000  
R08  21862030.531 7 117070186.991 7        45.000    21862029.298 8  91054588.358 8        48.000  
R12  23126253.970 7 123536281.486 7        45.000    23126253.166 6  96083769.993 6        38.000  
R13  21272890.434 6 113596039.986 6        37.000    21272889.541 6  88352474.269 6        40.000  
R14  22422532.356 7 119524715.307 7        46.000    22422531.945 7  92963667.387 7        42.000  
R22  20803620.604 6 111051145.314 6        40.000    20803618.388 6  86373117.462 6        36.000  
R23  20479512.283 8 109551600.339 8        49.000                                                  
R24  23377777.909 7 125011481.373 7        47.000    23377776.587 6  97231155.919 6        41.000  
> 2021 11 07 00 42  0.0000000  0 20                     
G05  22224024.593 7 116788054.462 7        47.000    22224012.210 7  91003680.889 7        47.000  
G10  25088179.541 7 131839279.116 7        45.000    25088171.071 7 102731900.020 7        45.000  
G13  24458850.743 7 128532132.035 7        43.000    24458837.430 5 100154906.600 5        34.000  
G15  23607106.376 6 124056178.082 6        41.000    23607095.512 6  96667151.464 6        41.000  
G16  23653895.877 7 124302078.105 7        43.000    23653884.477 6  96858760.781 6        38.000  
G18  20417675.957 8 107295618.970 8        49.000    20417664.539 8  83606978.878 8        49.000  
G20  24714637.855 6 129876299.024 6        40.000    24714625.418 6 101202314.063 6        38.000  
G23  22242075.433 7 116882892.410 7        46.000    22242064.105 7  91077581.767 7        45.000  
G25  24245942.102 7 127413282.792 7        43.000    24245933.293 7  99283077.619 7        43.000  
G26  21715835.870 7 114117493.425 7        47.000    21715826.632 7  88922719.634 7        47.000  
G29  21087756.796 8 110816921.410 8        50.000    21087744.805 8  86350843.384 8        50.000  
R06  22874752.422 6 122064062.019 6        38.000                                                  
R07  20783772.533 8 111257150.567 8        50.000    20783771.818 7  86533342.168 7        47.000  
R08  21819554.612 7 116842728.525 7        47.000    21819552.557 7  90877676.265 7        47.000  
R12  23173989.582 7 123791274.447 7        44.000    23173986.795 6  96282097.898 6        40.000  
R13  21297166.324 6 113725673.317 6        39.000    21297166.163 6  88453300.149 6        40.000  
R14  22402353.475 7 119417146.854 7        47.000    22402349.794 6  92880003.069 6        40.000  
R22  20824278.463 6 111161416.253 6        39.000    20824276.283 6  86458883.727 6        36.000  
R23  20461366.862 8 109454532.708 8        50.000                                                  
R24  23344676.848 7 124834474.264 7        47.000    23344675.186 6  97093483.836 6        41.000  
> 2021 11 07 00 43  0.0000000  0 20                     
G05  22253132.892 7 116941017.518 7        47.000    22253120.437 7  91122872.879 7        47.000  
G10  25045843.448 6 131616793.574 6        41.000    25045833.691 6 102558534.612 6        41.000  
G13  24436190.141 6 128413047.975 6        40.000    24436175.364 5 100062113.855 5        32.000  
G15  23576621.841 6 123895984.154 6        40.000    23576610.852 6  96542325.070 6        40.000  
G16  23622235.203 6 124135705.719 6        40.000    23622224.249 6  96729119.931 6        38.000  
G18  20409163.762 8 107250885.666 8        49.000    20409151.844 8  83572121.799 8        49.000  
G20  24753576.439 6 130080918.127 6        39.000    24753561.822 5 101361757.561 5        35.000  
G23  22205676.966 7 116691618.509 7        46.000    22205665.834 7  90928537.185 7        46.000  
G25  24289622.196 7 127642831.437 7        42.000    24289615.317 7  99461946.716 7        42.000  
G26  21711603.663 7 114095260.703 7        46.000    21711595.944 7  88905395.417 7        46.000  
G29  21106171.378 8 110913687.268 8        50.000    21106158.512 8  86426245.353 8        50.000  
R06  22907490.992 6 122238758.478 6        38.000                                                  
R07  20776854.487 8 111220116.617 8        51.000    20776852.682 7  86504538.017 7        47.000  
R08  21777351.036 7 116616728.315 7        45.000    21777348.838 8  90701898.394 8        48.000  
R12  23221784.608 7 124046586.931 7        46.000    23221783.393 7  96480674.205 7        42.000  
R13  21321940.652 6 113857964.211 6        38.000    21321940.598 6  88556192.995 6        41.000  
R14  22382710.881 8 119312435.096 8        48.000    22382706.092 7  92798560.630 7        42.000  
R22  20845094.141 6 111272537.172 6        38.000    20845092.765 6  86545311.085 6        36.000  
R23  20443388.320 8 109358358.800 8        50.000                                                  
R24  23311607.863 7 124657642.394 7        47.000    23311606.987 6  96955947.958 6        41.000  
> 2021 11 07 00 44  0.0000000  0 20                     
G05  22282561.047 7 117095662.789 7        46.000    22282548.324 7  91243375.696 7        46.000  
G10  25003532.603 7 131394450.437 7        44.000    25003523.222 7 102385280.174 7        44.000  
G13  24413805.455 6 128295415.410 6        40.000    24413789.874 5  99970452.121 5        33.000  
G15  23546354.111 7 123736923.554 7        43.000    23546342.264 7  96418381.750 7        42.000  
G16  23590874.138 6 123970887.725 6        40.000    23590859.843 6  96600690.298 6        38.000  
G18  20400908.970 8 107207504.703 8        49.000    20400896.677 8  83538318.479 8        49.000  
G20  24792611.034 6 130286046.439 6        38.000    24792596.274 5 101521597.870 5        33.000  
G23  22169515.353 7 116501585.754 7        47.000    22169504.256 7  90780459.738 7        46.000  
G25  24333329.005 7 127872508.015 7        42.000    24333320.856 7  99640915.460 7        42.000  
G26  21707813.769 7 114075345.047 7        46.000    21707806.424 7  88889876.701 7        46.000  
G29  21124856.693 8 111011880.271 8        50.000    21124844.024 8  86502759.359 8        50.000  
R06  22940649.912 6 122415700.873 6        38.000                                                  
R07  20770540.879 8 111186318.095 8        50.000    20770539.306 8  86478250.274 8        48.000  
R08  21735424.107 7 116392213.963 7        47.000    21735422.285 7  90527276.155 7        47.000  
R12  23269629.954 7 124302176.617 7        46.000    23269631.169 7  96679466.134 7        42.000  
R13  21347205.663 6 113992875.733 6        38.000    21347203.912 6  88661124.186 6        39.000  
R14  22363605.428 8 119210589.987 8        48.000    22363602.176 7  92719347.775 7        43.000  
R22  20866067.067 6 111384498.254 6        36.000    20866067.192 6  86632391.901 6        36.000  
R23  20425575.852 8 109263074.351 8        49.000                                                  
R24  23278570.326 8 124480979.444 8        48.000    23278570.273 6  96818543.495 6        41.000  
> 2021 11 07 00 45  0.0000000  0 20                     
G05  22312307.752 7 117251982.775 7        45.000    22312294.958 7  91365183.498 7        45.000  
G10  24961254.620 7 131172279.905 7        43.000    24961244.828 7 102212160.361 7        43.000  
G13  24391702.886 6 128179269.284 6        38.000    24391689.341 5  99879948.672 5        30.000  
G15  23516310.547 7 123579035.621 7        43.000    23516296.466 7  96295352.277 7        43.000  
G16  23559812.201 6 123807658.536 6        39.000    23559796.637 6  96473498.802 6        37.000  
G18  20392913.065 8 107165487.070 8        49.000    20392901.236 8  83505577.495 8        49.000  
G20  24831740.084 6 130491679.333 6        39.000    24831727.737 6 101681831.463 6        36.000  
G23  22133595.311 7 116312825.980 7        47.000    22133584.429 7  90633374.228 7        46.000  
G25  24377058.167 7 128102305.724 7        42.000    24377049.733 7  99819978.576 7        42.000  
G26  21704468.884 7 114057762.123 7        47.000    21704460.897 7  88876175.675 7        47.000  
G29  21143815.834 8 111111512.847 8        50.000    21143803.397 8  86580395.114 8        50.000  
R06  22974224.788 5 122594873.903 5        34.000                                                  
R07  20764835.586 8 111155776.930 8        51.000    20764833.209 8  86454496.065 8        48.000  
R08  21693784.334 8 116169235.036 8        48.000    21693782.494 7  90353848.167 7        47.000  
R12  23317525.047 7 124558023.418 7        43.000    23317525.386 6  96878458.065 6        41.000  
R13  21372958.732 6 114130394.070 6        38.000    21372957.195 6  88768082.860 6        40.000  
R14  22345042.373 7 119111642.222 7        47.000    22345040.925 7  92642388.400 7        44.000  
R22  20887200.260 6 111497311.148 6        37.000    20887200.689 6  86720135.263 6        36.000  
R23  20407932.426 8 109168696.930 8        48.000                                                  
R24  23245568.349 7 124304500.732 7        47.000    23245566.455 6  96681282.400 6        39.000  
> 2021 11 07 00 46  0.0000000  0 20                     
G05  22342366.451 7 117409944.826 7        47.000    22342354.836 7  91488270.866 7        47.000  
G10  24919010.356 7 130950287.632 7        43.000    24919001.296 7 102039179.344 7        43.000  
G13  24369885.327 6 128064621.256 6        39.000    24369873.283 6  99790612.669 6        36.000  
G15  23486490.436 7 123422335.460 7        43.000    23486478.732 7  96173248.264 7        44.000  
G16  23529055.806 6 123646027.591 6        41.000    23529039.403 6  96347552.629 6        38.000  
G18  20385173.652 8 107124818.825 8        49.000    20385162.359 8  83473887.979 8        49.000  
G20  24870962.197 6 130697786.911 6        39.000    24870947.330 5 101842434.760 5        35.000  
G23  22097919.449 7 116125346.007 7        47.000    22097907.835 7  90487285.944 7        45.000  
G25  24420804.323 7 128332192.990 7        44.000    24420796.032 7  99999111.535 7        44.000  
G26  21701566.079 7 114042502.299 7        47.000    21701556.930 7  88864284.894 7        47.000  
G29  21163046.798 8 111212572.272 8        50.000    21163034.218 8  86659142.707 8        50.000  
R06  23008211.509 6 122776236.630 6        36.000                                                  
R07  20759737.893 8 111128488.898 8        51.000    20759735.588 8  86433272.052 8        48.000  
R08  21652435.576 7 115947814.955 7        47.000    21652433.610 8  90181632.596 8        48.000  
R12  23365460.648 7 124814081.886 7        44.000    23365460.988 6  97077614.653 6        41.000  
R13  21399191.869 6 114270477.396 6        39.000    21399189.296 6  88877036.484 6        39.000  
R14  22327023.714 7 119015596.585 7        47.000    22327023.214 7  92567686.235 7        44.000  
R22  20908492.005 6 111610962.190 6        40.000    20908491.416 6  86808530.502 6        37.000  
R23  20390457.022 8 109075218.639 8        49.000                                                  
R24  23212598.305 7 124128196.399 7        46.000    23212596.946 6  96544156.872 6        41.000  
> 2021 11 07 00 47  0.0000000  0 20                     
G05  22372735.677 7 117569535.951 7        47.000    22372723.580 7  91612627.554 7        47.000  
G10  24876804.188 7 130728499.039 7        43.000    24876797.112 7 101866357.089 7        43.000  
G13  24348359.033 6 127951502.891 6        40.000    24348347.561 5  99702468.539 5        35.000  
G15  23456904.784 6 123266857.460 6        41.000    23456892.186 6  96052096.612 6        41.000  
G16  23498608.564 7 123486023.986 7        44.000    23498593.161 6  96222874.511 6        39.000  
G18  20377692.589 8 107085506.154 8        49.000    20377681.313 8  83443254.734 8        49.000  
G20  24910271.420 6 130904359.767 6        36.000    24910257.858 5 102003400.715 5        35.000  
G23  22062491.628 7 115939172.604 7        47.000    22062479.870 7  90342215.814 7        45.000  
G25  24464566.132 6 128562158.394 6        40.000    24464556.965 6 100178305.297 6        40.000  
G26  21699105.997 7 114029575.733 7        47.000    21699096.419 8  88854212.255 8        48.000  
G29  21182550.658 8 111315066.129 8        50.000    21182538.435 8  86739008.052 8        50.000  
R06  23042607.037 6 122959768.425 6        37.000                                                  
R07  20755251.088 8 111104469.879 8        51.000    20755248.819 8  86414590.597 8        48.000  
R08  21611386.463 8 115727998.333 8        48.000    21611384.712 7  90010664.142 7        47.000  
R12  23413430.898 7 125070327.627 7        47.000    23413430.898 7  97276916.919 7        44.000  
R13  21425901.788 6 114413105.419 6        38.000    21425899.715 6  88987969.358 6        39.000  
R14  22309554.475 7 118922478.192 7        46.000    22309554.332 7  92495260.827 7        44.000  
R22  20929941.891 6 111725458.225 6        39.000    20929940.605 6  86897582.964 6        36.000  
R23  20373153.267 8 108982652.383 8        50.000                                                  
R24  23179662.872 7 123952077.705 7        45.000    23179662.640 6  96407175.734 6        41.000  
> 2021 11 07 00 48  0.0000000  0 20                     
G05  22403410.946 7 117730737.167 7        45.000    22403399.028 7  91738238.852 7        45.000  
G10  24834641.442 5 130506933.335 5        35.000    24834634.830 6 101693708.420 6        36.000  
G13  24327129.740 7 127839938.000 7        43.000    24327117.822 6  99615534.924 6        37.000  
G15  23427554.806 6 123112629.832 6        40.000    23427543.227 6  95931919.263 6        40.000  
G16  23468473.779 7 123327671.019 7        44.000    23468459.376 6  96099482.571 6        39.000  
G18  20370470.073 8 107047548.606 8        49.000    20370457.868 8  83413677.437 8        49.000  
G20  24949663.181 5 131111382.905 5        35.000    24949654.014 5 102164717.549 5        34.000  
G23  22027316.688 7 115754325.967 7        47.000    22027305.020 7  90198179.499 7        46.000  
G25  24508338.055 7 128792184.025 7        42.000    24508329.370 6 100357546.030 6        41.000  
G26  21697090.657 8 114018985.735 8        48.000    21697080.222 7  88845960.317 7        47.000  
G29  21202327.824 8 111418994.937 8        50.000    21202315.620 8  86819991.525 8        50.000  
R06  23077400.812 5 123145441.679 5        32.000                                                  
R07  20751376.119 8 111083728.662 8        50.000    20751374.243 8  86398458.530 8        48.000  
R08  21570643.536 8 115509822.575 8        48.000    21570641.374 7  89840971.939 7        47.000  
R12  23461429.310 7 125326729.219 7        45.000    23461430.078 7  97476340.378 7        42.000  
R13  21453083.180 6 114558251.321 6        39.000    21453080.482 6  89100860.599 6        39.000  
R14  22292638.228 7 118832304.444 7        46.000    22292637.835 7  92425125.692 7        44.000  
R22  20951549.310 6 111840800.105 6        40.000    20951548.292 6  86987293.296 6        36.000  
R23  20356021.002 8 108891004.375 8        50.000                                                  
R24  23146763.892 7 123776149.418 7        45.000    23146762.748 6  96270342.689 6        41.000  
> 2021 11 07 00 49  0.0000000  0 20                     
G05  22434385.843 7 117893511.760 7        46.000    22434374.103 7  91865076.184 7        46.000  
G10  24792522.832 7 130285592.451 7        44.000    24792514.309 7 101521235.026 7        44.000  
G13  24306196.680 7 127729933.745 7        42.000    24306184.779 6  99529817.357 6        38.000  
G15  23398446.597 6 122959663.465 6        38.000    23398434.893 6  95812724.723 6        38.000  
G16  23438655.490 7 123170973.742 7        46.000    23438639.086 6  95977380.863 6        38.000  
G18  20363501.404 8 107010928.606 8        49.000    20363489.485 8  83385142.411 8        49.000  
G20  24989137.175 6 131318822.955 6        36.000    24989126.436 5 102326359.158 5        31.000  
G23  21992394.756 7 115570809.034 7        47.000    21992382.820 7  90055179.344 7        47.000  
G25  24552115.463 7 129022235.015 7        43.000    24552107.405 7 100536806.510 7        43.000  
G26  21695517.665 7 114010718.058 7        47.000    21695506.568 7  88839517.970 7        47.000  
G29  21222374.652 8 111524341.847 8        49.000    21222362.198 8  86902080.022 8        49.000  
R06  23112590.011 6 123333211.432 6        36.000                                                  
R07  20748111.216 8 111066254.885 8        50.000    20748109.376 8  86384867.852 8        48.000  
R08  21530211.012 8 115293307.649 8        48.000    21530209.064 7  89672571.499 7        46.000  
R12  23509449.307 7 125583238.068 7        46.000    23509449.468 7  97675847.227 7        42.000  
R13  21480726.756 6 114705869.625 6        38.000    21480725.487 6  89215674.756 6        39.000  
R14  22276274.957 7 118745075.716 7        45.000    22276273.938 7  92357281.164 7        43.000  
R22  20973312.386 6 111956970.964 6        40.000    20973310.653 5  87077648.423 5        35.000  
R23  20339057.724 8 108800263.877 8        50.000                                                  
R24  23113896.648 7 123600398.159 7        44.000    23113897.523 7  96133647.311 7        43.000  
> 2021 11 07 00 50  0.0000000  0 19                     
G05  22465657.849 7 118057840.739 7        47.000    22465644.965 7  91993124.717 7        47.000  
G10  24750450.790 7 130064495.434 7        45.000    24750440.444 7 101348951.650 7        45.000  
G13  24285565.231 7 127621514.077 7        44.000    24285553.223 6  99445334.547 6        37.000  
G15  23369582.871 6 122807987.032 6        41.000    23369571.614 6  95694535.373 6        41.000  
G16  23409155.663 7 123015954.423 7        45.000    23409141.350 6  95856586.605 6        40.000  
G18  20356787.047 8 106975645.737 8        49.000    20356775.629 8  83357649.283 8        49.000  
G23  21957729.477 8 115388641.812 8        48.000    21957717.827 7  89913230.891 7        47.000  
G25  24595893.498 6 129252293.679 6        41.000    24595885.850 6 100716073.036 6        40.000  
G26  21694387.056 7 114004775.231 7        47.000    21694375.459 7  88834887.211 7        47.000  
G29  21242691.660 8 111631107.720 8        50.000    21242678.741 8  86985274.202 8        50.000  
R06  23148166.342 5 123523049.741 5        35.000                                                  
R07  20745458.649 8 111052055.994 8        51.000    20745457.166 8  86373824.312 8        48.000  
R08  21490095.449 8 115078491.143 8        48.000    21490093.322 7  89505492.029 7        47.000  
R12  23557482.384 7 125839823.669 7        45.000    23557482.223 7  97875413.823 7        42.000  
R13  21508828.957 6 114855930.655 6        37.000    21508826.402 6  89332388.895 6        39.000  
R14  22260466.786 7 118660808.414 7        44.000    22260465.535 7  92291739.938 7        43.000  
R22  20995230.369 6 112073971.318 6        40.000    20995228.993 5  87168648.698 5        35.000  
R23  20322265.685 8 108710437.522 8        50.000                                                  
R24  23081063.408 7 123424828.099 7        44.000    23081065.284 7  95997092.862 7        43.000  
> 2021 11 07 00 51  0.0000000  0 19                     
G05  22497223.067 7 118223715.572 7        46.000    22497209.808 7  92122377.837 7        46.000  
G10  24708429.549 7 129843672.163 7        42.000    24708419.524 7 101176881.567 7        42.000  
G13  24265241.844 7 127514713.421 7        44.000    24265229.622 6  99362113.309 6        36.000  
G15  23340973.064 6 122657638.502 6        40.000    23340960.860 6  95577380.673 6        39.000  
G16  23379981.964 7 122862646.261 7        44.000    23379969.026 6  95737125.692 6        41.000  
G18  20350329.915 8 106941709.895 8        49.000    20350317.889 8  83331205.808 8        50.000  
G23  21923326.748 8 115207854.615 8        48.000    21923315.258 8  89772357.764 8        48.000  
G25  24639673.408 6 129482352.989 6        41.000    24639664.795 6 100895339.957 6        41.000  
G26  21693700.350 7 114001169.897 7        47.000    21693689.789 7  88832077.867 7        47.000  
G29  21263280.348 8 111739303.008 8        49.000    21263267.786 8  87069582.196 8        49.000  
R06  23184126.107 6 123714939.077 6        38.000                                                  
R07  20743421.670 8 111041149.284 8        51.000    20743420.062 8  86365341.331 8        49.000  
R08  21450306.084 8 114865421.259 8        48.000    21450304.261 7  89339771.057 7        46.000  
R12  23605524.968 7 126096465.803 7        46.000    23605525.808 7  98075024.323 7        43.000  
R13  21537384.406 6 115008418.109 6        36.000    21537382.673 6  89450990.200 6        40.000  
R14  22245217.880 7 118579529.219 7        43.000    22245217.612 7  92228522.811 7        42.000  
R22  21017305.492 6 112191812.890 6        39.000    21017304.348 5  87260303.239 5        34.000  
R23  20305647.744 8 108621542.727 8        49.000                                                  
R24  23048267.532 7 123249455.163 7        43.000    23048269.284 7  95860691.790 7        44.000  
> 2021 11 07 00 52  0.0000000  0 19                     
G05  22529076.119 7 118391108.608 7        47.000    22529063.396 7  92252814.025 7        47.000  
G10  24666461.879 7 129623134.185 7        45.000    24666453.641 7 101005033.817 7        45.000  
G13  24245229.504 7 127409547.937 7        44.000    24245217.353 6  99280166.197 6        38.000  
G15  23312619.285 7 122508638.376 7        42.000    23312607.313 7  95461276.744 7        42.000  
G16  23351137.429 7 122711064.091 7        44.000    23351124.170 6  95619009.734 6        41.000  
G18  20344126.469 8 106909113.249 8        49.000    20344114.854 8  83305805.822 8        49.000  
G23  21889189.373 8 115028459.884 8        48.000    21889177.508 7  89632569.712 7        47.000  
G25  24683446.868 6 129712387.931 6        41.000    24683439.363 6 101074587.938 6        41.000  
G26  21693457.474 7 113999896.628 7        47.000    21693448.539 7  88831085.702 7        47.000  
G29  21284140.074 8 111848920.112 8        50.000    21284127.566 8  87154998.103 8        50.000  
R06  23220462.890 6 123908843.910 6        37.000                                                  
R07  20741999.349 8 111033532.642 8        51.000    20741997.688 8  86359417.281 8        49.000  
R08  21410848.547 8 114654127.346 8        48.000    21410846.403 7  89175431.406 7        47.000  
R12  23653572.448 7 126353126.643 7        44.000    23653572.966 6  98274649.460 6        41.000  
R13  21566387.439 6 115163294.533 6        38.000    21566386.313 6  89571449.618 6        40.000  
R14  22230530.937 7 118501246.158 7        43.000    22230531.169 7  92167636.005 7        42.000  
R22  21039537.862 6 112310488.990 6        39.000    21039536.093 5  87352606.876 5        34.000  
R23  20289203.311 8 108533578.913 8        49.000                                                  
R24  23015508.396 7 123074276.745 7        43.000    23015509.611 7  95724442.021 7        43.000  
> 2021 11 07 00 53  0.0000000  0 19                     
G05  22561215.111 7 118560001.224 7        47.000    22561202.478 7  92384418.672 7        46.000  
G10  24624552.319 7 129402900.776 7        44.000    24624543.277 7 100833423.352 7        44.000  
G13  24225532.587 7 127306040.850 7        43.000    24225520.704 6  99199511.365 6        37.000  
G15  23284527.108 7 122361014.314 7        44.000    23284515.047 7  95346245.050 7        44.000  
G16  23322623.829 6 122561229.757 6        41.000    23322611.982 6  95502255.724 6        41.000  
G18  20338178.354 8 106877855.182 8        50.000    20338166.471 8  83281448.914 8        50.000  
G23  21855320.105 8 114850477.212 8        49.000    21855308.633 7  89493881.955 7        47.000  
G25  24727213.716 6 129942381.060 6        41.000    24727205.210 6 101253803.368 6        41.000  
G26  21693658.358 7 114000956.795 7        47.000    21693651.210 7  88831911.788 7        47.000  
G29  21305270.176 8 111959959.356 8        50.000    21305258.043 8  87241522.173 8        49.000  
R06  23257173.994 6 124104735.797 6        37.000                                                  
R07  20741192.206 8 111029211.122 8        50.000    20741190.365 8  86356056.110 8        48.000  
R08  21371729.593 7 114444646.742 7        46.000    21371727.485 7  89012502.087 7        47.000  
R12  23701618.963 7 126609776.109 7        44.000    23701618.766 7  98474265.683 7        43.000  
R13  21595833.409 5 115320531.754 5        35.000    21595832.658 6  89693745.171 6        40.000  
R14  22216409.244 7 118425974.399 7        42.000    22216410.871 7  92109091.301 7        42.000  
R22  21061926.158 6 112430000.406 6        38.000    21061924.657 5  87445560.206 5        35.000  
R23  20272934.727 8 108446552.929 8        49.000                                                  
R24  22982787.016 7 122899297.088 7        45.000    22982787.141 7  95588346.818 7        43.000  
> 2021 11 07 00 54  0.0000000  0 19                     
G05  22593632.646 7 118730359.932 7        45.000    22593621.264 7  92517165.753 7        45.000  
G10  24582702.817 7 129182978.008 7        43.000    24582692.953 7 100662054.977 7        43.000  
G13  24206153.935 7 127204203.189 7        43.000    24206141.641 6  99120157.398 6        37.000  
G15  23256700.268 7 122214781.235 7        44.000    23256688.368 7  95232297.213 7        44.000  
G16  23294446.918 7 122413152.525 7        43.000    23294433.569 6  95386870.911 6        41.000  
G18  20332481.852 8 106847921.968 8        50.000    20332470.291 8  83258124.348 8        50.000  
G23  21821720.731 8 114673912.982 8        48.000    21821709.402 7  89356299.455 7        47.000  
G25  24770965.840 7 130172301.969 7        44.000    24770957.549 7 101432962.493 7        44.000  
G26  21694301.374 7 114004338.403 7        46.000    21694295.102 7  88834546.791 7        46.000  
G29  21326668.492 8 112072407.778 8        50.000    21326656.394 8  87329144.296 8        50.000  
R06  23294248.303 5 124302572.897 5        34.000                                                  
R07  20740998.648 8 111028175.873 8        50.000    20740996.736 8  86355250.943 8        48.000  
R08  21332953.134 7 114237002.703 7        47.000    21332950.633 7  88851001.154 7        46.000  
R12  23749653.112 7 126866370.630 7        46.000    23749654.506 7  98673839.186 7        42.000  
R13  21625713.453 6 115480085.494 6        38.000    21625711.594 6  89817842.520 6        40.000  
R14  22202854.250 7 118353714.837 7        44.000    22202855.537 7  92052889.424 7        42.000  
R22  21084468.502 6 112550334.955 6        37.000    21084467.680 5  87539153.697 5        35.000  
R23  20256840.562 8 108360458.754 8        50.000                                                  
R24  22950101.660 7 122724508.326 7        47.000    22950100.124 7  95452400.077 7        43.000  
> 2021 11 07 00 55  0.0000000  0 19                     
G05  22626327.776 7 118902177.078 7        45.000    22626316.697 7  92651049.244 7        45.000  
G10  24540918.019 7 128963396.114 7        44.000    24540906.744 7 100490952.288 7        44.000  
G13  24187099.088 7 127104068.414 7        42.000    24187086.794 5  99042130.329 5        34.000  
G15  23229144.555 7 122069977.812 7        46.000    23229132.672 7  95119463.399 7        46.000  
G16  23266608.695 7 122266865.330 7        44.000    23266596.080 6  95272880.941 6        39.000  
G18  20327039.591 8 106819324.137 8        50.000    20327028.441 8  83235840.342 8        50.000  
G23  21788397.398 8 114498797.672 8        48.000    21788386.140 8  89219845.998 8        48.000  
G25  24814703.401 7 130402144.516 7        42.000    24814695.681 6 101612060.525 6        41.000  
G26  21695389.008 7 114010053.241 7        47.000    21695382.897 7  88838999.873 7        47.000  
G29  21348336.576 8 112186275.718 8        50.000    21348324.765 8  87417872.573 8        50.000  
R06  23331682.548 5 124502337.601 5        32.000                                                  
R07  20741421.608 8 111030441.846 8        50.000    20741419.928 8  86357013.389 8        48.000  
R08  21294528.963 7 114031243.520 7        47.000    21294527.158 7  88690966.327 7        46.000  
R12  23797674.950 7 127122891.673 7        43.000    23797675.325 6  98873355.536 6        41.000  
R13  21656022.764 6 115641938.981 6        39.000    21656022.335 6  89943728.500 6        40.000  
R14  22189868.867 7 118284492.538 7        45.000    22189870.118 7  91999049.842 7        43.000  
R22  21107168.183 6 112671505.081 6        38.000    21107166.629 5  87633397.151 5        35.000  
R23  20240923.927 8 108275314.942 8        50.000                                                  
R24  22917454.241 8 122549927.032 8        48.000    22917452.704 7  95316614.638 7        44.000  
> 2021 11 07 00 56  0.0000000  0 19                     
G05  22659296.588 7 119075426.687 7        45.000    22659284.723 7  92786048.907 7        45.000  
G10  24499198.943 7 128744168.103 7        43.000    24499190.670 7 100320125.353 7        43.000  
G13  24168369.743 6 127005653.171 6        41.000    24168359.004 6  98965443.181 6        37.000  
G15  23201866.009 7 121926625.930 7        47.000    23201853.625 7  95007760.682 7        47.000  
G16  23239114.166 7 122122383.677 7        42.000    23239102.229 6  95160297.817 6        41.000  
G18  20321850.284 8 106792054.897 8        49.000    20321839.259 8  83214591.602 8        49.000  
G23  21755351.695 7 114325144.406 7        47.000    21755341.063 7  89084531.808 7        47.000  
G25  24858421.162 7 130631885.248 7        42.000    24858413.139 7 101791079.363 7        42.000  
G26  21696919.901 7 114018095.611 7        47.000    21696913.540 7  88845266.636 7        47.000  
G29  21370273.571 8 112301557.646 8        48.000    21370262.207 8  87507702.628 8        48.000  
R06  23369474.281 5 124703995.339 5        35.000                                                  
R07  20742460.960 8 111036005.502 8        51.000    20742459.084 8  86361340.696 8        49.000  
R08  21256462.512 7 113827400.082 7        47.000    21256460.314 7  88532421.470 7        46.000  
R12  23845676.453 7 127379303.255 7        46.000    23845675.345 6  99072786.787 6        39.000  
R13  21686756.590 6 115806053.500 6        37.000    21686755.250 6  90071373.087 6        40.000  
R14  22177455.150 7 118218314.437 7        46.000    22177455.864 7  91947578.007 7        43.000  
R22  21130022.985 6 112793505.522 6        39.000    21130021.234 5  87728286.366 5        35.000  
R23  20225185.070 8 108191122.441 8        50.000                                                  
R24  22884845.775 8 122375551.937 8        48.000    22884843.774 7  95180989.622 7        44.000  
> 2021 11 07 00 57  0.0000000  0 19                     
G05  22692533.042 7 119250082.478 7        45.000    22692520.838 7  92922144.299 7        45.000  
G10  24457551.379 7 128525305.895 7        43.000    24457543.463 7 100149583.331 7        43.000  
G13  24149971.243 6 126908973.248 6        40.000    24149961.076 6  98890108.227 6        36.000  
G15  23174866.612 7 121784744.853 7        45.000    23174855.033 7  94897203.990 7        45.000  
G16  23211966.402 7 121979721.796 7        43.000    23211954.341 6  95049132.751 6        39.000  
G18  20316912.286 8 106766106.087 8        49.000    20316901.279 8  83194371.761 8        49.000  
G23  21722586.769 8 114152964.841 8        48.000    21722576.298 8  88950365.932 8        48.000  
G25  24902114.855 6 130861499.924 6        41.000    24902107.922 6 101969999.824 6        41.000  
G26  21698892.212 7 114028458.025 7        47.000    21698885.493 7  88853341.216 7        47.000  
G29  21392478.459 8 112418244.925 8        49.000    21392466.326 8  87598627.763 8        49.000  
R06  23407612.137 5 124907509.374 5        34.000                                                  
R07  20744115.203 8 111044861.848 8        51.000    20744113.523 8  86368228.976 8        49.000  
R08  21218759.553 8 113625500.724 8        48.000    21218756.944 7  88375388.684 7        47.000  
R12  23893649.151 7 127635568.608 7        44.000    23893648.793 7  99272104.159 7        42.000  
R13  21717906.872 6 115972393.028 6        36.000    21717905.675 6  90200748.208 6        40.000  
R14  22165612.741 7 118155186.025 7        47.000    22165612.794 7  91898478.137 7        43.000  
R22  21153031.854 6 112916329.943 6        37.000    21153030.317 5  87823816.464 5        35.000  
R23  20209624.403 8 108107881.496 8        50.000                                                  
R24  22852275.746 8 122201380.676 8        49.000    22852272.637 7  95045523.171 7        45.000  
> 2021 11 07 00 58  0.0000000  0 20                     
G05  22726031.671 7 119426122.521 7        47.000    22726019.717 7  93059318.383 7        47.000  
G10  24415976.184 7 128306827.310 7        44.000    24415967.643 7  99979340.347 7        44.000  
G13  24131908.252 6 126814049.444 6        41.000    24131897.959 6  98816141.701 6        39.000  
G15  23148151.386 7 121644361.046 7        45.000    23148141.040 7  94787814.029 7        45.000  
G16  23185169.229 7 121838899.887 7        45.000    23185156.381 6  94939401.405 6        39.000  
G18  20312225.474 8 106741475.826 8        49.000    20312214.127 8  83175179.355 8        49.000  
G23  21690105.763 8 113982276.712 8        48.000    21690095.203 7  88817362.225 7        47.000  
G25  24945783.388 7 131090970.192 7        42.000    24945774.417 7 102148807.794 7        42.000  
G26  21701305.817 8 114041138.927 8        48.000    21701298.312 8  88863222.410 8        48.000  
G29  21414950.417 8 112536336.223 8        48.000    21414938.266 8  87690646.929 8        48.000  
R01  24065362.099 7 128643151.700 7        44.000    24065362.367 5 100055787.448 5        35.000  
R06  23446094.204 6 125112849.889 6        37.000                                                  
R07  20746384.783 8 111057011.050 8        50.000    20746383.657 8  86377678.363 8        49.000  
R08  21181426.142 7 113425581.021 7        47.000    21181423.605 7  88219895.631 7        46.000  
R12  23941589.130 7 127891657.365 7        45.000    23941589.845 6  99471284.333 6        38.000  
R13  21749467.319 6 116140924.701 6        37.000    21749466.497 6  90331828.393 6        41.000  
R14  22154344.052 7 118095117.947 7        46.000    22154343.534 7  91851758.533 7        43.000  
R22  21176195.236 6 113039978.499 6        39.000    21176193.967 5  87919987.513 5        35.000  
R23  20194241.891 8 108025598.254 8        49.000                                                  
R24  22819743.582 8 122027417.519 8        49.000    22819740.330 7  94910218.570 7        45.000  
> 2021 11 07 00 59  0.0000000  0 20                     
G05  22759792.224 8 119603527.775 8        48.000    22759778.589 8  93197556.219 8        48.000  
G10  24374477.952 7 128088750.741 7        46.000    24374467.766 7  99809410.585 7        46.000  
G13  24114184.129 6 126720902.888 6        41.000    24114173.247 6  98743560.043 6        37.000  
G15  23121727.747 7 121505501.151 7        45.000    23121716.150 7  94679611.529 7        45.000  
G16  23158725.362 7 121699938.364 7        44.000    23158712.747 6  94831119.703 6        41.000  
G18  20307789.507 8 106718162.561 8        50.000    20307777.678 8  83157013.197 8        50.000  
G23  21657912.717 8 113813098.040 8        48.000    21657901.388 7  88685534.709 7        47.000  
G25  24989417.898 6 131320278.427 6        39.000    24989410.053 6 102327489.521 6        39.000  
G26  21704160.322 8 114056136.720 8        48.000    21704151.834 8  88874908.993 8        48.000  
G29  21437688.946 8 112655829.357 8        48.000    21437677.617 8  87783758.460 8        48.000  
R01  24014359.726 6 128370518.303 6        41.000    24014360.297 5  99843739.293 5        35.000  
R06  23484912.101 6 125319986.551 6        38.000                                                  
R07  20749269.719 8 111072453.265 8        50.000    20749268.039 8  86389688.993 8        48.000  
R08  21144468.607 8 113227676.093 8        49.000    21144465.498 7  88065969.606 7        46.000  
R12  23989489.066 7 128147539.221 7        42.000    23989491.496 7  99670303.568 7        42.000  
R13  21781431.892 6 116311616.656 6        38.000    21781431.910 6  90464588.768 6        41.000  
R14  22143650.729 7 118038120.369 7        46.000    22143651.211 7  91807427.074 7        43.000  
R22  21199513.364 6 113164451.847 6        37.000    21199512.024 5  88016800.089 5        35.000  
R23  20179040.069 8 107944279.813 8        50.000                                                  
R24  22787251.390 8 121853667.488 8        48.000    22787248.192 7  94775079.730 7        45.000  
> 2021 11 07 01 00  0.0000000  0 20                     
G05  22793806.391 7 119782278.492 7        44.000    22793793.597 7  93336842.514 7        44.000  
G10  24333059.647 7 127871096.158 7        45.000    24333050.337 7  99639809.668 7        45.000  
G13  24096801.572 6 126629557.144 6        40.000    24096790.476 6  98672381.628 6        38.000  
G15  23095599.126 7 121368192.699 7        46.000    23095587.618 7  94572617.930 7        46.000  
G16  23132639.609 7 121562859.030 7        44.000    23132627.708 6  94724304.654 6        39.000  
G18  20303603.813 8 106696166.255 8        50.000    20303591.913 8  83139873.248 8        50.000  
G23  21626010.257 8 113645448.219 8        48.000    21625999.196 8  88554898.528 8        48.000  
G25  25033020.190 6 131549408.485 6        40.000    25033012.596 6 102506032.437 6        41.000  
G26  21707455.048 8 114073451.087 8        48.000    21707446.114 8  88888400.705 8        48.000  
G29  21460694.955 8 112776725.325 8        48.000    21460683.412 8  87877963.087 8        48.000  
R01  23963326.064 7 128097715.069 7        42.000    23963327.833 6  99631558.993 6        37.000  
R06  23524059.520 6 125528891.112 6        37.000                                                  
R07  20752769.492 8 111091188.961 8        50.000    20752767.312 7  86404261.210 7        47.000  
R08  21107894.577 8 113031823.391 8        48.000    21107892.075 7  87913639.806 7        47.000  
R12  24037348.188 7 128403186.277 7        45.000    24037350.064 7  99869140.149 7        42.000  
R13  21813796.248 6 116484439.536 6        36.000    21813796.248 6  90599006.508 6        40.000  
R14  22133536.379 7 117984205.433 7        46.000    22133536.379 7  91765493.246 7        43.000  
R22  21222986.595 6 113289752.076 6        39.000    21222985.166 5  88114255.806 5        34.000  
R23  20164020.923 8 107863934.645 8        50.000                                                  
R24  22754798.654 7 121680137.222 7        44.000    22754797.599 7  94640111.836 7        44.000  
> 2021 11 07 01 01  0.0000000  0 19                     
G05  22828071.869 7 119962348.073 7        44.000    22828059.914 7  93477156.471 7        44.000  
G10  24291724.219 7 127653875.271 7        46.000    24291713.944 7  99470546.635 7        46.000  
G13  24079764.120 6 126540025.985 6        39.000    24079752.827 5  98602617.170 5        34.000  
G15  23069769.328 7 121232455.300 7        44.000    23069757.731 7  94466848.576 7        44.000  
G16  23106914.845 7 121427675.077 7        44.000    23106902.247 6  94618966.507 6        39.000  
G18  20299667.160 8 106675478.793 8        50.000    20299655.206 8  83123753.164 8        50.000  
G23  21594400.474 8 113479338.337 8        48.000    21594389.038 8  88425462.293 8        48.000  
G25  25076584.618 6 131778336.336 6        41.000    25076575.755 6 102684417.711 6        41.000  
G26  21711188.512 8 114093073.095 8        48.000    21711179.488 8  88903690.584 8        48.000  
G29  21483966.195 8 112899015.464 8        48.000    21483954.437 8  87973254.082 8        48.000  
R01  23912265.027 7 127824766.546 7        42.000    23912267.368 5  99419265.692 5        34.000  
R06  23563532.442 6 125739527.033 6        37.000                                                  
R07  20756883.245 8 111113210.426 8        51.000    20756881.601 8  86421389.002 8        48.000  
R08  21071709.144 7 112838050.753 7        46.000    21071706.928 8  87762927.759 8        48.000  
R13  21846551.740 6 116659352.597 6        36.000    21846550.936 6  90735049.986 6        39.000  
R14  22124001.075 7 117933375.526 7        47.000    22124001.272 7  91725958.860 7        43.000  
R22  21246613.428 6 113415872.720 6        39.000    21246611.534 5  88212349.641 5        34.000  
R23  20149182.773 8 107784563.608 8        49.000                                                  
R24  22722386.390 7 121506824.801 7        46.000    22722387.409 7  94505313.365 7        45.000  
> 2021 11 07 01 02  0.0000000  0 19                     
G05  22862586.405 7 120143720.100 7        44.000    22862574.200 7  93618485.310 7        44.000  
G10  24250474.580 7 127437110.345 7        44.000    24250465.449 7  99301638.949 7        44.000  
G13  24063077.204 6 126452334.125 6        40.000    24063065.286 5  98534285.879 5        32.000  
G15  23044243.035 7 121098318.896 7        44.000    23044232.332 7  94362326.762 7        44.000  
G16  23081554.895 7 121294411.343 7        44.000    23081542.173 6  94515124.651 6        40.000  
G18  20295979.798 8 106656102.568 8        50.000    20295968.023 8  83108654.818 8        50.000  
G23  21563087.870 8 113314789.943 8        49.000    21563076.666 7  88297242.829 7        47.000  
G25  25120107.143 6 132007048.504 6        39.000    25120098.387 6 102862634.924 6        38.000  
G26  21715361.233 8 114115004.115 8        48.000    21715351.995 8  88920779.692 8        48.000  
G29  21507503.004 8 113022701.403 8        49.000    21507491.085 8  88069632.728 8        49.000  
R01  23861183.584 6 127551708.061 6        40.000    23861185.496 5  99206886.914 5        35.000  
R06  23603324.398 6 125951867.857 6        36.000                                                  
R07  20761611.496 8 111138520.037 8        51.000    20761609.941 8  86441074.276 8        48.000  
R08  21035918.492 8 112646396.749 8        48.000    21035916.276 8  87613863.535 8        48.000  
R13  21879693.095 6 116836329.065 6        36.000    21879692.934 6  90872698.318 6        40.000  
R14  22115047.444 8 117885643.525 8        48.000    22115046.729 7  91688833.971 7        43.000  
R22  21270395.043 6 113542819.101 6        38.000    21270392.559 5  88311085.717 5        34.000  
R23  20134529.405 8 107706177.786 8        50.000                                                  
R24  22690018.710 7 121333739.119 7        45.000    22690019.389 7  94370691.214 7        44.000  
> 2021 11 07 01 03  0.0000000  0 19                     
G05  22897342.423 7 120326368.348 7        45.000    22897331.022 7  93760808.643 7        45.000  
G10  24209314.965 7 127220813.898 7        45.000    24209305.548 7  99133096.263 7        45.000  
G13  24046742.344 6 126366496.221 6        41.000    24046730.461 5  98467399.234 5        34.000  
G15  23019025.663 7 120965804.141 7        44.000    23019015.263 7  94259068.532 7        44.000  
G16  23056565.120 7 121163081.089 7        44.000    23056551.772 6  94412789.357 6        40.000  
G18  20292540.547 8 106638030.040 8        49.000    20292529.058 8  83094572.340 8        50.000  
G23  21532074.412 8 113151814.531 8        49.000    21532062.993 8  88170249.040 8        48.000  
G25  25163582.297 6 132235521.703 6        38.000    25163575.614 6 103040666.025 6        38.000  
G26  21719972.120 7 114139235.240 7        47.000    21719962.471 7  88939661.084 7        47.000  
G29  21531303.738 8 113147776.055 8        48.000    21531291.695 8  88167093.493 8        48.000  
R01  23810086.398 6 127278564.706 6        39.000    23810089.025 5  98994442.095 5        34.000  
R06  23643429.937 6 126165877.511 6        37.000                                                  
R07  20766952.046 8 111167108.578 8        50.000    20766950.206 8  86463309.829 8        48.000  
R08  21000529.624 7 112456889.981 7        47.000    21000528.195 7  87466469.441 7        47.000  
R13  21913213.703 6 117015328.625 6        36.000    21913214.417 6  91011920.147 6        40.000  
R14  22106674.449 7 117841011.653 7        47.000    22106673.841 7  91654120.272 7        43.000  
R22  21294329.509 6 113670586.106 6        37.000    21294328.169 5  88410460.012 5        34.000  
R23  20120061.376 8 107628778.735 8        50.000                                                  
R24  22657693.379 7 121160879.861 7        44.000    22657692.540 7  94236245.215 7        43.000  
> 2021 11 07 01 04  0.0000000  0 19                     
G05  22932336.957 7 120510264.241 7        46.000    22932325.288 7  93904104.130 7        46.000  
G10  24168246.054 7 127004995.385 7        46.000    24168236.833 7  98964926.052 7        46.000  
G13  24030763.113 7 126282523.851 7        43.000    24030749.855 5  98401966.224 5        34.000  
G15  22994120.444 7 120834927.096 7        43.000    22994110.669 7  94157086.442 7        44.000  
G16  23031945.127 7 121033694.735 7        44.000    23031929.581 6  94311968.874 6        39.000  
G18  20289347.335 8 106621250.805 8        49.000    20289336.274 8  83081497.621 8        49.000  
G23  21501361.975 8 112990420.522 8        48.000    21501351.021 7  88044487.509 7        47.000  
G25  25207009.687 6 132463730.209 6        38.000    25207001.825 6 103218490.791 6        38.000  
G26  21725018.475 7 114165754.268 7        47.000    21725008.897 7  88960325.268 7        47.000  
G29  21555366.093 7 113274228.386 7        47.000    21555354.925 7  88265627.757 7        47.000  
R01  23758977.740 6 127005359.266 6        40.000    23758979.402 5  98781948.947 5        32.000  
R06  23683840.911 6 126381516.937 6        37.000                                                  
R07  20772902.824 8 111198964.149 8        51.000    20772900.680 8  86488086.412 8        48.000  
R08  20965546.330 8 112269555.996 8        48.000    20965543.543 7  87320765.254 7        47.000  
R13  21947106.379 5 117196310.599 5        35.000    21947106.218 6  91152683.920 6        40.000  
R14  22098882.643 7 117799478.098 7        47.000    22098882.232 7  91621816.400 7        43.000  
R22  21318416.755 6 113799165.379 6        37.000    21318415.380 5  88510466.135 5        34.000  
R23  20105776.057 8 107552365.138 8        50.000                                                  
R24  22625409.630 7 120988243.294 7        43.000    22625408.880 7  94101972.429 7        43.000  
> 2021 11 07 01 05  0.0000000  0 19                     
G05  22967567.362 7 120695397.228 7        45.000    22967555.157 7  94048363.591 7        45.000  
G10  24127272.902 7 126789683.266 7        45.000    24127265.004 7  98797150.338 7        45.000  
G13  24015144.515 7 126200446.857 7        42.000    24015131.399 5  98338010.096 5        34.000  
G15  22969534.455 7 120705723.798 7        44.000    22969524.091 7  94056408.568 7        44.000  
G16  23007698.257 7 120906282.165 7        43.000    23007684.623 7  94212686.393 7        42.000  
G18  20286401.859 8 106605773.245 8        50.000    20286390.834 8  83069437.184 8        50.000  
G23  21470955.634 8 112830635.069 8        48.000    21470944.966 8  87919979.396 8        48.000  
G25  25250386.401 6 132691666.745 6        40.000    25250377.038 6 103396103.699 6        39.000  
G26  21730501.799 8 114194567.552 8        48.000    21730492.275 8  88982777.180 8        48.000  
G29  21579693.464 7 113402065.257 7        47.000    21579681.438 8  88365240.874 8        48.000  
R01  23707865.348 6 126732134.009 6        37.000    23707867.224 5  98569440.416 5        33.000  
R06  23724554.747 6 126598766.057 6        37.000                                                  
R07  20779465.115 8 111234092.810 8        50.000    20779463.293 8  86515408.713 8        48.000  
R08  20930977.061 7 112084439.012 7        46.000    20930975.328 7  87176785.447 7        46.000  
R13  21981365.692 5 117379251.360 5        35.000    21981365.942 6  91294971.135 6        39.000  
R14  22091675.495 7 117761060.317 7        47.000    22091674.869 7  91591935.872 7        43.000  
R22  21342657.300 6 113928568.007 6        37.000    21342656.782 5  88611112.575 5        34.000  
R23  20091678.488 8 107476954.650 8        50.000                                                  
R24  22593171.125 7 120815845.094 7        46.000    22593169.678 7  93967884.985 7        44.000  
> 2021 11 07 01 06  0.0000000  0 19                     
G05  23003028.777 7 120881750.481 7        44.000    23003017.520 7  94193573.932 7        44.000  
G10  24086401.426 7 126574899.316 7        47.000    24086392.098 7  98629786.249 7        47.000  
G13  23999890.713 6 126120288.469 6        41.000    23999877.419 5  98275549.086 5        33.000  
G15  22945273.343 7 120578223.514 7        46.000    22945261.675 7  93957057.729 7        46.000  
G16  22983832.693 7 120780866.377 7        44.000    22983819.149 6  94114959.801 6        41.000  
G18  20283704.780 8 106591599.372 8        50.000    20283693.469 8  83058392.622 8        50.000  
G23  21440859.893 8 112672478.587 8        48.000    21440848.546 8  87796740.625 8        48.000  
G25  25293704.701 6 132919317.973 6        38.000    25293694.551 6 103573494.277 6        39.000  
G26  21736420.913 7 114225674.598 7        47.000    21736411.961 7  89007016.428 7        47.000  
G29  21604283.795 8 113531289.392 8        48.000    21604271.554 8  88465934.975 8        48.000  
R01  23656756.583 6 126458924.256 6        41.000    23656757.941 6  98356943.888 6        36.000  
R06  23765563.243 6 126817598.210 6        36.000                                                  
R07  20786638.349 8 111272493.322 8        51.000    20786637.044 8  86545275.827 8        48.000  
R08  20896828.751 7 111901576.853 7        47.000    20896826.553 8  87034559.314 8        48.000  
R13  22015986.584 6 117564122.212 6        37.000    22015986.012 6  91438759.531 6        40.000  
R14  22085054.628 7 117725767.908 7        47.000    22085054.432 7  91564486.209 7        44.000  
R22  21367055.128 6 114058798.780 6        39.000    21367053.323 5  88712403.201 5        35.000  
R23  20077771.259 8 107402558.821 8        50.000                                                  
R24  22560978.865 7 120643694.671 7        45.000    22560976.685 7  93833990.267 7        44.000  
> 2021 11 07 01 07  0.0000000  0 19                     
G05  23038715.396 7 121069286.197 7        44.000    23038704.389 7  94339705.670 7        45.000  
G10  24045629.944 7 126360643.622 7        44.000    24045620.384 7  98462833.806 7        45.000  
G13  23985002.565 6 126042050.155 6        41.000    23984989.592 6  98214584.225 6        37.000  
G15  22921336.161 7 120452432.628 7        46.000    22921324.046 7  93859038.866 7        46.000  
G16  22960346.436 7 120657447.831 7        44.000    22960333.606 6  94018789.542 6        39.000  
G18  20281252.024 8 106578709.332 8        50.000    20281240.624 8  83048348.446 8        49.000  
G23  21411073.447 8 112515949.721 8        49.000    21411061.975 7  87674770.114 7        47.000  
G25  25336966.231 6 133146648.905 6        37.000    25336955.920 6 103750635.197 6        37.000  
G26  21742772.028 7 114259052.804 7        46.000    21742763.398 7  89033025.397 7        46.000  
G29  21629134.423 8 113661879.360 8        48.000    21629122.076 8  88567693.360 8        48.000  
R01  23605651.624 6 126185743.699 6        38.000    23605654.125 5  98144470.230 5        35.000  
R06  23806859.252 5 127037964.595 5        35.000                                                  
R07  20794418.968 8 111314141.598 8        51.000    20794416.556 7  86577668.942 7        47.000  
R08  20863104.133 8 111720983.976 8        48.000    20863102.346 7  86894098.253 7        46.000  
R13  22050959.192 6 117750870.663 6        38.000    22050958.388 6  91584008.266 6        40.000  
R14  22079018.222 7 117693588.317 7        47.000    22079017.990 7  91539457.636 7        44.000  
R22  21391603.145 6 114189839.894 6        37.000    21391602.520 5  88814324.000 5        35.000  
R23  20064051.781 8 107329167.509 8        50.000                                                  
R24  22528827.865 7 120471779.117 7        45.000    22528829.205 7  93700278.176 7        44.000  
> 2021 11 07 01 08  0.0000000  0 18                     
G05  23074626.789 7 121257997.534 7        46.000    23074614.388 7  94486753.463 7        47.000  
G10  24004963.318 7 126146947.862 7        45.000    24004955.563 7  98296317.638 7        45.000  
G13  23970485.771 7 125965764.065 7        44.000    23970473.280 5  98155140.569 5        35.000  
G15  22897731.485 7 120328389.948 7        47.000    22897719.567 7  93762382.240 7        47.000  
G16  22937246.060 7 120536058.195 7        44.000    22937232.837 6  93924200.272 6        40.000  
G18  20279046.058 8 106567114.745 8        50.000    20279034.371 8  83039313.712 8        50.000  
G23  21381602.478 8 112361078.216 8        49.000    21381590.899 7  87554091.070 7        47.000  
G26  21749557.683 7 114294710.631 7        47.000    21749549.248 7  89060810.691 7        47.000  
G29  21654246.369 7 113793845.819 7        47.000    21654234.575 7  88670524.333 7        47.000  
R01  23554562.693 6 125912638.573 6        39.000    23554564.266 6  97932055.035 6        36.000  
R06  23848438.557 5 127259848.318 5        32.000                                                  
R07  20802807.742 8 111359045.522 8        51.000    20802804.668 8  86612594.210 8        48.000  
R08  20829812.678 7 111542708.370 7        47.000    20829809.801 7  86755439.460 7        46.000  
R13  22086278.335 5 117939477.066 5        35.000    22086278.871 6  91730702.119 6        40.000  
R14  22073568.814 7 117664539.867 7        47.000    22073568.831 7  91516864.406 7        44.000  
R22  21416306.694 6 114321705.822 6        39.000    21416304.639 5  88916886.396 5        34.000  
R23  20050523.430 8 107256801.863 8        49.000                                                  
R24  22496726.987 7 120300118.203 7        47.000    22496727.541 7  93566764.223 7        44.000  
> 2021 11 07 01 09  0.0000000  0 19                     
G05  23110753.504 7 121447844.551 7        46.000    23110739.870 7  94634686.217 7        46.000  
G10  23964405.317 7 125933811.323 7        45.000    23964398.009 7  98130237.218 7        44.000  
G13  23956340.777 7 125891430.159 7        44.000    23956328.251 6  98097218.084 6        37.000  
G15  22874460.782 7 120206101.526 7        47.000    22874448.684 7  93667092.581 7        47.000  
G16  22914532.923 7 120416697.349 7        45.000    22914520.326 6  93831191.804 6        40.000  
G18  20277082.234 8 106556795.070 8        50.000    20277070.548 8  83031272.426 8        50.000  
G23  21352446.112 8 112207861.565 8        49.000    21352434.676 8  87434701.523 8        48.000  
G25  25423291.409 5 133600284.967 5        34.000    25423285.209 5 104104117.692 5        34.000  
G26  21756773.194 7 114332623.983 7        47.000    21756764.778 7  89090353.545 7        47.000  
G29  21679616.665 7 113927167.510 7        46.000    21679604.996 7  88774411.359 7        46.000  
R01  23503488.469 6 125639621.550 6        40.000    23503490.613 5  97719708.399 5        30.000  
R06  23890296.064 5 127483199.937 5        34.000                                                  
R07  20811799.523 8 111407179.027 8        50.000    20811797.200 8  86650031.385 8        49.000  
R08  20796955.619 8 111366762.455 8        48.000    20796954.171 7  86618592.686 7        47.000  
R13  22121936.453 6 118129888.502 6        38.000    22121936.060 6  91878799.849 6        38.000  
R14  22068703.954 7 117638607.545 7        46.000    22068703.257 7  91496694.801 7        44.000  
R22  21441161.415 6 114454379.190 6        40.000    21441158.449 5  89020076.763 5        34.000  
R23  20037184.901 8 107185451.085 8        50.000                                                  
R24  22464670.317 7 120128698.934 7        47.000    22464670.192 7  93433438.171 7        43.000  
> 2021 11 07 01 10  0.0000000  0 19                     
G05  23147094.755 7 121638820.514 7        46.000    23147080.835 7  94783498.624 7        46.000  
G10  23923959.749 7 125721264.285 7        46.000    23923951.225 7  97964616.111 7        46.000  
G13  23942572.623 7 125819079.123 7        45.000    23942560.151 6  98040840.683 6        36.000  
G15  22851530.912 7 120085603.909 7        47.000    22851518.940 7  93573198.366 7        47.000  
G16  22892210.654 7 120299396.157 7        44.000    22892199.182 6  93739788.299 6        39.000  
G18  20275362.627 8 106547760.758 8        49.000    20275351.351 8  83024232.717 8        49.000  
G23  21323610.083 8 112056328.086 8        49.000    21323598.719 8  87316623.543 8        48.000  
G26  21764418.795 7 114372799.529 7        47.000    21764410.611 7  89121659.137 7        47.000  
G27  25014236.613 6 131450700.421 6        39.000    25014227.660 6 102429119.059 6        37.000  
G29  21705246.669 7 114061853.607 7        47.000    21705234.983 7  88879361.567 7        47.000  
R01  23452440.316 6 125366737.425 6        38.000    23452443.282 5  97507465.274 5        33.000  
R06  23932423.965 5 127708001.341 5        33.000                                                  
R07  20821395.707 8 111458547.145 8        51.000    20821393.759 8  86689984.400 8        49.000  
R08  20764542.802 7 111193192.518 7        46.000    20764540.300 7  86483593.867 7        46.000  
R13  22157928.721 6 118322083.553 6        36.000    22157927.542 6  92028284.842 6        39.000  
R14  22064427.057 7 117615807.622 7        47.000    22064426.164 7  91478961.535 7        44.000  
R22  21466169.452 6 114587872.685 6        40.000    21466166.933 5  89123905.007 5        35.000  
R23  20024040.412 8 107115135.934 8        50.000                                                  
R24  22432663.019 7 119957539.549 7        47.000    22432661.572 7  93300314.293 7        44.000  
> 2021 11 07 01 11  0.0000000  0 19                     
G05  23183647.503 7 121830900.569 7        45.000    23183632.457 7  94933171.346 7        45.000  
G10  23883628.721 7 125509320.743 7        47.000    23883618.821 7  97799465.329 7        47.000  
G13  23929184.830 7 125748725.819 7        44.000    23929172.464 6  97986019.966 6        36.000  
G15  22828945.736 8 119966917.672 8        48.000    22828933.460 8  93480715.607 8        48.000  
G16  22870283.272 7 120184167.950 7        45.000    22870271.228 6  93650000.051 6        39.000  
G18  20273886.699 8 106540005.964 8        49.000    20273875.710 8  83018190.019 8        49.000  
G23  21295096.787 8 111906489.562 8        49.000    21295085.673 8  87199866.305 8        48.000  
G26  21772492.073 7 114415227.207 7        47.000    21772485.033 7  89154719.641 7        47.000  
G27  24974657.513 6 131242726.592 6        37.000    24974650.812 5 102267061.582 5        35.000  
G29  21731135.310 8 114197896.921 8        48.000    21731123.212 8  88985369.329 8        48.000  
R01  23401422.450 6 125094015.272 6        38.000    23401422.772 5  97295347.984 5        30.000  
R06  23974817.526 5 127934218.029 5        34.000                                                  
R07  20831593.380 8 111513137.562 8        50.000    20831591.861 8  86732443.637 8        49.000  
R08  20732578.139 7 111022025.796 7        46.000    20732576.031 7  86350464.252 7        47.000  
R13  22194247.224 6 118516023.726 6        36.000    22194246.885 6  92179127.190 6        39.000  
R14  22060737.515 7 117596138.401 7        47.000    22060735.782 7  91463663.240 7        44.000  
R22  21491330.627 6 114722183.963 6        39.000    21491328.661 5  89228369.348 5        35.000  
R23  20011090.356 8 107045860.420 8        50.000                                                  
R24  22400704.629 7 119786642.334 7        47.000    22400703.879 7  93167394.286 7        45.000  
> 2021 11 07 01 12  0.0000000  0 19                     
G05  23220405.281 7 122024065.998 7        44.000    23220392.040 7  95083689.876 7        44.000  
G10  23843415.539 7 125297999.791 7        46.000    23843406.229 7  97634799.711 7        46.000  
G13  23916180.327 7 125680388.634 7        43.000    23916168.194 6  97932770.227 6        36.000  
G15  22806709.863 8 119850068.194 8        48.000    22806697.891 8  93389664.093 8        48.000  
G16  22848753.869 7 120071031.670 7        45.000    22848740.592 6  93561841.865 6        38.000  
G18  20272654.594 8 106533529.939 8        49.000    20272643.426 8  83013143.781 8        49.000  
G23  21266909.279 8 111758362.752 8        49.000    21266897.628 8  87084442.862 8        48.000  
G26  21780993.958 8 114459901.769 8        48.000    21780986.578 8  89189530.949 8        48.000  
G27  24935090.207 6 131034798.447 6        37.000    24935083.845 6 102105039.653 6        37.000  
G29  21757281.997 8 114335295.432 8        48.000    21757269.685 8  89092433.096 8        48.000  
R01  23350440.251 6 124821488.715 6        38.000    23350443.021 5  97083382.858 5        33.000  
R06  24017469.168 5 128161820.586 5        35.000                                                  
R07  20842391.380 8 111570942.665 8        51.000    20842389.575 7  86777403.175 7        47.000  
R08  20701069.137 8 110853296.213 8        48.000    20701067.743 7  86219230.148 7        46.000  
R13  22230885.994 5 118711675.077 5        35.000    22230886.191 6  92331300.482 6        38.000  
R14  22057635.864 7 117579603.643 7        46.000    22057633.576 7  91450802.872 7        44.000  
R22  21516644.975 6 114857314.497 6        37.000    21516642.187 5  89333470.886 5        32.000  
R23  19998336.251 8 106977634.200 8        50.000                                                  
R24  22368796.755 8 119616014.341 8        49.000    22368795.254 7  93034683.669 7        44.000  
> 2021 11 07 01 13  0.0000000  0 19                     
G05  23257362.566 7 122218283.467 7        42.000    23257350.879 6  95235028.177 6        41.000  
G10  23803322.079 7 125087306.201 7        47.000    23803312.734 7  97470622.883 7        47.000  
G13  23903560.704 7 125614071.704 7        42.000    23903548.375 6  97881094.665 6        37.000  
G15  22784824.974 7 119735065.893 7        46.000    22784813.805 7  93300051.915 7        46.000  
G16  22827624.214 7 119959991.274 7        46.000    22827610.687 6  93475316.879 6        40.000  
G18  20271662.631 8 106528317.660 8        50.000    20271651.552 8  83009082.259 8        50.000  
G23  21239047.720 8 111611949.942 8        48.000    21239036.409 8  86970354.992 8        48.000  
G26  21789919.302 8 114506803.240 8        48.000    21789911.065 8  89226077.538 8        48.000  
G27  24895532.800 6 130826916.451 6        37.000    24895524.688 5 101943053.749 5        35.000  
G29  21783681.941 7 114474032.767 7        47.000    21783670.344 7  89200540.072 7        47.000  
R01  23299499.419 6 124549176.872 6        39.000    23299501.13515  96871580.83015        33.0001 
R06  24060373.139 5 128390765.397 5        34.000                                                  
R07  20853786.224 8 111631939.698 8        51.000    20853784.044 8  86824845.270 8        48.000  
R08  20670018.583 7 110687021.589 7        45.000    20670016.849 7  86089905.476 7        46.000  
R13  22267836.989 6 118908991.065 6        36.000    22267836.275 6  92484768.393 6        38.000  
R14  22055119.673 7 117566191.478 7        46.000    22055117.368 7  91440371.177 7        44.000  
R22  21542109.994 6 114993252.475 6        38.000    21542107.046 5  89439200.389 5        33.000  
R23  19985777.151 8 106910452.300 8        50.000                                                  
R24  22336938.217 8 119445648.954 8        48.000    22336935.411 7  92902177.335 7        45.000  
> 2021 11 07 01 14  0.0000000  0 19                     
G05  23294517.464 7 122413539.347 7        44.000    23294505.635 7  95387175.575 7        44.000  
G10  23763352.202 7 124877263.906 7        47.000    23763342.803 7  97306953.594 7        47.000  
G13  23891329.537 6 125549798.352 6        41.000    23891317.690 5  97831011.588 5        34.000  
G15  22763297.929 7 119621940.744 7        45.000    22763286.922 7  93211902.475 7        45.000  
G16  22806897.934 7 119851070.326 7        46.000    22806884.282 6  93390443.402 6        41.000  
G18  20270912.114 8 106524373.339 8        50.000    20270900.803 8  83006008.759 8        50.000  
G23  21211516.273 8 111467272.353 8        49.000    21211505.265 8  86857619.254 8        49.000  
G26  21799267.142 8 114555930.664 8        48.000    21799259.334 8  89264358.636 8        48.000  
G27  24855987.080 6 130619100.387 6        38.000    24855976.073 6 101781119.252 6        37.000  
G29  21810337.842 7 114614111.118 7        47.000    21810326.030 7  89309692.007 7        47.000  
R01  23248603.135 6 124277119.460 6        40.000    23248607.424 5  96659980.702 5        32.000  
R06  24103523.381 5 128621027.976 5        35.000                                                  
R07  20865776.124 8 111696124.697 8        49.000    20865774.801 8  86874766.961 8        49.000  
R08  20639433.570 7 110523239.164 7        46.000    20639432.087 7  85962519.205 7        45.000  
R13  22305093.759 6 119107942.553 6        36.000    22305093.366 6  92639508.442 6        38.000  
R14  22053190.497 7 117555908.667 7        46.000    22053188.264 7  91432373.410 7        43.000  
R22  21567728.545 6 115130004.581 6        38.000    21567726.204 5  89545563.097 5        34.000  
R23  19973416.040 8 106844329.623 8        50.000                                                  
R24  22305130.480 8 119275559.310 8        48.000    22305128.318 7  92769885.432 7        45.000  
> 2021 11 07 01 15  0.0000000  0 18                     
G05  23331866.975 7 122609807.632 7        46.000    23331854.502 7  95540111.887 7        46.000  
G10  23723508.945 7 124667884.728 7        47.000    23723499.814 7  97143801.011 7        47.000  
G13  23879489.129 7 125487579.743 7        43.000    23879477.764 6  97782529.629 6        38.000  
G15  22742130.910 7 119510709.942 7        43.000    22742120.528 7  93125229.151 7        43.000  
G16  22786577.335 7 119744279.495 7        46.000    22786562.486 6  93307229.812 6        40.000  
G18  20270401.471 8 106521689.078 8        50.000    20270389.821 8  83003917.135 8        50.000  
G23  21184316.868 8 111324339.012 8        49.000    21184305.914 8  86746242.685 8        49.000  
G26  21809036.745 8 114607270.579 8        48.000    21809029.258 8  89304363.749 8        48.000  
G27  24816455.851 6 130411358.057 6        40.000    24816443.611 5 101619242.136 5        34.000  
G29  21837247.340 7 114755521.334 7        47.000    21837235.832 7  89419881.792 7        47.000  
R01  23197763.102 6 124005343.073 6        40.000    23197763.174 5  96448599.147 5        31.000  
R07  20878358.239 8 111763480.990 8        50.000    20878357.381 8  86927155.194 8        48.000  
R08  20609318.387 7 110361973.899 7        47.000    20609316.529 7  85837090.689 7        45.000  
R13  22342650.640 6 119308489.102 6        37.000    22342649.925 6  92795489.042 6        38.000  
R14  22051846.872 7 117548749.373 7        46.000    22051845.085 7  91426805.084 7        44.000  
R22  21593498.195 6 115267566.318 6        37.000    21593497.230 5  89652555.533 5        34.000  
R23  19961253.633 8 106779268.675 8        50.000                                                  
R24  22273373.956 7 119105745.647 7        47.000    22273372.241 7  92637808.222 7        45.000  
> 2021 11 07 01 16  0.0000000  0 18                     
G05  23369405.432 7 122807068.896 7        45.000    23369393.031 7  95693821.959 7        45.000  
G10  23683794.380 7 124459186.921 7        46.000    23683785.678 7  96981179.338 7        46.000  
G13  23868044.234 7 125427433.281 7        43.000    23868032.494 6  97735662.306 6        39.000  
G15  22721328.062 7 119401397.187 7        43.000    22721318.788 7  93040050.417 7        43.000  
G16  22766663.488 7 119639635.949 7        45.000    22766649.568 6  93225689.421 6        41.000  
G18  20270130.380 8 106520263.479 8        50.000    20270118.479 8  83002806.278 8        49.000  
G23  21157452.400 8 111183165.234 8        49.000    21157441.446 8  86636237.177 8        49.000  
G26  21819226.680 8 114660815.644 8        48.000    21819218.693 8  89346087.156 8        48.000  
G27  24776941.884 6 130203703.833 6        40.000    24776930.537 6 101457433.682 6        36.000  
G29  21864409.702 7 114898259.874 7        46.000    21864397.908 7  89531106.592 7        46.000  
R01  23146980.929 6 123733881.608 6        37.000    23146982.269 5  96237462.426 5        34.000  
R07  20891531.640 8 111833997.283 8        50.000    20891530.050 8  86982001.242 8        48.000  
R08  20579679.218 7 110203256.932 7        45.000    20579677.431 7  85713644.217 7        44.000  
R13  22380498.928 6 119510596.954 6        36.000    22380497.766 6  92952684.056 6        37.000  
R14  22051089.904 7 117544713.801 7        46.000    22051088.135 7  91423666.289 7        43.000  
R22  21619419.518 6 115405939.113 6        39.000    21619418.714 5  89760178.809 5        34.000  
R23  19949291.322 8 106715278.865 8        50.000                                                  
R24  22241670.414 7 118936215.474 7        47.000    22241668.985 7  92505951.465 7        45.000  
> 2021 11 07 01 17  0.0000000  0 18                     
G05  23407129.262 7 123005309.893 7        46.000    23407117.826 7  95848295.516 7        46.000  
G10  23644214.405 7 124251195.089 7        46.000    23644205.792 7  96819107.820 7        46.000  
G13  23856998.051 7 125369381.693 7        45.000    23856985.721 6  97690427.346 6        39.000  
G15  22700897.586 7 119294032.410 7        43.000    22700887.829 7  92956389.563 7        43.000  
G16  22747162.291 7 119537162.783 7        45.000    22747149.657 6  93145840.217 6        40.000  
G18  20270099.610 8 106520101.489 8        50.000    20270087.745 8  83002680.057 8        50.000  
G23  21130926.514 8 111043772.382 8        48.000    21130915.507 8  86527619.418 8        48.000  
G26  21829834.358 7 114716564.565 7        47.000    21829826.978 7  89389527.871 7        47.000  
G27  24737445.483 6 129996158.850 6        39.000    24737437.799 6 101295710.390 6        38.000  
G29  21891824.929 7 115042329.451 7        45.000    21891813.260 7  89643368.566 7        44.000  
R01  23096264.425 6 123462775.546 6        39.000    23096265.426 5  96026602.200 5        32.000  
R07  20905294.683 8 111907668.980 8        51.000    20905292.610 8  87039301.460 8        48.000  
R08  20550522.404 7 110047125.213 7        44.000    20550521.493 7  85592208.527 7        45.000  
R13  22418635.193 6 119714237.631 6        37.000    22418633.353 6  93111071.260 6        38.000  
R14  22050919.523 7 117543807.449 7        46.000    22050917.951 7  91422961.340 7        43.000  
R22  21645495.372 6 115545130.870 6        39.000    21645493.961 5  89868439.067 5        33.000  
R23  19937532.576 8 106652375.805 8        50.000                                                  
R24  22210021.730 7 118766982.631 7        45.000    22210021.230 7  92374325.990 7        45.000  
> 2021 11 07 01 18  0.0000000  0 18                     
G05  23445034.588 7 123204499.615 7        45.000    23445021.669 7  96003508.272 7        45.000  
G10  23604770.538 7 124043915.119 7        46.000    23604761.442 7  96657591.013 7        46.000  
G13  23846350.901 7 125313428.936 7        44.000    23846338.357 6  97646827.818 6        40.000  
G15  22680839.732 7 119188626.750 7        44.000    22680829.422 7  92874255.353 7        44.000  
G16  22728076.655 7 119436863.832 7        45.000    22728063.575 7  93067685.199 7        42.000  
G18  20270306.551 8 106521189.474 8        50.000    20270294.668 8  83003527.851 8        50.000  
G23  21104740.194 7 110906163.075 7        47.000    21104729.723 7  86420391.410 7        47.000  
G26  21840857.990 7 114774497.094 7        47.000    21840850.753 7  89434670.074 7        47.000  
G27  24697972.310 6 129788725.540 6        39.000    24697961.929 5 101134074.027 5        33.000  
G29  21919490.787 7 115187715.005 7        44.000    21919479.529 7  89756656.017 7        44.000  
R01  23045619.415 7 123192046.114 7        43.000    23045620.826 5  95816034.952 5        33.000  
R07  20919642.133 8 111984471.487 8        51.000    20919640.399 7  87099036.687 7        47.000  
R08  20521851.503 7 109893596.992 7        42.000    20521849.984 7  85472797.663 7        45.000  
R13  22457049.304 6 119919365.197 6        37.000    22457047.446 6  93270614.889 6        37.000  
R14  22051333.763 7 117546016.806 7        46.000    22051331.958 7  91424679.726 7        42.000  
R22  21671722.595 6 115685131.053 6        40.000    21671720.594 5  89977328.075 5        33.000  
R23  19925975.821 8 106590557.008 8        50.000                                                  
R24  22178429.011 7 118598042.066 7        46.000    22178428.350 7  92242927.873 7        45.000  
> 2021 11 07 01 19  0.0000000  0 18                     
G05  23483115.281 7 123404617.524 7        46.000    23483102.165 7  96159444.284 7        46.000  
G10  23565465.370 7 123837363.916 7        46.000    23565456.061 7  96496642.033 7        46.000  
G13  23836105.840 7 125259589.760 7        43.000    23836093.135 6  97604875.231 6        40.000  
G15  22661159.291 7 119085202.283 7        44.000    22661148.605 7  92793664.898 7        44.000  
G16  22709407.118 7 119338754.657 7        44.000    22709394.074 7  92991236.519 7        43.000  
G18  20270750.882 8 106523524.723 8        50.000    20270738.910 8  83005347.546 8        50.000  
G23  21078896.012 8 110770350.651 8        48.000    21078884.897 8  86314563.577 8        48.000  
G26  21852296.863 7 114834603.665 7        47.000    21852288.197 7  89481506.345 7        47.000  
G27  24658522.797 6 129581417.579 6        40.000    24658508.698 5 100972535.540 5        34.000  
G29  21947406.400 7 115334410.556 7        46.000    21947394.642 7  89870964.218 7        46.000  
R01  22995049.901 6 122921726.124 6        41.000    22995051.348 5  95605786.117 5        30.000  
R07  20934572.541 8 112064390.619 8        50.000    20934569.629 7  87161196.058 7        47.000  
R08  20493673.001 7 109742700.703 7        43.000    20493672.233 7  85355433.868 7        46.000  
R13  22495734.506 6 120125943.361 6        36.000    22495732.933 6  93431286.797 6        39.000  
R14  22052332.552 7 117551338.815 7        46.000    22052330.533 7  91428819.048 7        43.000  
R22  21698101.240 6 115825940.029 6        38.000    21698099.256 5  90086846.145 5        33.000  
R23  19914624.006 8 106529830.630 8        50.000                                                  
R24  22146893.778 7 118429401.023 7        47.000    22146891.508 7  92111762.698 7        44.000  
> 2021 11 07 01 20  0.0000000  0 18                     
G05  23521369.732 7 123605647.864 7        45.000    23521357.528 7  96316091.310 7        45.000  
G10  23526303.191 7 123631562.847 7        47.000    23526293.863 7  96336277.600 7        47.000  
G13  23826266.387 7 125207883.543 7        43.000    23826253.379 6  97564584.730 6        37.000  
G15  22641860.853 7 118983784.594 7        46.000    22641849.632 7  92714638.141 7        47.000  
G16  22691157.217 7 119242854.154 7        45.000    22691145.459 7  92916508.873 7        42.000  
G18  20271432.782 8 106527109.292 8        50.000    20271421.078 8  83008140.735 8        50.000  
G23  21053397.363 8 110636352.891 8        49.000    21053386.552 8  86210149.793 8        48.000  
G26  21864147.403 7 114896878.920 7        47.000    21864139.076 7  89530032.520 7        47.000  
G27  24619098.640 6 129374253.543 6        40.000    24619090.849 6 100811109.053 6        39.000  
G29  21975571.321 7 115482416.589 7        46.000    21975559.617 7  89986293.533 7        46.000  
R01  22944565.086 6 122651853.681 6        38.000    22944566.016 5  95395885.498 5        34.000  
R07  20950081.906 8 112147416.590 8        51.000    20950079.637 8  87225771.863 8        48.000  
R08  20465991.419 7 109594468.497 7        45.000    20465988.899 7  85240142.248 7        43.000  
R13  22534686.045 6 120333941.228 6        36.000    22534685.420 6  93593062.874 6        39.000  
R14  22053914.890 7 117559774.047 7        46.000    22053913.353 7  91435379.778 7        43.000  
R22  21724631.861 6 115967562.855 6        37.000    21724629.091 5  90196997.212 5        32.000  
R23  19903478.954 8 106470209.676 8        50.000                                                  
R24  22115415.671 7 118261070.221 7        47.000    22115412.079 7  91980838.828 7        44.000  
> 2021 11 07 01 21  0.0000000  0 18                     
G05  23559793.028 7 123807563.548 7        46.000    23559781.306 7  96473428.206 7        46.000  
G10  23487284.589 7 123426522.175 7        46.000    23487276.101 7  96176505.684 7        46.000  
G13  23816833.437 7 125158317.658 7        42.000    23816821.090 6  97525962.008 6        38.000  
G15  22622945.867 7 118884387.437 7        47.000    22622934.770 7  92637185.843 7        47.000  
G16  22673329.275 7 119149170.180 7        44.000    22673318.268 7  92843508.371 7        43.000  
G18  20272350.714 8 106531933.969 8        50.000    20272339.402 8  83011900.237 8        50.000  
G23  21028244.872 8 110504176.222 8        49.000    21028233.472 8  86107155.032 8        49.000  
G26  21876406.803 7 114961306.176 7        46.000    21876399.423 7  89580235.540 7        46.000  
G27  24579707.236 7 129167240.884 7        42.000    24579700.071 6 100649800.458 6        39.000  
G29  22003983.407 7 115631721.187 7        45.000    22003971.203 7  90102634.741 7        44.000  
R01  22894167.634 6 122382454.547 6        37.000    22894169.992 6  95186352.745 6        36.000  
R07  20966168.405 8 112233528.087 8        50.000    20966166.600 8  87292747.502 8        49.000  
R08  20438812.331 7 109448922.577 7        42.000    20438809.651 7  85126939.824 7        44.000  
R13  22573894.184 5 120543316.069 5        35.000    22573894.148 6  93755909.984 6        37.000  
R14  22056079.221 7 117571311.270 7        46.000    22056077.828 7  91444353.141 7        43.000  
R22  21751313.511 6 116109993.525 6        37.000    21751310.973 5  90307776.563 5        33.000  
R23  19892540.253 8 106411696.677 8        49.000                                                  
R24  22083994.960 7 118093050.122 7        47.000    22083992.708 7  91850156.526 7        45.000  
> 2021 11 07 01 22  0.0000000  0 18                     
G05  23598383.059 7 124010351.799 7        43.000    23598369.890 7  96631444.997 7        43.000  
G10  23448415.783 7 123222265.462 7        47.000    23448406.991 7  96017344.650 7        47.000  
G13  23807812.011 7 125110913.099 7        42.000    23807800.450 6  97489023.423 6        36.000  
G15  22604421.283 8 118787040.030 8        48.000    22604410.330 8  92561330.733 8        48.000  
G16  22655928.027 7 119057724.281 7        45.000    22655916.430 6  92772251.817 6        41.000  
G18  20273505.803 8 106538002.965 8        49.000    20273494.403 8  83016629.325 8        49.000  
G23  21003442.919 8 110373840.125 8        49.000    21003432.001 8  86005594.489 8        49.000  
G26  21889077.013 7 115027881.665 7        47.000    21889067.345 7  89632112.528 7        47.000  
G27  24540346.014 6 128960400.559 6        41.000    24540339.384 6 100488626.229 6        40.000  
G29  22032641.514 7 115782325.719 7        42.000    22032631.168 7  90219988.908 7        42.000  
R01  22843867.031 7 122113569.422 7        42.000    22843869.425 6  94977219.967 6        37.000  
R07  20982829.053 8 112322715.745 8        50.000    20982827.838 7  87362115.646 7        47.000  
R08  20412140.902 7 109306097.234 7        46.000    20412139.312 7  85015853.558 7        43.000  
R13  22613355.741 6 120754039.790 6        36.000    22613354.758 6  93919806.168 6        37.000  
R14  22058825.869 7 117585952.599 7        46.000    22058824.636 7  91455740.804 7        43.000  
R22  21778148.977 6 116253239.043 6        39.000    21778146.422 5  90419189.715 5        33.000  
R23  19881811.495 8 106354306.544 8        50.000                                                  
R24  22052634.503 8 117925354.968 8        48.000    22052633.055 7  91719727.020 7        45.000  
> 2021 11 07 01 23  0.0000000  0 18                     
G05  23637131.589 7 124213987.328 7        44.000    23637120.617 7  96790122.076 7        44.000  
G10  23409697.648 7 123018804.265 7        47.000    23409689.178 7  95858803.511 7        47.000  
G13  23799203.966 7 125065677.840 7        42.000    23799192.423 6  97453775.201 6        37.000  
G15  22586289.943 8 118691756.594 8        48.000    22586278.328 8  92487083.918 8        48.000  
G16  22638953.295 7 118968524.775 7        44.000    22638942.073 7  92702745.723 7        43.000  
G18  20274896.138 8 106545308.554 8        49.000    20274884.666 8  83022321.991 8        49.000  
G23  20978992.145 8 110245352.018 8        49.000    20978981.030 8  85905473.916 8        49.000  
G26  21902151.473 7 115096589.031 7        47.000    21902141.413 7  89685650.756 7        47.000  
G27  24501020.154 6 128753741.900 6        40.000    24501012.327 6 100327593.480 6        39.000  
G29  22061545.499 7 115934219.398 7        44.000    22061535.009 7  90338347.624 7        43.000  
R01  22793668.675 7 121845225.818 7        44.000    22793669.604 6  94768508.406 6        36.000  
R07  21000060.009 8 112414958.858 8        49.000    21000058.883 7  87433860.249 7        46.000  
R08  20385981.242 7 109166013.066 7        45.000    20385977.740 7  84906899.244 7        44.000  
R13  22653062.158 5 120966071.350 5        34.000    22653061.711 6  94084719.575 6        38.000  
R14  22062152.742 7 117603686.225 7        46.000    22062151.741 7  91469533.606 7        43.000  
R22  21805135.365 6 116397294.699 6        37.000    21805132.721 5  90531232.945 5        33.000  
R23  19871293.823 8 106298043.292 8        50.000                                                  
R24  22021335.944 8 117757986.598 8        49.000    22021334.550 7  91589551.670 7        45.000  
> 2021 11 07 01 24  0.0000000  0 19                     
G05  23676037.062 7 124418432.074 7        43.000    23676024.696 7  96949429.610 7        43.000  
G10  23371131.401 7 122816136.967 7        46.000    23371123.431 7  95700880.952 7        46.000  
G13  23791008.214 7 125022606.754 7        42.000    23790996.420 6  97420213.357 6        37.000  
G15  22568551.793 8 118598540.771 8        48.000    22568540.267 8  92414448.232 8        49.000  
G16  22622406.508 7 118881566.660 7        46.000    22622394.572 7  92634986.139 7        42.000  
G18  20276517.198 8 106553829.936 8        49.000    20276506.351 8  83028962.030 8        49.000  
G23  20954892.265 8 110118705.925 8        49.000    20954881.347 8  85806788.692 8        49.000  
G26  21915625.735 7 115167399.590 7        47.000    21915616.747 7  89740827.785 7        47.000  
G27  24461729.496 6 128547261.024 6        39.000    24461718.399 6 100166699.442 6        39.000  
G29  22090691.626 7 116087378.720 7        45.000    22090679.654 7  90457692.518 7        44.000  
R01  22743573.941 6 121577438.826 6        40.000    22743574.834 6  94560229.643 6        37.000  
R07  21017856.483 8 112510221.597 8        50.000    21017854.804 8  87507953.554 8        48.000  
R08  20360334.781 7 109028678.673 7        47.000    20360331.993 7  84800083.617 7        45.000  
R13  22693002.640 5 121179355.588 5        33.000    22693003.766 6  94250607.274 6        38.000  
R14  22066054.943 7 117624488.000 7        46.000    22066054.318 7  91485712.741 7        44.000  
R15  24136619.045 7 128978776.655 7        47.000                                                  
R22  21832268.905 6 116542142.768 6        37.000    21832267.582 5  90643892.510 5        34.000  
R23  19860984.934 8 106242897.284 8        50.000                                                  
R24  21990096.335 8 117590934.013 8        49.000    21990094.477 7  91459621.935 7        45.000  
> 2021 11 07 01 25  0.0000000  0 19                     
G05  23715096.941 7 124623691.970 7        42.000    23715084.326 7  97109372.351 7        42.000  
G10  23332724.348 7 122614305.854 7        47.000    23332716.468 7  95543609.966 7        47.000  
G13  23783231.222 7 124981738.926 7        42.000    23783219.518 6  97388368.328 6        36.000  
G15  22551215.428 8 118507436.905 8        49.000    22551203.455 8  92343458.234 8        49.000  
G16  22606293.689 7 118796888.837 7        46.000    22606280.591 7  92569003.431 7        42.000  
G18  20278374.522 8 106563590.238 8        49.000    20278363.729 8  83036567.464 8        49.000  
G23  20931149.926 8 109993939.601 8        49.000    20931138.901 8  85709568.217 8        49.000  
G26  21929503.801 8 115240327.180 8        48.000    21929494.294 7  89797654.483 7        47.000  
G27  24422478.847 6 128340998.577 6        37.000    24422469.180 6 100005975.412 6        37.000  
G29  22120082.166 7 116241824.292 7        45.000    22120070.230 7  90578039.683 7        45.000  
R01  22693592.747 7 121310268.305 7        43.000    22693595.124 6  94352430.384 6        38.000  
R07  21036218.137 8 112608513.250 8        51.000    21036216.833 8  87584402.608 8        49.000  
R08  20335211.881 7 108894146.120 7        46.000    20335209.380 7  84695447.196 7        45.000  
R13  22733176.618 5 121393882.555 5        34.000    22733177.154 6  94417461.552 6        36.000  
R14  22070536.405 7 117648376.644 7        46.000    22070535.815 7  91504292.767 7        44.000  
R15  24106607.788 7 128818417.904 7        45.000    24106608.217 7 100192100.477 7        42.000  
R22  21859557.762 6 116687809.622 6        38.000    21859556.440 5  90757188.916 5        34.000  
R23  19850891.348 8 106188903.741 8        50.000                                                  
R24  21958921.752 7 117424230.766 7        47.000    21958919.590 7  91329963.900 7        44.000  
> 2021 11 07 01 26  0.0000000  0 19                     
G05  23754304.526 7 124829730.519 7        43.000    23754293.304 7  97269921.890 7        43.000  
G10  23294476.562 7 122413310.883 7        47.000    23294467.824 7  95386990.554 7        47.000  
G13  23775873.062 7 124943069.786 7        42.000    23775861.197 6  97358236.556 6        39.000  
G15  22534281.491 8 118418448.688 8        48.000    22534269.197 8  92274116.780 8        48.000  
G16  22590612.102 7 118714487.900 7        45.000    22590600.094 7  92504794.909 7        42.000  
G18  20280464.001 8 106574570.407 8        49.000    20280453.208 8  83045123.438 8        49.000  
G23  20907764.218 8 109871048.338 8        49.000    20907753.318 8  85613808.829 8        48.000  
G26  21943778.702 7 115315343.616 7        47.000    21943769.857 7  89856108.815 7        47.000  
G27  24383270.690 6 128134952.516 6        39.000    24383260.416 6  99845420.145 6        39.000  
G29  22149711.508 7 116397533.112 7        44.000    22149700.947 7  90699371.263 7        44.000  
R01  22643731.847 6 121043730.866 6        40.000    22643734.009 6  94145123.566 6        39.000  
R07  21055139.074 8 112709799.187 8        50.000    21055138.109 8  87663180.558 8        49.000  
R08  20310613.402 7 108762424.561 7        45.000    20310610.668 7  84592997.111 7        45.000  
R13  22773572.903 5 121609600.550 5        33.000    22773573.386 6  94585242.165 6        36.000  
R14  22075592.212 7 117675328.058 7        46.000    22075591.819 7  91525254.931 7        44.000  
R15  24077012.505 7 128660272.750 7        45.000    24077012.469 7 100069098.672 7        42.000  
R22  21886996.754 6 116834278.879 6        38.000    21886995.700 5  90871109.377 5        33.000  
R23  19841011.726 8 106136055.101 8        50.000                                                  
R24  21927810.479 8 117257867.600 8        48.000    21927808.835 7  91200570.378 7        45.000  
> 2021 11 07 01 27  0.0000000  0 19                     
G05  23793657.314 7 125036534.110 7        43.000    23793646.611 7  97431067.562 7        43.000  
G10  23256391.635 7 122213173.982 7        46.000    23256383.361 7  95231039.716 7        46.000  
G13  23768936.629 7 124906616.806 7        42.000    23768924.424 6  97329831.675 6        39.000  
G15  22517755.003 8 118331601.888 8        48.000    22517742.727 8  92206443.963 8        48.000  
G16  22575369.022 7 118634382.118 7        45.000    22575356.102 7  92442374.803 7        42.000  
G18  20282786.420 8 106586773.360 8        50.000    20282775.323 8  83054632.230 8        49.000  
G23  20884738.445 8 109750049.171 8        48.000    20884727.724 8  85519523.792 8        48.000  
G26  21958451.010 8 115392442.114 8        48.000    21958441.790 8  89916185.534 8        48.000  
G27  24344106.063 6 127929143.553 6        39.000    24344095.466 6  99685049.570 6        40.000  
G29  22179582.832 7 116554505.171 7        45.000    22179571.950 7  90821687.123 7        44.000  
R01  22593995.816 7 120777866.064 7        42.000    22593997.853 6  93938339.822 6        38.000  
R07  21074617.095 8 112814066.147 8        50.000    21074615.987 7  87744277.118 7        47.000  
R08  20286545.490 7 108633544.140 7        45.000    20286542.524 7  84492756.814 7        44.000  
R13  22814188.406 5 121826480.131 5        34.000    22814188.442 6  94753926.245 6        36.000  
R14  22081221.759 7 117705339.077 7        46.000    22081222.384 7  91548596.784 7        44.000  
R15  24047838.484 7 128504373.472 7        44.000    24047837.626 7  99947843.689 7        42.000  
R22  21914586.794 6 116981557.048 6        37.000    21914584.953 5  90985659.057 5        33.000  
R23  19831349.231 8 106084365.915 8        51.000                                                  
R24  21896765.481 8 117091857.831 8        48.000    21896765.035 7  91071451.671 7        45.000  
> 2021 11 07 01 28  0.0000000  0 19                     
G05  23833150.536 6 125244079.504 6        41.000    23833139.921 6  97592791.225 6        40.000  
G10  23218472.907 7 122013908.079 7        46.000    23218463.883 7  95075767.620 7        46.000  
G13  23762423.138 7 124872388.663 7        43.000    23762411.058 6  97303160.411 6        39.000  
G15  22501638.842 7 118246911.151 7        47.000    22501626.173 7  92140451.190 7        47.000  
G16  22560565.072 7 118556579.787 7        46.000    22560550.366 7  92381749.619 7        42.000  
G18  20285340.314 8 106600193.183 8        50.000    20285328.878 8  83065089.235 8        50.000  
G23  20862074.842 8 109630950.019 8        48.000    20862063.977 8  85426719.267 8        48.000  
G26  21973514.740 7 115471606.930 7        47.000    21973506.180 7  89977872.411 7        47.000  
G27  24304989.646 6 127723583.405 6        40.000    24304978.477 6  99524872.884 6        40.000  
G29  22209692.297 7 116712730.935 7        43.000    22209680.664 7  90944979.851 7        43.000  
R01  22544392.052 7 120512703.557 7        42.000    22544393.696 6  93732102.356 6        40.000  
R07  21094648.163 8 112921293.079 8        50.000    21094646.144 7  87827675.805 7        45.000  
R08  20263012.469 7 108507526.152 7        47.000    20263010.754 7  84394742.800 7        44.000  
R13  22855013.852 5 122044481.800 5        35.000    22855014.424 6  94923483.057 6        37.000  
R14  22087423.132 7 117738396.956 7        46.000    22087424.400 7  91574308.433 7        45.000  
R15  24019088.977 7 128350743.529 7        43.000    24019088.423 6  99828353.771 6        41.000  
R22  21942327.309 6 117129640.428 6        38.000    21942326.040 5  91100834.961 5        33.000  
R23  19821904.487 8 106033842.162 8        50.000                                                  
R24  21865787.439 8 116926206.421 8        48.000    21865786.975 7  90942611.681 7        44.000  
> 2021 11 07 01 29  0.0000000  0 19                     
G05  23872782.402 7 125452348.392 7        42.000    23872772.789 7  97755078.640 7        42.000  
G10  23180722.970 7 121815530.870 7        46.000    23180713.731 7  94921188.041 7        47.000  
G13  23756335.698 7 124840397.626 7        42.000    23756323.243 6  97278232.337 6        38.000  
G15  22485936.938 7 118164397.507 7        45.000    22485924.573 7  92076154.887 7        45.000  
G16  22546200.665 7 118481094.593 7        46.000    22546186.674 7  92322930.022 7        42.000  
G18  20288125.433 8 106614828.703 8        49.000    20288113.622 8  83076493.550 8        49.000  
G23  20839774.783 8 109513763.300 8        49.000    20839763.990 8  85335404.954 8        49.000  
G26  21988968.657 7 115552826.863 7        45.000    21988961.617 7  90041160.627 7        45.000  
G27  24265922.458 6 127518288.724 6        40.000    24265910.843 6  99364903.076 6        40.000  
G29  22240039.616 7 116872205.601 7        44.000    22240028.269 7  91069245.815 7        44.000  
R01  22494926.040 7 120248279.038 7        45.000    22494927.791 6  93526438.906 6        41.000  
R07  21115228.453 8 113031460.629 8        50.000    21115225.880 7  87913361.689 7        47.000  
R08  20240018.629 7 108384395.895 7        46.000    20240016.913 7  84298974.883 7        45.000  
R13  22896041.790 5 122263570.399 5        35.000    22896042.452 5  95093885.314 5        35.000  
R14  22094194.902 7 117774494.191 7        46.000    22094196.599 7  91602384.026 7        44.000  
R15  23990768.488 7 128199411.273 7        43.000    23990769.417 6  99710650.905 6        41.000  
R22  21970220.710 6 117278531.656 6        38.000    21970218.638 5  91216639.233 5        33.000  
R23  19812679.050 8 105984494.902 8        50.000                                                  
R24  21834879.355 8 116760922.200 8        49.000    21834875.352 7  90814057.380 7        43.000  
> 2021 11 07 01 30  0.0000000  0 19                     
G05  23912548.948 7 125661314.707 7        43.000    23912537.869 7  97917909.512 7        43.000  
G10  23143143.646 7 121618050.955 7        46.000    23143134.944 7  94767307.601 7        47.000  
G13  23750674.756 7 124810647.196 7        42.000    23750662.015 6  97255050.200 6        40.000  
G15  22470650.847 7 118084071.448 7        45.000    22470639.178 7  92013563.192 7        45.000  
G16  22532276.247 7 118407930.184 7        45.000    22532264.328 7  92265918.801 7        43.000  
G18  20291139.902 8 106630669.827 8        50.000    20291127.983 8  83088837.295 8        50.000  
G23  20817839.825 8 109398492.223 8        49.000    20817828.675 8  85245583.357 8        49.000  
G26  22004812.119 7 115636081.135 7        47.000    22004804.614 7  90106034.070 7        47.000  
G27  24226907.322 7 127313267.396 7        42.000    24226897.137 6  99205146.245 6        40.000  
G29  22270621.251 6 117032915.070 6        41.000    22270609.958 6  91194473.989 6        41.000  
R01  22445602.801 7 119984618.120 7        43.000    22445604.695 7  93321369.375 7        42.000  
R07  21136353.301 8 113144541.874 8        50.000    21136351.157 8  88001313.796 8        49.000  
R08  20217567.684 7 108264169.531 7        46.000    20217565.576 7  84205465.512 7        46.000  
R13  22937265.591 5 122483703.022 5        34.000    22937264.608 5  95265099.584 5        33.000  
R14  22101533.352 7 117813612.141 7        45.000    22101535.568 7  91632809.080 7        45.000  
R15  23962881.590 7 128050394.883 7        43.000    23962883.002 6  99594749.227 6        41.000  
R22  21998262.908 6 117428222.842 6        38.000    21998261.031 5  91333065.667 5        33.000  
R23  19803674.564 8 105936325.677 8        51.000                                                  
R24  21804039.208 8 116596006.611 8        48.000    21804035.759 7  90685789.731 7        44.000  
> 2021 11 07 01 31  0.0000000  0 19                     
G05  23952444.776 7 125870964.990 7        43.000    23952432.625 7  98081273.334 7        43.000  
G10  23105739.403 7 121421490.598 7        47.000    23105731.094 7  94614143.737 7        47.000  
G13  23745442.205 6 124783154.167 6        41.000    23745429.804 6  97233627.108 6        39.000  
G15  22455785.839 7 118005957.405 7        45.000    22455774.760 7  91952695.171 7        44.000  
G16  22518797.839 7 118337104.023 7        44.000    22518785.867 7  92210729.591 7        42.000  
G18  20294384.220 8 106647720.305 8        50.000    20294372.605 8  83102123.397 8        50.000  
G23  20796272.522 8 109285153.508 8        49.000    20796260.996 8  85157267.484 8        49.000  
G26  22021040.390 7 115721362.721 7        46.000    22021033.529 7  90172487.226 7        46.000  
G27  24187949.368 7 127108541.171 7        43.000    24187941.094 6  99045619.309 6        40.000  
G29  22301438.508 7 117194859.455 7        43.000    22301427.125 7  91320664.382 7        42.000  
R01  22396429.466 7 119721761.705 7        43.000    22396431.914 7  93116925.444 7        42.000  
R07  21158019.188 8 113260522.824 8        49.000    21158017.722 8  88091521.240 8        48.000  
R08  20195664.461 7 108146876.339 7        47.000    20195661.513 7  84114237.508 7        46.000  
R13  22978679.535 5 122704850.669 5        35.000    22978678.070 5  95437103.235 5        35.000  
R14  22109437.482 7 117855746.695 7        45.000    22109439.859 7  91665580.341 7        44.000  
R15  23935434.789 7 127903726.764 7        43.000    23935435.593 6  99480673.991 6        40.000  
R22  22026456.009 6 117578721.173 6        37.000    22026454.794 5  91450119.899 5        34.000  
R23  19794893.136 8 105889350.349 8        50.000                                                  
R24  21773270.519 8 116431474.257 8        49.000    21773267.499 7  90557820.160 7        45.000  
> 2021 11 07 01 32  0.0000000  0 19                     
G05  23992465.938 7 126081274.029 7        44.000    23992453.054 7  98245150.478 7        44.000  
G10  23068511.742 7 121225860.157 7        47.000    23068503.736 7  94461704.464 7        47.000  
G13  23740638.887 6 124757922.711 6        40.000    23740628.130 6  97213966.277 6        38.000  
G15  22441344.345 7 117930067.534 7        45.000    22441333.355 7  91893560.251 7        45.000  
G16  22505766.336 7 118268621.201 7        44.000    22505753.202 7  92157366.331 7        42.000  
G18  20297857.314 8 106665971.820 8        50.000    20297845.771 8  83116345.366 8        50.000  
G23  20775073.017 8 109173751.731 8        49.000    20775062.027 8  85070460.952 8        49.000  
G26  22037651.881 7 115808652.273 7        47.000    22037643.268 7  90240505.031 7        47.000  
G27  24149049.434 7 126904120.017 7        43.000    24149040.017 6  98886330.117 6        37.000  
G29  22332488.633 7 117358026.487 7        43.000    22332475.893 7  91447807.469 7        43.000  
R01  22347412.377 7 119459737.376 7        43.000    22347414.700 6  92913128.833 6        41.000  
R07  21180221.502 8 113379376.979 8        49.000    21180220.251 7  88183963.369 7        46.000  
R08  20174311.890 7 108032532.621 7        46.000    20174308.620 7  84025303.534 7        46.000  
R13  23020276.584 5 122926971.121 5        35.000    23020273.885 5  95609863.605 5        33.000  
R14  22117904.200 7 117900879.803 7        45.000    22117906.112 7  91700683.840 7        44.000  
R15  23908432.658 7 127759427.111 7        45.000    23908430.764 6  99368440.923 6        40.000  
R22  22054799.353 6 117730021.095 6        38.000    22054798.620 5  91567797.565 5        34.000  
R23  19786334.893 8 105843572.836 8        50.000                                                  
R24  21742575.183 8 116267328.015 8        48.000    21742571.949 7  90430150.933 7        46.000  
> 2021 11 07 01 33  0.0000000  0 19                     
G05  24032607.447 7 126292218.861 7        42.000    24032594.724 7  98409523.038 7        42.000  
G10  23031463.950 7 121031170.270 7        47.000    23031455.569 7  94309998.077 7        47.000  
G13  23736268.821 7 124734957.809 7        42.000    23736257.724 5  97196071.628 5        35.000  
G15  22427328.794 7 117856414.419 7        45.000    22427317.680 7  91836168.250 7        45.000  
G16  22493182.094 7 118202486.357 7        45.000    22493168.514 7  92105832.700 7        42.000  
G18  20301557.614 8 106685416.663 8        50.000    20301546.160 8  83131497.208 8        50.000  
G23  20754243.543 8 109064291.640 8        49.000    20754232.197 8  84985167.398 8        49.000  
G26  22054640.890 7 115897930.630 7        47.000    22054631.777 7  90310072.546 7        47.000  
G27  24110210.362 7 126700014.489 7        43.000    24110199.998 6  98727286.849 6        37.000  
G29  22363769.109 7 117522403.985 7        42.000    22363756.171 7  91575893.810 7        42.000  
R01  22298556.413 7 119198574.498 7        43.000    22298558.468 6  92710002.158 6        41.000  
R07  21202956.457 8 113501077.434 8        50.000    21202954.187 7  88278619.248 7        47.000  
R08  20153512.365 7 107921155.166 7        46.000    20153510.293 7  83938676.650 7        46.000  
R13  23062046.836 5 123150023.649 5        34.000    23062044.424 5  95783348.842 5        34.000  
R14  22126929.933 7 117948994.759 7        46.000    22126932.185 7  91738106.546 7        44.000  
R15  23881877.467 7 127617515.247 7        45.000    23881873.983 6  99258065.019 6        40.000  
R22  22083292.171 6 117882117.849 6        39.000    22083291.510 5  91686095.025 5        34.000  
R23  19778001.960 8 105798997.457 8        50.000                                                  
R24  21711950.948 7 116103571.181 7        47.000    21711949.751 7  90302784.483 7        47.000  
> 2021 11 07 01 34  0.0000000  0 19                     
G05  24072867.124 7 126503788.593 7        42.000    24072855.455 7  98574382.587 7        42.000  
G10  22994599.441 7 120837445.938 7        47.000    22994590.774 7  94159044.073 7        47.000  
G13  23732334.348 7 124714277.583 7        42.000    23732322.179 6  97179957.146 6        36.000  
G15  22413743.816 7 117785024.090 7        45.000    22413732.469 7  91780539.459 7        46.000  
G16  22481047.330 7 118138719.482 7        44.000    22481035.001 7  92056144.223 7        42.000  
G18  20305486.440 8 106706061.520 8        50.000    20305474.664 8  83147584.121 8        50.000  
G23  20733786.979 8 108956792.160 8        49.000    20733776.150 8  84901401.601 8        49.000  
G26  22072009.295 8 115989192.777 8        48.000    22071998.752 8  90381185.905 8        48.000  
G27  24071435.619 7 126496249.789 7        43.000    24071425.183 6  98568509.117 6        39.000  
G29  22395278.540 6 117687994.190 6        40.000    22395266.031 6  91704925.098 6        40.000  
R01  22249869.758 7 118938315.916 7        45.000    22249871.867 6  92507578.869 6        41.000  
R07  21226220.799 8 113625611.494 8        50.000    21226218.315 8  88375479.061 8        48.000  
R08  20133273.106 7 107812774.297 7        46.000    20133270.801 7  83854380.372 7        45.000  
R13  23103986.505 5 123373982.222 5        34.000    23103984.987 5  95957538.845 5        35.000  
R14  22136514.573 7 118000087.725 7        46.000    22136516.575 7  91777845.473 7        44.000  
R15  23855775.077 7 127478025.438 7        46.000    23855769.502 6  99149572.987 6        39.000  
R22  22111936.679 6 118035020.618 6        39.000    22111934.714 5  91805019.410 5        33.000  
R23  19769897.446 8 105755643.367 8        50.000                                                  
R24  21681403.388 8 115940222.129 8        48.000    21681403.085 7  90175735.236 7        47.000  
> 2021 11 07 01 35  0.0000000  0 19                     
G05  24113241.449 7 126715952.403 7        42.000    24113229.101 7  98739705.021 7        42.000  
G10  22957918.607 8 120644690.097 8        48.000    22957911.013 8  94008844.745 8        48.000  
G13  23728834.181 7 124695878.204 7        42.000    23728820.458 6  97165619.924 6        38.000  
G15  22400589.499 7 117715899.832 7        46.000    22400578.331 7  91726676.436 7        47.000  
G16  22469362.705 7 118077317.152 7        45.000    22469351.286 7  92008298.238 7        44.000  
G18  20309640.166 8 106727891.049 8        49.000    20309628.462 8  83164594.157 8        49.000  
G23  20713703.198 8 108851249.875 8        49.000    20713691.726 8  84819160.878 8        48.000  
G26  22089747.320 7 116082411.350 7        47.000    22089737.956 7  90453823.747 7        47.000  
G27  24032727.687 7 126292829.071 7        44.000    24032715.965 6  98409999.466 6        40.000  
G29  22427016.873 6 117854777.992 6        40.000    22427004.847 6  91834886.472 6        41.000  
R01  22201356.201 7 118678982.918 7        45.000    22201357.916 6  92305875.496 6        41.000  
R07  21250007.435 8 113752944.411 8        50.000    21250006.041 8  88474515.784 8        49.000  
R08  20113594.469 8 107707398.115 8        48.000    20113592.700 7  83772421.163 7        45.000  
R13  23146087.031 5 123598798.725 5        34.000    23146087.389 6  96132396.130 6        36.000  
R14  22146653.189 7 118054132.111 7        45.000    22146654.476 7  91819879.966 7        43.000  
R15  23830128.276 7 127340969.058 7        47.000    23830121.825 6  99042973.608 6        40.000  
R22  22140729.429 6 118188717.014 6        38.000    22140726.892 5  91924560.993 5        33.000  
R23  19762020.656 8 105713507.055 8        50.000                                                  
R24  21650932.380 8 115777276.996 8        48.000    21650931.076 7  90049000.185 7        47.000  
> 2021 11 07 01 36  0.0000000  0 19                     
G05  24153727.115 6 126928703.412 6        41.000    24153713.303 6  98905484.996 6        41.000  
G10  22921428.472 8 120452930.507 8        49.000    22921419.395 8  93859421.716 8        49.000  
G13  23725770.466 6 124679780.557 6        41.000    23725756.939 6  97153076.328 6        39.000  
G15  22387872.955 7 117649070.830 7        46.000    22387861.090 7  91674601.893 7        46.000  
G16  22458132.899 7 118018301.086 7        46.000    22458120.945 7  91962311.703 7        44.000  
G18  20314021.061 8 106750914.966 8        49.000    20314009.607 8  83182534.877 8        49.000  
G23  20693995.649 8 108747686.100 8        49.000    20693984.856 8  84738461.860 8        49.000  
G26  22107857.986 8 116177583.790 8        48.000    22107847.443 8  90527984.083 8        48.000  
G27  23994086.104 6 126089780.793 6        39.000    23994077.277 6  98251780.134 6        39.000  
G29  22458982.607 6 118022760.034 6        41.000    22458970.671 6  91965781.574 6        40.000  
R01  22153024.764 7 118420622.211 7        44.000    22153025.604 6  92104928.293 6        40.000  
R07  21274315.632 8 113883065.670 8        50.000    21274314.059 8  88575721.213 8        48.000  
R08  20094483.442 8 107605059.396 8        49.000    20094482.102 7  83692824.414 7        46.000  
R13  23188345.001 5 123824449.588 5        35.000    23188344.447 5  96307902.399 5        34.000  
R14  22157345.816 7 118111126.641 7        45.000    22157346.388 7  91864209.026 7        44.000  
R15  23804942.728 7 127206382.825 7        46.000    23804936.760 6  98938295.401 6        40.000  
R22  22169672.440 6 118343219.476 6        38.000    22169671.028 5  92044729.549 5        34.000  
R23  19754375.788 8 105672611.257 8        50.000                                                  
R24  21620539.870 8 115614757.138 8        48.000    21620539.012 7  89922595.855 7        46.000  
> 2021 11 07 01 37  0.0000000  0 19                     
G05  24194319.085 6 127142024.398 6        41.000    24194307.595 6  99071709.130 6        41.000  
G10  22885131.269 8 120262183.727 8        48.000    22885121.691 8  93710787.898 8        48.000  
G13  23723146.829 6 124665994.292 6        41.000    23723133.838 6  97142333.825 6        36.000  
G15  22375595.579 7 117584554.247 7        46.000    22375583.731 7  91624329.260 7        46.000  
G16  22447358.379 7 117961681.324 7        46.000    22447346.460 7  91918192.416 7        42.000  
G18  20318629.482 8 106775132.133 8        49.000    20318618.099 8  83201405.385 8        49.000  
G23  20674666.637 8 108646111.090 8        49.000    20674654.826 8  84659312.533 8        49.000  
G26  22126337.986 8 116274696.397 8        48.000    22126327.032 8  90603656.226 8        48.000  
G27  23955518.427 6 125887122.767 6        38.000    23955513.566 6  98093864.764 6        38.000  
G29  22491175.725 6 118191934.275 6        41.000    22491164.289 6  92097605.610 6        41.000  
R01  22104881.739 7 118163268.561 7        47.000    22104882.990 6  91904764.397 6        41.000  
R07  21299140.279 8 114015953.969 8        50.000    21299138.224 7  88679078.764 7        47.000  
R08  20075943.651 8 107505778.952 8        49.000    20075942.293 7  83615606.303 7        46.000  
R13  23230752.857 5 124050900.825 5        35.000    23230750.301 5  96484031.083 5        32.000  
R14  22168589.023 7 118171057.559 7        45.000    22168590.059 7  91910821.921 7        44.000  
R15  23780221.757 7 127074291.923 7        44.000    23780218.022 6  98835557.955 6        40.000  
R22  22198766.854 6 118498529.682 6        38.000    22198765.818 5  92165526.380 5        32.000  
R23  19746964.735 8 105632967.429 8        50.000                                                  
R24  21590228.915 8 115452673.437 8        49.000    21590228.361 7  89796530.747 7        46.000  
> 2021 11 07 01 38  0.0000000  0 19                     
G05  24235014.248 7 127355879.094 7        42.000    24235003.509 7  99238349.189 7        42.000  
G10  22849024.728 8 120072447.436 8        48.000    22849015.883 8  93562941.474 8        48.000  
G13  23720960.286 7 124654508.159 7        42.000    23720948.725 6  97133383.635 6        40.000  
G15  22363758.316 7 117522347.127 7        46.000    22363745.932 7  91575856.198 7        46.000  
G16  22437037.892 7 117907448.171 7        45.000    22437026.224 7  91875932.808 7        44.000  
G18  20323461.498 8 106800521.776 8        49.000    20323449.883 8  83221189.531 8        49.000  
G23  20655714.376 8 108546515.206 8        49.000    20655702.779 8  84581705.388 8        48.000  
G26  22145181.389 8 116373715.480 8        48.000    22145170.936 8  90680813.937 8        48.000  
G27  23917029.588 6 125684853.010 6        40.000    23917021.154 6  97936252.087 6        40.000  
G29  22523590.937 6 118362275.185 6        40.000    22523578.571 6  92230338.755 6        40.000  
R01  22056930.019 7 117906938.159 7        46.000    22056930.752 6  91705396.369 6        40.000  
R07  21324473.657 8 114151566.454 8        49.000    21324471.066 7  88784555.160 7        47.000  
R08  20057974.562 8 107409556.815 8        49.000    20057973.025 7  83540766.900 7        47.000  
R13  23273298.911 5 124278098.854 5        32.000    23273297.356 5  96660740.564 5        33.000  
R14  22180377.235 7 118233891.750 7        46.000    22180377.861 7  91959692.935 7        44.000  
R15  23755968.346 7 126944700.808 7        43.000    23755967.507 6  98734764.837 6        40.000  
R22  22228009.707 6 118654629.237 6        38.000    22228008.706 5  92286937.106 5        33.000  
R23  19739785.998 8 105594566.511 8        51.000                                                  
R24  21559998.959 8 115291017.360 8        49.000    21559997.458 7  89670798.285 7        46.000  
> 2021 11 07 01 39  0.0000000  0 19                     
G05  24275809.299 7 127570257.137 7        43.000    24275798.720 7  99405397.012 7        43.000  
G10  22813115.711 8 119883744.861 8        48.000    22813107.348 8  93415900.554 8        48.000  
G13  23719215.519 7 124645338.090 7        43.000    23719204.315 6  97126238.136 6        37.000  
G15  22352363.919 7 117462473.390 7        45.000    22352352.375 7  91529201.363 7        45.000  
G16  22427174.889 7 117855617.575 7        45.000    22427162.952 7  91835545.335 7        44.000  
G18  20328517.341 8 106827089.618 8        49.000    20328505.762 8  83241891.750 8        49.000  
G23  20637141.189 8 108448914.862 8        49.000    20637130.128 8  84505653.222 8        49.000  
G26  22164384.817 7 116474633.696 7        47.000    22164375.650 7  90759451.476 7        47.000  
G27  23878617.121 6 125482996.552 6        40.000    23878609.902 6  97778961.370 6        39.000  
G29  22556228.242 6 118533783.037 6        40.000    22556216.056 6  92363981.203 6        41.000  
R01  22009177.325 7 117651673.433 7        46.000    22009178.361 6  91506857.201 6        40.000  
R07  21350313.408 8 114289888.466 8        50.000    21350310.889 7  88892138.957 7        47.000  
R08  20040582.070 8 107316419.998 8        50.000    20040580.069 7  83468327.195 7        47.000  
R13  23315979.144 5 124506016.529 5        32.000    23315978.643 5  96838009.875 5        32.000  
R14  22192707.897 7 118299621.286 7        45.000    22192708.255 7  92010815.863 7        44.000  
R15  23732189.948 7 126817640.867 7        43.000    23732190.645 6  98635940.462 6        40.000  
R22  22257402.088 6 118811526.435 6        38.000    22257400.408 5  92408968.213 5        31.000  
R23  19732843.508 8 105557427.137 8        51.000                                                  
R24  21529852.059 8 115129806.262 8        49.000    21529850.487 7  89545411.896 7        46.000  
> 2021 11 07 01 40  0.0000000  0 19                     
G05  24316700.485 7 127785135.778 7        42.000    24316688.745 6  99572834.874 6        41.000  
G10  22777405.862 7 119696086.388 7        47.000    22777397.196 7  93269673.187 7        47.000  
G13  23717913.028 7 124638486.285 7        42.000    23717900.930 6  97120899.063 6        40.000  
G15  22341416.033 7 117404943.056 7        44.000    22341405.347 7  91484372.532 7        44.000  
G16  22417771.029 7 117806193.286 7        46.000    22417757.538 7  91797032.894 7        44.000  
G18  20333796.154 8 106854828.465 8        49.000    20333784.379 8  83263506.432 8        49.000  
G23  20618949.558 8 108353313.434 8        48.000    20618937.282 8  84431158.587 8        48.000  
G26  22183946.698 7 116577430.362 7        47.000    22183937.799 7  90839552.749 7        47.000  
G27  23840286.083 7 125281565.246 7        42.000    23840278.185 7  97622001.918 7        42.000  
G29  22589084.408 6 118706446.428 6        37.000    22589071.775 6  92498524.089 6        36.000  
R01  21961629.088 7 117397503.285 7        45.000    21961630.195 6  91309169.380 6        38.000  
R07  21376653.706 8 114430890.374 8        49.000    21376651.312 7  89001807.095 7        46.000  
R08  20023767.945 8 107226380.992 8        49.000    20023765.711 7  83398296.888 7        47.000  
R13  23358788.462 5 124734613.618 5        35.000    23358788.177 5  97015807.623 5        33.000  
R14  22205577.114 7 118368224.757 7        44.000    22205578.633 7  92064174.054 7        43.000  
R15  23708888.885 7 126693129.463 7        44.000    23708889.797 6  98539098.279 6        39.000  
R22  22286942.978 6 118969216.785 6        36.000    22286939.672 4  92531616.252 4        28.000  
R23  19726137.120 8 105521554.674 8        49.000                                                  
R24  21499789.733 8 114969046.055 8        48.000    21499787.553 7  89420376.216 7        46.000  
> 2021 11 07 01 41  0.0000000  0 19                     
G05  24357681.034 7 128000494.625 7        44.000    24357669.598 7  99740646.994 7        44.000  
G10  22741896.075 8 119509485.124 8        48.000    22741888.142 8  93124269.634 8        48.000  
G13  23717050.901 7 124633956.905 7        42.000    23717038.929 6  97117369.722 6        38.000  
G15  22330915.999 7 117349768.216 7        46.000    22330906.188 7  91441379.184 7        46.000  
G16  22408824.385 7 117759179.971 7        47.000    22408811.001 7  91760399.145 7        43.000  
G18  20339296.293 8 106883733.812 8        50.000    20339284.786 8  83286030.086 8        50.000  
G23  20601137.931 8 108259716.581 8        49.000    20601127.227 8  84358226.013 8        49.000  
G26  22203862.546 8 116682087.380 8        48.000    22203852.718 8  90921103.665 8        48.000  
G27  23802039.888 7 125080573.940 7        44.000    23802029.917 7  97465385.359 7        43.000  
G29  22622159.273 6 118880254.985 6        40.000    22622147.032 6  92633959.303 6        39.000  
R01  21914292.616 7 117144460.461 7        47.000    21914293.385 6  91112358.401 6        40.000  
R07  21403489.208 8 114574545.267 8        49.000    21403487.564 7  89113538.681 7        47.000  
R08  20007535.188 8 107139455.312 8        49.000    20007532.776 8  83330688.047 8        48.000  
R13  23401719.344 6 124963853.179 6        36.000    23401716.789 5  97194105.048 5        32.000  
R14  22218983.206 7 118439683.798 7        44.000    22218984.385 7  92119753.268 7        44.000  
R15  23686068.570 7 126571186.845 7        43.000    23686070.322 6  98444254.015 6        40.000  
R22  22316631.091 5 119127698.416 5        32.000    22316628.928 4  92654879.683 4        28.000  
R23  19719669.017 8 105486957.216 8        50.000                                                  
R24  21469811.427 8 114808743.965 8        48.000    21469809.426 7  89295696.815 7        45.000  
> 2021 11 07 01 42  0.0000000  0 19                     
G05  24398753.234 7 128216324.994 7        43.000    24398740.439 7  99908826.459 7        43.000  
G10  22706592.836 7 119323964.553 7        47.000    22706584.849 7  92979708.193 7        47.000  
G13  23716633.749 6 124631764.491 6        41.000    23716621.669 6  97115661.360 6        37.000  
G15  22320869.498 7 117296971.629 7        45.000    22320859.420 7  91400239.000 7        45.000  
G16  22400339.672 7 117714593.149 7        47.000    22400326.181 7  91725656.153 7        43.000  
G18  20345020.242 8 106913811.906 8        49.000    20345008.359 8  83309467.564 8        49.000  
G23  20583712.024 8 108168140.463 8        48.000    20583700.016 8  84286867.997 8        48.000  
G26  22224129.806 7 116788596.974 7        47.000    22224121.836 7  91004098.099 7        47.000  
G27  23763881.876 7 124880048.278 7        45.000    23763871.136 7  97309131.560 7        43.000  
G29  22655450.889 6 119055209.370 6        38.000    22655439.309 6  92770287.336 6        38.000  
R01  21867174.612 7 116892587.656 7        47.000    21867175.148 6  90916457.363 6        41.000  
R07  21430817.806 8 114720837.325 8        50.000    21430816.216 8  89227321.421 8        48.000  
R08  19991888.107 8 107055668.046 8        49.000    19991885.855 7  83265520.182 7        47.000  
R13  23444764.212 5 125193708.694 5        35.000    23444761.389 5  97372881.537 5        34.000  
R14  22232923.313 7 118513989.015 7        45.000    22232924.260 7  92177546.145 7        44.000  
R15  23663733.757 6 126451843.270 6        41.000    23663737.152 6  98351431.136 6        39.000  
R22  22346469.768 6 119286979.928 6        36.000    22346467.284 4  92778765.283 4        27.000  
R23  19713443.878 8 105453653.860 8        50.000                                                  
R24  21439922.663 8 114648919.425 8        48.000    21439922.180 7  89171388.833 7        46.000  
> 2021 11 07 01 43  0.0000000  0 19                     
G05  24439908.703 7 128432597.206 7        43.000    24439895.444 7 100077350.237 7        43.000  
G10  22671496.074 7 119139528.466 7        47.000    22671487.336 7  92835991.808 7        47.000  
G13  23716660.534 6 124631904.109 6        41.000    23716648.026 6  97115770.161 6        39.000  
G15  22311275.798 7 117246555.968 7        44.000    22311265.505 7  91360954.095 7        44.000  
G16  22392315.480 7 117672428.473 7        46.000    22392302.347 7  91692800.550 7        43.000  
G18  20350964.283 8 106945049.127 8        49.000    20350952.811 8  83333808.258 8        49.000  
G23  20566669.193 8 108078580.959 8        49.000    20566658.168 8  84217081.411 8        49.000  
G26  22244745.780 7 116896931.334 7        47.000    22244737.596 7  91088514.451 7        46.000  
G27  23725813.548 7 124679994.123 7        44.000    23725800.808 6  97153245.242 6        41.000  
G29  22688957.612 6 119231290.288 6        39.000    22688947.087 6  92907493.236 6        39.000  
R01  21820279.630 7 116641907.323 7        46.000    21820280.238 6  90721483.812 6        41.000  
R07  21458632.817 8 114869729.443 8        50.000    21458630.744 8  89343126.380 8        48.000  
R08  19976828.380 8 106975023.923 8        50.000    19976825.521 7  83202796.964 7        47.000  
R13  23487915.615 5 125424135.478 5        34.000    23487914.990 6  97552102.422 6        37.000  
R14  22247391.646 7 118591111.305 7        46.000    22247392.451 7  92237530.093 7        45.000  
R15  23641888.448 7 126335108.539 7        43.000    23641891.467 6  98260637.457 6        39.000  
R22  22376457.133 6 119447049.565 6        36.000    22376454.739 4  92903263.849 4        29.000  
R23  19707459.953 8 105421643.186 8        50.000                                                  
R24  21410124.209 8 114489571.421 8        49.000    21410123.137 7  89047451.459 7        45.000  
> 2021 11 07 01 44  0.0000000  0 19                     
G05  24481145.261 7 128649300.303 7        43.000    24481132.950 7 100246209.844 7        43.000  
G10  22636610.255 8 118956197.166 8        48.000    22636601.089 8  92693136.261 8        48.000  
G13  23717133.635 7 124634386.567 7        42.000    23717120.090 6  97117704.541 6        37.000  
G15  22302139.706 7 117198540.008 7        44.000    22302128.699 7  91323539.079 7        44.000  
G16  22384754.561 7 117632698.196 7        46.000    22384742.160 7  91661841.869 7        43.000  
G18  20357129.703 8 106977448.780 8        49.000    20357118.410 8  83359054.727 8        49.000  
G23  20550013.244 8 107991050.785 8        48.000    20550001.397 8  84148876.088 8        48.000  
G26  22265705.519 7 117007079.303 7        46.000    22265698.264 7  91174344.001 7        46.000  
G27  23687837.622 7 124480434.516 7        43.000    23687825.989 6  96997744.207 6        41.000  
G29  22722679.728 6 119408495.445 6        41.000    22722667.488 6  93045575.134 6        41.000  
R01  21773614.820 7 116392459.531 7        47.000    21773615.552 6  90527468.933 6        40.000  
R07  21486929.093 8 115021201.599 8        50.000    21486927.092 8  89460938.057 8        48.000  
R08  19962359.815 8 106897543.712 8        50.000    19962356.866 7  83142534.608 7        47.000  
R13  23531167.818 5 125655103.586 5        35.000    23531168.407 5  97731744.309 5        33.000  
R14  22262385.812 7 118671037.533 7        46.000    22262386.455 7  92299694.868 7        45.000  
R15  23620537.377 7 126221009.024 7        43.000    23620538.807 6  98171893.399 6        40.000  
R22  22406592.365 6 119607913.394 6        36.000    22406591.239 4  93028380.119 4        29.000  
R23  19701720.405 8 105390941.340 8        50.000                                                  
R24  21380418.441 8 114330716.498 8        50.000    21380415.493 7  88923897.714 7        46.000  
> 2021 11 07 01 45  0.0000000  0 19                     
G05  24522459.515 7 128866407.919 7        43.000    24522447.757 7 100415384.596 7        43.000  
G10  22601934.326 8 118773977.248 8        48.000    22601925.231 8  92551146.767 8        48.000  
G13  23718050.298 7 124639208.482 7        43.000    23718037.182 6  97121461.901 6        38.000  
G15  22293460.114 7 117152928.065 7        47.000    22293448.874 7  91287997.377 7        47.000  
G16  22377657.574 7 117595399.704 7        47.000    22377645.066 7  91632778.101 7        44.000  
G18  20363514.144 8 107011000.447 8        49.000    20363502.994 8  83385198.888 8        49.000  
G23  20533741.909 8 107905548.374 8        49.000    20533730.347 8  84082250.873 8        49.000  
G26  22287006.359 7 117119015.704 7        46.000    22286999.587 7  91261567.157 7        47.000  
G27  23649960.868 7 124281378.699 7        43.000    23649947.198 6  96842635.817 6        39.000  
G29  22756611.627 6 119586808.224 6        38.000    22756599.869 6  93184520.141 6        39.000  
R01  21727186.095 7 116144270.385 7        47.000    21727186.935 6  90334432.995 6        41.000  
R07  21515700.668 8 115175219.754 8        49.000    21515698.077 7  89580729.937 7        47.000  
R08  19948483.142 8 106823233.596 8        51.000    19948480.212 7  83084737.876 7        47.000  
R13  23574515.119 5 125886569.691 5        35.000    23574513.207 5  97911773.412 5        33.000  
R14  22277900.644 7 118753740.649 7        46.000    22277901.413 7  92364019.452 7        45.000  
R15  23599681.797 7 126109556.945 7        45.000    23599682.083 6  98085208.449 6        41.000  
R22  22436874.534 6 119769563.026 6        37.000    22436872.693 4  93154107.627 4        28.000  
R23  19696225.966 8 105361550.802 8        50.000                                                  
R24  21350804.806 8 114172356.235 8        49.000    21350802.162 7  88800728.641 7        46.000  
> 2021 11 07 01 46  0.0000000  0 19                     
G05  24563849.390 7 129083915.343 7        42.000    24563837.364 7 100584870.898 7        42.000  
G10  22567475.845 8 118592895.889 8        48.000    22567465.892 8  92410044.437 8        48.000  
G13  23719415.884 7 124646386.736 7        42.000    23719403.054 6  97127055.329 6        37.000  
G15  22285243.151 7 117109745.483 7        47.000    22285230.947 7  91254348.638 7        47.000  
G16  22371027.434 7 117560550.327 7        47.000    22371013.693 7  91605622.737 7        43.000  
G18  20370120.090 8 107045714.403 8        49.000    20370108.564 8  83412248.703 8        49.000  
G23  20517861.082 8 107822092.763 8        48.000    20517850.147 8  84017220.532 8        48.000  
G26  22308646.496 7 117232735.881 7        46.000    22308640.135 7  91350180.234 7        46.000  
G27  23612181.983 6 124082856.834 6        39.000    23612170.172 6  96687943.445 6        40.000  
G29  22790754.308 6 119766233.174 6        36.000    22790743.891 6  93324331.747 6        36.000  
R01  21681001.103 7 115897386.265 7        46.000    21681001.943 6  90142412.031 6        40.000  
R07  21544944.736 8 115331770.157 8        48.000    21544943.217 7  89702491.301 7        47.000  
R08  19935203.456 8 106752120.697 8        50.000    19935199.990 7  83029427.867 7        47.000  
R13  23617950.658 5 126118513.539 5        34.000    23617947.602 6  98092174.131 6        36.000  
R14  22293934.751 7 118839213.740 7        45.000    22293936.038 7  92430498.446 7        45.000  
R15  23579328.516 7 126000784.711 7        46.000    23579326.943 6  98000607.801 6        41.000  
R22  22467306.856 6 119932011.311 6        38.000    22467304.158 4  93280456.295 4        29.000  
R23  19690981.051 8 105333494.736 8        50.000                                                  
R24  21321287.200 8 114014515.510 8        48.000    21321285.216 7  88677963.644 7        47.000  
> 2021 11 07 01 47  0.0000000  0 19                     
G05  24605308.739 7 129301786.048 7        42.000    24605296.696 7 100754640.272 7        43.000  
G10  22533233.026 8 118412947.642 8        48.000    22533223.216 8  92269825.078 8        48.000  
G13  23721226.731 6 124655905.638 6        41.000    23721214.723 6  97134472.701 6        39.000  
G15  22277486.583 7 117068984.597 7        47.000    22277474.147 7  91222586.948 7        47.000  
G16  22364859.119 7 117528135.969 7        47.000    22364845.556 7  91580364.812 7        43.000  
G18  20376942.858 8 107081568.629 8        49.000    20376931.190 8  83440187.068 8        49.000  
G23  20502366.602 8 107740670.233 8        49.000    20502354.827 8  83953774.450 8        49.000  
G26  22330618.855 7 117348202.567 7        45.000    22330611.510 7  91440154.239 7        45.000  
G27  23574505.202 6 123884866.814 6        41.000    23574495.070 6  96533665.572 6        40.000  
G29  22825105.522 6 119946742.013 6        41.000    22825092.888 6  93464988.067 6        40.000  
R01  21635063.151 7 115651821.723 7        47.000    21635063.401 6  89951417.515 6        40.000  
R07  21574653.881 8 115490806.321 8        49.000    21574653.005 7  89826186.140 7        47.000  
R08  19922519.273 8 106684198.525 8        51.000    19922515.485 7  82976599.520 7        47.000  
R13  23661464.159 6 126350879.600 6        36.000    23661464.373 5  98272903.336 5        34.000  
R14  22310481.556 7 118927416.428 7        45.000    22310482.020 7  92499100.490 7        44.000  
R15  23559476.156 7 125894691.799 7        47.000    23559473.190 6  97918091.050 6        41.000  
R22  22497885.311 6 120095237.799 6        38.000    22497881.826 5  93407410.221 5        30.000  
R23  19685984.336 8 105306763.222 8        50.000                                                  
R24  21291864.191 7 113857185.259 7        47.000    21291863.048 7  88555595.688 7        46.000  
> 2021 11 07 01 48  0.0000000  0 19                     
G05  24646837.260 7 129520017.192 7        42.000    24646824.913 6 100924690.527 6        40.000  
G10  22499210.906 8 118234161.401 8        48.000    22499201.704 8  92130511.152 8        48.000  
G13  23723487.287 6 124667783.211 6        41.000    23723475.226 6  97143727.971 6        39.000  
G15  22270195.754 7 117030672.453 7        47.000    22270184.193 7  91192733.332 7        47.000  
G16  22359157.114 7 117498175.756 7        47.000    22359144.284 7  91557019.177 7        43.000  
G18  20383985.147 8 107118575.351 8        49.000    20383973.407 8  83469023.463 8        49.000  
G23  20487263.329 8 107661301.123 8        49.000    20487251.500 8  83891928.391 8        49.000  
G26  22352924.077 7 117465412.483 7        46.000    22352916.018 7  91531486.641 7        46.000  
G27  23536934.509 6 123687441.071 6        40.000    23536925.556 6  96379827.319 6        39.000  
G29  22859662.497 5 120128341.272 5        35.000    22859650.203 6  93606493.821 6        37.000  
R01  21589380.994 7 115407625.263 7        45.000    21589381.976 6  89761486.968 6        41.000  
R07  21604826.102 8 115652315.672 8        49.000    21604824.154 7  89951804.549 7        46.000  
R08  19910436.133 8 106619494.116 8        51.000    19910432.630 7  82926273.862 7        47.000  
R13  23705054.783 5 126583648.311 5        34.000    23705055.229 6  98453945.579 6        38.000  
R14  22327539.933 7 119018342.576 7        47.000    22327538.825 7  92569820.782 7        43.000  
R15  23540130.509 7 125791311.468 7        47.000    23540126.810 6  97837684.147 6        41.000  
R22  22528611.417 6 120259256.579 6        37.000    22528608.540 5  93534980.337 5        30.000  
R23  19681239.538 8 105281381.851 8        50.000                                                  
R24  21262542.983 8 113700391.062 8        49.000    21262542.358 7  88433644.662 7        47.000  
> 2021 11 07 01 49  0.0000000  0 19                     
G05  24688428.394 7 129738583.045 7        43.000    24688416.529 6 101095001.588 6        40.000  
G10  22465411.238 8 118056541.911 8        49.000    22465401.017 8  91992106.391 8        49.000  
G13  23726194.337 6 124682013.502 6        38.000    23726183.437 6  97154816.566 6        39.000  
G15  22263371.556 7 116994809.230 7        47.000    22263359.388 7  91164787.970 7        47.000  
G16  22353921.544 7 117470663.658 7        45.000    22353908.946 7  91535581.164 7        43.000  
G18  20391244.438 8 107156722.893 8        49.000    20391232.716 8  83498748.811 8        49.000  
G23  20472550.226 8 107583981.459 8        48.000    20472538.932 8  83831679.332 8        49.000  
G26  22375554.158 7 117584338.395 7        45.000    22375547.404 7  91624156.145 7        45.000  
G27  23499475.104 7 123490587.992 7        43.000    23499466.045 7  96226435.364 7        42.000  
G29  22894424.769 6 120311011.253 6        38.000    22894411.564 6  93748834.166 6        38.000  
R01  21543959.385 7 115164821.639 7        45.000    21543960.225 6  89572639.742 6        41.000  
R07  21635452.981 8 115816261.752 8        49.000    21635450.069 7  90079318.174 7        47.000  
R08  19898954.446 8 106558009.785 8        52.000    19898951.587 8  82878452.722 8        48.000  
R13  23748711.218 5 126816776.221 5        31.000    23748713.309 6  98635267.381 6        36.000  
R14  22345103.234 7 119111961.796 7        46.000    22345100.161 7  92642635.702 7        42.000  
R15  23521293.825 8 125690653.059 8        48.000    23521288.660 6  97759394.310 6        41.000  
R22  22559483.835 6 120424058.738 6        36.000    22559481.316 5  93663159.706 5        30.000  
R23  19676746.730 8 105257351.522 8        50.000                                                  
R24  21233322.681 8 113544134.996 8        49.000    21233321.949 7  88312112.155 7        46.000  
> 2021 11 07 01 50  0.0000000  0 19                     
G05  24730081.908 7 129957468.027 7        43.000    24730069.221 6 101265561.299 6        40.000  
G10  22431835.773 8 117880105.289 8        48.000    22431826.428 8  91854623.373 8        49.000  
G13  23729350.114 7 124698601.569 7        43.000    23729339.517 6  97167742.335 6        38.000  
G15  22257014.616 7 116961408.443 7        47.000    22257003.090 7  91138761.396 7        47.000  
G16  22349152.158 7 117445606.444 7        45.000    22349140.240 7  91516056.039 7        44.000  
G18  20398720.515 8 107196011.184 8        49.000    20398708.972 8  83529363.082 8        49.000  
G23  20458227.292 8 107508718.559 8        49.000    20458216.017 8  83773032.957 8        49.000  
G26  22398508.276 7 117704964.158 7        46.000    22398501.289 7  91718150.236 7        46.000  
G27  23462127.756 7 123294327.850 7        44.000    23462118.250 7  96073505.374 7        44.000  
G29  22929386.727 6 120494746.737 6        39.000    22929375.345 6  93892004.621 6        39.000  
R01  21498805.239 7 114923446.818 7        45.000    21498806.115 7  89384903.798 7        42.000  
R07  21666529.625 8 115982618.978 8        49.000    21666528.052 8  90208707.114 8        48.000  
R08  19888076.642 8 106499759.222 8        52.000    19888073.747 8  82833146.729 8        49.000  
R13  23792429.62315 127050245.66015        33.0001   23792430.48115  98816858.83315        34.0001 
R14  22363166.958 7 119208254.356 7        46.000    22363165.064 7  92717529.876 7        43.000  
R15  23502968.373 7 125592736.340 7        47.000    23502963.584 6  97683236.860 6        40.000  
R22  22590503.387 5 120589645.176 5        33.000    22590501.654 5  93791949.156 5        31.000  
R23  19672509.806 8 105234684.942 8        51.000                                                  
R24  21204205.484 8 113388431.009 8        50.000    21204203.679 7  88191009.073 7        46.000  
> 2021 11 07 01 51  0.0000000  0 19                     
G05  24771790.638 6 130176646.252 6        41.000    24771777.272 6 101436349.458 6        38.000  
G10  22398486.297 8 117704855.610 8        48.000    22398477.631 8  91718065.218 8        49.000  
G13  23732955.547 7 124717539.607 7        45.000    23732943.056 5  97182499.234 5        35.000  
G15  22251126.469 7 116930470.257 7        45.000    22251115.747 7  91114653.735 7        45.000  
G16  22344849.387 7 117422997.458 7        45.000    22344837.397 7  91498438.613 7        43.000  
G18  20406411.540 8 107236428.173 8        50.000    20406399.853 8  83560856.838 8        48.000  
G23  20444295.977 8 107435507.542 8        49.000    20444284.737 8  83715985.409 8        49.000  
G26  22421781.446 7 117827261.587 7        47.000    22421772.547 7  91813446.915 7        47.000  
G27  23424896.664 7 123098668.765 7        46.000    23424886.389 7  95921043.745 7        44.000  
G29  22964549.516 7 120679528.444 7        42.000    22964538.133 7  94035990.403 7        42.000  
R01  21453922.935 7 114683524.401 7        45.000    21453923.418 6  89198297.486 6        41.000  
R07  21698050.456 8 116151349.274 8        48.000    21698047.865 7  90339941.786 7        47.000  
R08  19877802.937 8 106444743.070 8        51.000    19877800.203 8  82790356.384 8        50.000  
R13  23836202.547 5 127283985.147 5        35.000    23836201.010 5  98998656.155 5        34.000  
R14  22381726.011 7 119307187.955 7        44.000    22381726.119 7  92794478.178 7        43.000  
R15  23485157.478 7 125497568.469 7        46.000    23485153.851 6  97609217.379 6        40.000  
R22  22621668.035 5 120756005.556 5        32.000    22621667.124 5  93921340.578 5        32.000  
R23  19668528.016 8 105213382.630 8        50.000                                                  
R24  21175192.480 8 113233280.473 8        50.000    21175189.978 7  88070336.459 7        47.000  
> 2021 11 07 01 52  0.0000000  0 19                     
G05  24813551.742 6 130396114.639 6        41.000    24813540.735 6 101607363.831 6        40.000  
G10  22365368.368 8 117530820.147 8        49.000    22365359.934 8  91582453.213 8        49.000  
G13  23737010.600 7 124738842.828 7        45.000    23736996.823 6  97199099.105 6        36.000  
G15  22245711.708 7 116902018.493 7        44.000    22245701.433 7  91092483.555 7        44.000  
G16  22341016.625 7 117402852.925 7        46.000    22341003.938 7  91482741.562 7        43.000  
G18  20414319.297 8 107277985.160 8        49.000    20414307.611 8  83593238.914 8        49.000  
G23  20430757.690 8 107364366.474 8        49.000    20430747.576 8  83660550.835 8        49.000  
G26  22445371.058 7 117951225.699 7        47.000    22445362.838 7  91910042.274 7        47.000  
G27  23387784.580 7 122903642.597 7        46.000    23387774.412 7  95769075.307 7        44.000  
G29  22999911.937 7 120865360.935 7        42.000    22999900.447 7  94180794.843 7        43.000  
R01  21409320.692 7 114445101.625 7        47.000    21409321.675 6  89012857.581 6        41.000  
R07  21730011.795 8 116322438.612 8        49.000    21730008.632 7  90473011.227 7        47.000  
R08  19868137.064 8 106392984.856 8        51.000    19868134.795 8  82750100.033 8        50.000  
R13  23880024.700 5 127517988.265 5        34.000    23880022.573 5  99180658.585 5        33.000  
R14  22400778.285 7 119408753.782 7        43.000    22400778.714 7  92873473.756 7        43.000  
R15  23467867.519 7 125405180.334 7        46.000    23467864.427 6  97537359.913 6        39.000  
R22  22652980.907 5 120923153.288 5        34.000    22652979.906 5  94051344.309 5        32.000  
R23  19664805.148 8 105193469.155 8        50.000                                                  
R24  21146287.155 8 113078709.141 8        49.000    21146284.368 7  87950114.349 7        46.000  
> 2021 11 07 01 53  0.0000000  0 19                     
G05  24855365.113 7 130615848.050 7        42.000    24855354.981 6 101778584.714 6        39.000  
G10  22332482.147 8 117358003.549 8        49.000    22332473.856 8  91447790.965 8        49.000  
G13  23741511.949 7 124762504.225 7        43.000    23741499.370 6  97217536.567 6        37.000  
G15  22240769.815 7 116876053.338 7        44.000    22240760.434 7  91072251.025 7        44.000  
G16  22337651.530 7 117385166.182 7        47.000    22337638.575 7  91468959.688 7        44.000  
G18  20422441.340 8 107320670.981 8        49.000    20422430.547 8  83626500.603 8        49.000  
G23  20417612.862 8 107295290.682 8        50.000    20417601.908 8  83606725.573 8        50.000  
G26  22469272.037 7 118076828.634 7        47.000    22469264.479 7  92007914.673 7        46.000  
G27  23350792.932 7 122709258.706 7        46.000    23350782.658 7  95617607.361 7        44.000  
G29  23035471.775 6 121052225.830 6        41.000    23035458.981 6  94326403.813 6        41.000  
R01  21365004.175 7 114208203.807 7        45.000    21365004.944 6  88828603.776 6        41.000  
R07  21762405.599 8 116495849.750 8        49.000    21762403.241 7  90607886.521 7        47.000  
R08  19859080.007 8 106344484.753 8        51.000    19859077.719 8  82712377.753 8        50.000  
R13  23923887.540 5 127752213.028 5        33.000    23923885.646 5  99362833.408 5        34.000  
R14  22420319.777 7 119512919.523 7        43.000    22420320.778 7  92954491.476 7        43.000  
R15  23451099.889 7 125315578.723 7        45.000    23451095.529 6  97467669.750 6        38.000  
R22  22684439.608 5 121091078.690 5        35.000    22684438.107 5  94181952.884 5        32.000  
R23  19661342.292 8 105174945.899 8        50.000                                                  
R24  21117490.260 8 112924720.765 8        49.000    21117487.776 7  87830345.635 7        47.000  
> 2021 11 07 01 54  0.0000000  0 19                     
G05  24897227.034 7 130835828.594 7        43.000    24897215.347 6 101949998.091 6        39.000  
G10  22299830.617 8 117186417.452 8        50.000    22299821.736 8  91314087.563 8        50.000  
G13  23746461.579 7 124788523.060 7        42.000    23746451.269 6  97237810.975 6        39.000  
G15  22236303.364 7 116852582.211 7        46.000    22236293.679 7  91053961.858 7        46.000  
G16  22334752.996 7 117369937.554 7        47.000    22334740.684 7  91457093.226 7        43.000  
G18  20430778.383 8 107364481.742 8        49.000    20430767.607 8  83660638.855 8        49.000  
G23  20404861.598 8 107228282.402 8        49.000    20404850.770 8  83554511.341 8        49.000  
G26  22493481.704 7 118204049.688 7        46.000    22493473.449 7  92107047.950 7        46.000  
G27  23313928.191 7 122515533.684 7        44.000    23313918.667 7  95466652.807 7        43.000  
G29  23071223.473 6 121240112.024 6        37.000    23071212.126 6  94472808.713 6        37.000  
R01  21320978.637 7 113972862.294 7        44.000    21320979.977 7  88645560.430 7        42.000  
R07  21795227.957 8 116671551.666 8        49.000    21795226.617 7  90744543.633 7        46.000  
R08  19850632.855 8 106299249.404 8        51.000    19850630.335 8  82677194.748 8        50.000  
R13  23967784.778 5 127986624.233 5        30.000    23967784.260 5  99545153.255 5        32.000  
R14  22440343.733 7 119619659.802 7        42.000    22440345.734 7  93037511.631 7        44.000  
R15  23434856.536 7 125228777.806 7        45.000    23434851.747 6  97400157.914 6        40.000  
R22  22716042.548 6 121259778.917 6        36.000    22716041.029 5  94313164.130 5        31.000  
R23  19658141.450 8 105157821.510 8        51.000                                                  
R24  21088804.903 8 112771324.937 8        50.000    21088802.937 7  87711037.765 7        47.000  
> 2021 11 07 01 55  0.0000000  0 19                     
G05  24939132.180 7 131056040.919 7        44.000    24939120.082 6 102121592.098 6        38.000  
G10  22267414.977 8 117016076.498 8        49.000    22267407.079 8  91181354.402 8        49.000  
G13  23751861.259 7 124816900.679 7        42.000    23751851.609 6  97259923.423 6        39.000  
G15  22232313.890 7 116831614.972 7        47.000    22232303.973 7  91037623.764 7        47.000  
G16  22332322.720 7 117357169.253 7        47.000    22332310.551 6  91447143.894 6        41.000  
G18  20439328.853 8 107409416.490 8        49.000    20439318.489 8  83695652.956 8        49.000  
G23  20392503.811 8 107163346.566 8        50.000    20392494.876 8  83503912.008 8        50.000  
G26  22517994.448 7 118332870.990 7        46.000    22517987.872 7  92207428.145 7        46.000  
G27  23277191.660 7 122322487.494 7        42.000    23277182.725 6  95316227.207 6        41.000  
G29  23107169.979 6 121429011.584 6        41.000    23107159.454 6  94620003.042 6        41.000  
R01  21277250.887 7 113739111.722 7        46.000    21277252.155 7  88463754.483 7        42.000  
R07  21828474.150 8 116849517.146 8        50.000    21828471.612 7  90882961.240 7        45.000  
R08  19842796.913 8 106257287.777 8        51.000    19842794.108 8  82644557.962 8        50.000  
R13  24011711.358 5 128221190.294 5        35.000    24011709.428 5  99727593.583 5        32.000  
R14  22460848.133 7 119728951.509 7        44.000    22460848.651 7  93122516.271 7        44.000  
R15  23419140.051 7 125144793.850 7        44.000    23419136.066 6  97334837.083 6        40.000  
R22  22747791.048 6 121429254.677 6        36.000    22747789.708 5  94444978.563 5        32.000  
R23  19655204.068 8 105142108.157 8        50.000                                                  
R24  21060232.425 8 112618535.736 8        50.000    21060229.977 7  87592201.751 7        46.000  
> 2021 11 07 01 56  0.0000000  0 19                     
G05  24981076.513 7 131276464.556 7        43.000    24981067.257 6 102293350.852 6        38.000  
G10  22235238.173 8 116846988.712 8        49.000    22235231.205 8  91049597.757 8        49.000  
G13  23757709.879 7 124847632.438 7        43.000    23757699.676 6  97283870.274 6        37.000  
G15  22228801.287 7 116813154.342 7        47.000    22228790.512 7  91023238.872 7        47.000  
G16  22330360.093 7 117346858.962 7        47.000    22330348.264 7  91439109.881 7        42.000  
G18  20448091.750 8 107455468.077 8        49.000    20448081.905 8  83731537.305 8        49.000  
G23  20380541.179 8 107100481.501 8        49.000    20380531.619 8  83454926.253 8        49.000  
G26  22542808.088 7 118463268.001 7        45.000    22542801.923 7  92309036.216 7        45.000  
G27  23240589.379 7 122130133.543 7        42.000    23240578.979 6  95166341.057 6        41.000  
G29  23143306.040 6 121618909.712 6        41.000    23143295.211 7  94767975.594 7        42.000  
R01  21233826.034 7 113506980.531 7        46.000    21233827.428 7  88283208.003 7        42.000  
R07  21862136.173 8 117029712.019 8        48.000    21862133.010 7  91023112.817 7        45.000  
R08  19835572.825 8 106218602.366 8        51.000    19835569.840 8  82614469.342 8        49.000  
R13  24055660.559 5 128455872.961 5        34.000    24055658.522 5  99910124.567 5        31.000  
R14  22481825.240 7 119840765.163 7        45.000    22481825.401 7  93209482.358 7        43.000  
R15  23403952.418 7 125063636.284 7        45.000    23403949.702 6  97271714.538 6        41.000  
R22  22779684.520 6 121599500.321 6        38.000    22779682.930 5  94577391.842 5        31.000  
R23  19652531.381 8 105127810.946 8        50.000                                                  
R24  21031774.826 8 112466360.601 8        50.000    21031773.039 7  87473843.327 7        47.000  
> 2021 11 07 01 57  0.0000000  0 19                     
G05  25023058.567 7 131497085.432 7        42.000    25023048.596 6 102465263.292 6        37.000  
G10  22203303.299 8 116679169.514 8        49.000    22203296.384 8  90918829.544 8        49.000  
G13  23764005.190 7 124880721.053 7        42.000    23763996.059 6  97309653.662 6        38.000  
G15  22225766.894 7 116797209.835 7        47.000    22225756.209 7  91010814.603 7        47.000  
G16  22328865.886 7 117339008.215 7        46.000    22328854.700 7  91432992.399 7        44.000  
G18  20457068.057 8 107502636.606 8        50.000    20457057.908 8  83768292.003 8        50.000  
G23  20368973.274 8 107039692.574 8        49.000    20368963.392 8  83407558.280 8        49.000  
G26  22567918.014 7 118595223.579 7        47.000    22567911.028 7  92411858.722 7        47.000  
G27  23204121.848 7 121938492.951 7        44.000    23204111.662 7  95017010.757 7        42.000  
G29  23179631.959 7 121809798.883 7        42.000    23179621.041 7  94916720.432 7        42.000  
R01  21190710.940 7 113276504.274 7        47.000    21190711.709 7  88103948.735 7        42.000  
R07  21896209.219 8 117212109.391 8        48.000    21896206.860 7  91164977.449 7        46.000  
R08  19828962.108 8 106183201.325 8        51.000    19828958.820 8  82586935.220 8        49.000  
R13  24099626.164 5 128690641.500 5        35.000    24099622.841 5 100092722.345 5        34.000  
R14  22503270.194 7 119955077.948 7        43.000    22503268.407 7  93298392.309 7        42.000  
R15  23389297.067 7 124985321.766 7        45.000    23389295.263 7  97210803.198 7        42.000  
R22  22811721.820 6 121770516.596 6        38.000    22811720.373 5  94710404.488 5        31.000  
R23  19650126.067 8 105114942.982 8        50.000                                                  
R24  21003434.717 8 112314814.923 8        49.000    21003433.359 7  87355974.504 7        47.000  
> 2021 11 07 01 58  0.0000000  0 19                     
G05  25065075.931 7 131717887.065 7        42.000    25065063.923 6 102637316.526 6        38.000  
G10  22171612.229 8 116512630.331 8        49.000    22171604.903 8  90789058.784 8        49.000  
G13  23770749.763 7 124916163.773 7        45.000    23770740.024 6  97337271.352 6        36.000  
G15  22223213.161 7 116783787.867 7        46.000    22223202.511 7  91000355.916 7        46.000  
G16  22327840.061 7 117333616.753 7        46.000    22327829.161 7  91428791.242 7        44.000  
G18  20466255.987 8 107550918.665 8        49.000    20466245.748 8  83805914.389 8        49.000  
G23  20357800.971 8 106980981.219 8        50.000    20357791.429 8  83361809.172 8        50.000  
G26  22593321.314 7 118728716.559 7        46.000    22593314.524 7  92515879.194 7        46.000  
G27  23167792.891 7 121747583.139 7        44.000    23167783.099 7  94868249.902 7        43.000  
G29  23216142.464 7 122001668.025 7        42.000    23216132.351 7  95066228.754 7        42.000  
R01  21147911.021 8 113047714.638 8        48.000    21147911.807 6  87926001.289 6        41.000  
R07  21930688.356 8 117396678.549 8        48.000    21930686.069 7  91308531.211 7        47.000  
R08  19822965.764 8 106151089.382 8        51.000    19822962.441 8  82561959.262 8        49.000  
R13  24143599.328 5 128925461.732 5        32.000    24143598.346 5 100275360.217 5        34.000  
R14  22525178.617 7 120071863.340 7        46.000    22525177.313 7  93389225.308 7        43.000  
R15  23375176.715 7 124909862.693 7        46.000    23375174.589 7  97152112.833 7        42.000  
R22  22843902.269 6 121942301.804 6        37.000    22843901.447 5  94844015.178 5        30.000  
R23  19647989.468 8 105103513.722 8        50.000                                                  
R24  20975213.525 8 112163910.286 8        49.000    20975212.668 7  87238604.219 7        46.000  
> 2021 11 07 01 59  0.0000000  0 18                     
G05  25107125.280 7 131938845.397 7        42.000    25107112.396 6 102809491.820 6        40.000  
G10  22140165.519 8 116347374.497 8        49.000    22140157.960 8  90660288.016 8        49.000  
G13  23777942.509 7 124953950.187 7        45.000    23777930.609 6  97366715.273 6        37.000  
G15  22221138.675 7 116772885.367 7        45.000    22221127.560 7  90991860.489 7        45.000  
G16  22327280.135 7 117330674.799 7        46.000    22327269.664 7  91426498.805 7        44.000  
G18  20475653.789 8 107600302.806 8        49.000    20475643.264 8  83844395.528 8        49.000  
G23  20347023.484 8 106924340.566 8        50.000    20347013.281 8  83317673.619 8        50.000  
G26  22619011.412 7 118863717.748 7        45.000    22619004.872 7  92621074.901 7        45.000  
G27  23131604.242 7 121557413.759 7        45.000    23131594.718 7  94720065.980 7        43.000  
G29  23252837.522 7 122194497.638 7        42.000    23252826.729 7  95216485.604 7        42.000  
R01  21105430.993 8 112820634.992 8        49.000    21105431.636 6  87749383.868 6        41.000  
R07  21965565.723 8 117583380.594 8        48.000    21965563.739 7  91453743.861 7        47.000  
R08  19817582.346 8 106122261.535 8        51.000    19817579.326 8  82539537.603 8        48.000  
R14  22547545.148 7 120191085.854 7        45.000    22547542.825 7  93481953.840 7        43.000  
R15  23361591.129 7 124837261.992 7        46.000    23361588.824 7  97095645.614 7        42.000  
R22  22876225.705 6 122114845.123 6        37.000    22876223.972 5  94978215.493 5        30.000  
R23  19646121.780 8 105093523.886 8        51.000                                                  
R24  20947114.183 8 112013649.623 8        50.000    20947113.164 7  87121734.851 7        47.000  
> 2021 11 07 02 00  0.0000000  0 18                     
G05  25149201.271 6 132159949.885 6        40.000    25149188.281 6 102981781.024 6        39.000  
G10  22108967.241 8 116183421.160 8        48.000    22108957.895 8  90532532.200 8        48.000  
G13  23785582.124 7 124994086.120 7        44.000    23785568.258 6  97397989.989 6        38.000  
G15  22219546.759 7 116764514.918 7        47.000    22219534.751 7  90985338.074 7        47.000  
G16  22327188.556 7 117330188.443 7        46.000    22327177.209 7  91426119.797 7        42.000  
G18  20485262.910 8 107650793.468 8        49.000    20485251.045 8  83883738.906 8        49.000  
G23  20336641.528 8 106869779.269 8        50.000    20336630.271 8  83275158.339 8        50.000  
G26  22644986.485 7 119000213.593 7        45.000    22644978.229 7  92727435.299 7        45.000  
G27  23095562.565 7 121368010.311 7        45.000    23095552.469 7  94572478.860 7        43.000  
G29  23289714.754 6 122388285.193 6        41.000    23289704.247 6  95367488.832 6        41.000  
R01  21063278.325 8 112595304.938 8        49.000    21063278.807 6  87574127.201 6        41.000  
R07  22000836.762 8 117772191.458 8        49.000    22000834.975 7  91600596.778 7        47.000  
R08  19812814.051 8 106096729.292 8        51.000    19812811.370 8  82519679.210 8        49.000  
R14  22570363.801 7 120312725.713 7        45.000    22570362.389 7  93576562.554 7        43.000  
R15  23348543.222 7 124767538.969 7        45.000    23348541.614 7  97041416.547 7        43.000  
R22  22908691.969 6 122288151.930 6        39.000    22908689.932 5  95113009.614 5        30.000  
R23  19644526.291 8 105084990.946 8        50.000                                                  
R24  20919139.423 8 111864053.739 8        50.000    20919137.851 7  87005382.525 7        47.000  
> 2021 11 07 02 01  0.0000000  0 17                     
G10  22078020.362 8 116020796.288 8        49.000    22078011.910 8  90405811.541 8        49.000  
G13  23793666.856 6 125036582.344 6        41.000    23793654.848 6  97431103.928 6        38.000  
G15  22218439.487 7 116758696.353 7        47.000    22218427.711 7  90980804.164 7        47.000  
G16  22327565.861 7 117332170.364 7        46.000    22327554.264 7  91427664.119 7        43.000  
G18  20495083.207 8 107702402.217 8        49.000    20495071.949 8  83923953.534 8        49.000  
G23  20326656.962 8 106817312.933 8        50.000    20326646.115 8  83234275.505 8        50.000  
G26  22671243.442 7 119138197.549 7        45.000    22671235.043 7  92834955.219 7        45.000  
G27  23059672.329 7 121179405.555 7        46.000    23059662.322 7  94425514.131 7        43.000  
G29  23326773.249 6 122583032.627 6        40.000    23326763.135 6  95519240.075 6        40.000  
R01  21021461.952 8 112371771.231 8        48.000    21021461.952 7  87400267.746 7        42.000  
R07  22036499.633 8 117963096.029 8        49.000    22036497.435 7  91749078.111 7        45.000  
R08  19808664.470 8 106074509.755 8        51.000    19808661.951 8  82502397.364 8        49.000  
R14  22593633.933 7 120436770.289 7        46.000    22593633.629 7  93673041.620 7        43.000  
R15  23336038.284 7 124700719.181 7        45.000    23336037.926 7  96989445.622 7        43.000  
R22  22941303.204 6 122462234.619 6        36.000    22941302.006 4  95248407.217 4        29.000  
R23  19643208.003 8 105077938.936 8        50.000                                                  
R24  20891293.964 8 111715149.139 8        49.000    20891291.641 7  86889567.873 7        47.000  
> 2021 11 07 02 02  0.0000000  0 17                     
G10  22047324.651 8 115859490.042 8        49.000    22047316.413 8  90280118.414 8        49.000  
G13  23802197.010 7 125081414.753 7        43.000    23802185.877 6  97466038.339 6        37.000  
G15  22217814.500 7 116755412.635 7        47.000    22217802.975 7  90978245.454 7        47.000  
G16  22328408.832 7 117336596.953 7        47.000    22328396.270 7  91431113.384 7        43.000  
G18  20505112.017 8 107755104.943 8        49.000    20505101.153 8  83965020.595 8        49.000  
G23  20317067.622 8 106766920.989 8        50.000    20317056.829 8  83195009.052 8        50.000  
G26  22697776.278 7 119277627.056 7        45.000    22697768.237 7  92943601.568 7        45.000  
G27  23023933.032 7 120991596.548 7        45.000    23023923.615 7  94279169.446 7        43.000  
G29  23364009.058 6 122778708.902 6        41.000    23363998.927 6  95671715.112 6        41.000  
R01  20979982.732 8 112150043.535 8        48.000    20979983.482 7  87227812.874 7        42.000  
R07  22072543.704 8 118156041.160 8        48.000    22072541.792 7  91899146.540 7        46.000  
R08  19805129.674 8 106055583.664 8        51.000    19805127.387 8  82487677.085 8        49.000  
R14  22617346.019 7 120563170.010 7        47.000    22617344.875 7  93771352.454 7        42.000  
R15  23324074.812 7 124636790.982 7        44.000    23324075.205 7  96939723.718 7        44.000  
R22  22974055.514 6 122637069.498 6        36.000    22974054.889 4  95384389.863 4        29.000  
R23  19642164.381 8 105072356.155 8        50.000                                                  
R24  20863575.071 8 111566926.696 8        48.000    20863573.785 7  86774283.735 7        47.000  
> 2021 11 07 02 03  0.0000000  0 17                     
G10  22016883.198 8 115699521.093 8        50.000    22016874.835 8  90155467.323 8        50.000  
G13  23811174.210 7 125128587.426 7        44.000    23811162.649 6  97502796.277 6        38.000  
G15  22217673.460 7 116754675.331 7        47.000    22217663.060 7  90977670.923 7        47.000  
G16  22329717.559 7 117343472.677 7        47.000    22329704.193 7  91436471.077 7        42.000  
G18  20515349.859 8 107808906.223 8        49.000    20515339.102 8  84006943.664 8        49.000  
G23  20307874.492 8 106718611.285 8        50.000    20307863.735 8  83157365.120 8        50.000  
G26  22724580.617 7 119418488.236 7        44.000    22724573.362 7  93053363.497 7        44.000  
G27  22988349.482 7 120804609.167 7        44.000    22988340.190 7  94133465.013 7        43.000  
G29  23401421.039 7 122975310.029 7        42.000    23401411.425 7  95824910.725 7        42.000  
R01  20938849.420 8 111930161.233 8        49.000    20938850.350 6  87056793.342 6        41.000  
R07  22108963.792 8 118351003.469 8        48.000    22108962.381 7  92050783.929 7        46.000  
R08  19802211.680 8 106039959.397 8        51.000    19802209.625 8  82475524.868 8        49.000  
R14  22641497.111 7 120691904.277 7        47.000    22641495.074 7  93871479.041 7        42.000  
R15  23312655.648 7 124575772.336 7        44.000    23312656.470 7  96892264.762 7        44.000  
R22  23006949.741 5 122812661.901 5        35.000    23006948.669 4  95520961.753 4        29.000  
R23  19641398.818 8 105068259.588 8        51.000                                                  
R24  20835987.837 8 111419407.308 8        50.000    20835986.729 7  86659546.445 7        46.000  
> 2021 11 07 02 04  0.0000000  0 17                     
G10  21986696.182 8 115540883.329 8        49.000    21986687.033 8  90031853.531 8        49.000  
G13  23820593.687 7 125178079.184 7        44.000    23820581.179 6  97541361.254 6        39.000  
G15  22218015.616 7 116756470.351 7        46.000    22218004.930 7  90979069.619 7        46.000  
G16  22331488.844 7 117352777.278 7        47.000    22331474.280 7  91443721.418 7        42.000  
G18  20525793.392 8 107863786.002 8        48.000    20525782.367 8  84049707.126 8        48.000  
G23  20299074.659 8 106672366.831 8        50.000    20299063.634 8  83121330.494 8        50.000  
G26  22751652.616 7 119560742.440 7        45.000    22751643.788 7  93164210.869 7        44.000  
G27  22952924.984 7 120618444.710 7        44.000    22952914.441 7  93988401.825 7        43.000  
G29  23439004.687 7 123172806.956 7        42.000    23438992.822 7  95978804.398 7        42.000  
R01  20898063.483 8 111712137.925 8        48.000    20898063.929 6  86887219.703 6        41.000  
R07  22145752.519 7 118547934.233 7        47.000    22145749.660 7  92203952.231 7        44.000  
R08  19799907.363 8 106027620.613 8        51.000    19799905.200 8  82465928.050 8        49.000  
R14  22666076.238 7 120822926.917 7        45.000    22666074.166 6  93973385.456 6        41.000  
R15  23301779.382 7 124517654.419 7        44.000    23301780.561 7  96847061.912 7        44.000  
R22  23039983.167 6 122988992.049 6        37.000    23039981.113 5  95658107.387 5        31.000  
R23  19640909.440 8 105065641.959 8        50.000                                                  
R24  20808531.708 8 111272586.590 8        50.000    20808529.403 7  86545352.602 7        46.000  
> 2021 11 07 02 05  0.0000000  0 17                     
G10  21956769.911 8 115383620.804 8        49.000    21956761.494 8  89909311.340 8        49.000  
G13  23830458.138 7 125229918.490 7        43.000    23830445.987 6  97581755.518 6        37.000  
G15  22218846.025 7 116760834.269 7        46.000    22218834.285 7  90982470.086 7        46.000  
G16  22333727.171 7 117364541.312 7        47.000    22333711.965 6  91452888.214 6        40.000  
G18  20536447.064 8 107919774.682 8        49.000    20536436.664 8  84093334.678 8        48.000  
G23  20290673.574 8 106628220.604 8        50.000    20290662.942 8  83086930.847 8        50.000  
G26  22778987.879 7 119704401.057 7        43.000    22778980.749 7  93276152.668 7        43.000  
G27  22917665.488 7 120433154.901 7        44.000    22917655.017 7  93844020.229 7        44.000  
G29  23476761.325 7 123371221.740 7        42.000    23476750.746 7  96133413.328 7        43.000  
R01  20857637.177 8 111496038.421 8        48.000    20857637.981 7  86719142.353 7        42.000  
R07  22182908.382 8 118746835.774 8        49.000    22182906.077 7  92358653.445 7        46.000  
R08  19798222.993 8 106018600.222 8        50.000    19798220.634 8  82458912.216 8        49.000  
R14  22691085.705 7 120956242.377 7        47.000    22691084.740 6  94077075.209 6        41.000  
R15  23291454.499 7 124462479.678 7        46.000    23291455.125 7  96804148.224 7        44.000  
R22  23073159.492 5 123166091.015 5        35.000    23073158.653 5  95795850.988 5        31.000  
R23  19640704.232 8 105064546.156 8        50.000                                                  
R24  20781215.404 8 111126511.792 8        50.000    20781213.403 7  86431738.884 7        47.000  
> 2021 11 07 02 06  0.0000000  0 17                     
G10  21927103.509 8 115227725.191 8        50.000    21927095.432 8  89787834.260 8        50.000  
G13  23840763.865 7 125284082.612 7        42.000    23840753.215 6  97623961.350 6        38.000  
G15  22220161.114 7 116767750.414 7        44.000    22220149.821 7  90987859.311 7        44.000  
G16  22336428.181 7 117378740.489 7        47.000    22336413.493 6  91463952.503 6        41.000  
G18  20547308.071 8 107976850.355 8        49.000    20547297.778 8  84137809.217 8        49.000  
G23  20282668.180 8 106586153.109 8        50.000    20282657.745 8  83054150.987 8        50.000  
G26  22806585.977 7 119849423.320 7        46.000    22806578.186 7  93389156.995 7        46.000  
G27  22882572.049 7 120248739.334 7        44.000    22882562.436 7  93700319.829 7        44.000  
G29  23514686.932 7 123570523.262 7        42.000    23514675.996 7  96288713.171 7        42.000  
R01  20817573.183 7 111281874.392 7        47.000    20817573.845 6  86552570.371 6        41.000  
R07  22220423.949 8 118947657.165 8        48.000    22220421.680 7  92514847.895 7        46.000  
R08  19797154.282 8 106012878.279 8        50.000    19797152.156 8  82454461.854 8        49.000  
R14  22716516.791 7 121091801.966 7        45.000    22716515.898 6  94182510.357 6        40.000  
R15  23281678.947 7 124410236.597 7        46.000    23281677.767 7  96763514.698 7        44.000  
R22  23106475.553 5 123343937.247 5        34.000    23106475.357 5  95934175.837 5        32.000  
R23  19640782.212 8 105064962.224 8        50.000                                                  
R24  20754037.317 8 110981176.023 8        50.000    20754035.066 7  86318699.953 7        46.000  
> 2021 11 07 02 07  0.0000000  0 17                     
G10  21897699.495 8 115073202.534 8        50.000    21897691.061 8  89667427.008 8        50.000  
G13  23851511.475 7 125340559.787 7        42.000    23851500.414 6  97667969.511 6        39.000  
G15  22221963.169 7 116777216.880 7        45.000    22221951.751 7  90995235.819 7        45.000  
G16  22339591.767 7 117395366.701 7        46.000    22339577.507 7  91476907.997 7        42.000  
G18  20558375.751 8 108035005.709 8        49.000    20558364.439 8  84183125.077 8        49.000  
G23  20275058.282 8 106546159.033 8        50.000    20275047.113 8  83022986.790 8        50.000  
G26  22834437.690 7 119995782.759 7        45.000    22834430.221 7  93503203.265 7        45.000  
G27  22847647.741 7 120065212.295 7        44.000    22847637.716 7  93557311.803 7        42.000  
G29  23552780.365 7 123770696.605 7        42.000    23552767.428 7  96444692.313 7        42.000  
R01  20777875.970 8 111069672.114 8        48.000    20777877.542 7  86387524.194 7        44.000  
R07  22258291.608 8 119150362.344 8        49.000    22258288.534 7  92672507.456 7        45.000  
R08  19796699.909 8 106010449.155 8        50.000    19796698.497 8  82452572.583 8        50.000  
R14  22742361.653 7 121229571.552 7        46.000    22742359.669 6  94289664.422 6        41.000  
R15  23272451.705 7 124360928.289 7        44.000    23272449.882 7  96725163.797 7        43.000  
R22  23139931.886 5 123522522.865 5        31.000    23139930.349 5  96073075.699 5        31.000  
R23  19641143.667 8 105066895.224 8        50.000                                                  
R24  20726998.465 8 110836588.694 8        50.000    20726995.606 7  86206243.150 7        46.000  
> 2021 11 07 02 08  0.0000000  0 16                     
G10  21868560.354 8 114920074.843 8        50.000    21868551.777 8  89548106.769 8        50.000  
G13  23862700.575 7 125399357.527 7        44.000    23862689.121 6  97713785.955 6        39.000  
G15  22224253.031 8 116789245.586 8        48.000    22224241.291 7  91004608.862 7        47.000  
G16  22343218.178 7 117414426.237 7        45.000    22343205.187 7  91491759.577 7        42.000  
G18  20569649.460 8 108094249.608 8        49.000    20569638.078 8  84229289.184 8        49.000  
G23  20267844.271 8 106508249.058 8        49.000    20267832.906 8  82993446.564 8        49.000  
G26  22862540.892 7 120143468.923 7        45.000    22862533.048 7  93618283.421 7        45.000  
G27  22812897.763 7 119882604.273 7        43.000    22812889.293 7  93415019.835 7        43.000  
G29  23591036.836 7 123971740.479 7        43.000    23591024.613 7  96601349.888 7        43.000  
R01  20738554.041 7 110859473.857 7        47.000    20738555.596 7  86224036.685 7        43.000  
R07  22296506.514 7 119354931.482 7        47.000    22296503.441 7  92831616.741 7        45.000  
R08  19796863.035 8 106011322.165 8        51.000    19796861.802 8  82453251.620 8        49.000  
R14  22768616.608 7 121369532.957 7        43.000    22768617.144 6  94398523.244 6        41.000  
R15  23263777.063 7 124314572.736 7        45.000    23263774.311 7  96689109.477 7        43.000  
R23  19641792.419 8 105070366.423 8        50.000                                                  
R24  20700104.746 8 110692775.428 8        50.000    20700101.941 7  86094388.422 7        47.000  
> 2021 11 07 02 09  0.0000000  0 17                     
G10  21839684.978 8 114768337.071 8        50.000    21839676.919 8  89429869.583 8        50.000  
G13  23874327.608 7 125460454.095 7        44.000    23874315.690 6  97761393.591 6        39.000  
G15  22227027.072 8 116803823.912 8        48.000    22227015.725 8  91015968.626 8        48.000  
G16  22347303.912 7 117435898.441 7        45.000    22347292.190 7  91508491.141 7        43.000  
G18  20581126.144 8 108154564.003 8        49.000    20581115.369 8  84276287.418 8        49.000  
G23  20261022.879 8 106472406.440 8        49.000    20261012.247 8  82965517.270 8        49.000  
G26  22890890.169 7 120292444.355 7        45.000    22890882.986 7  93734368.161 7        46.000  
G27  22778323.669 7 119700918.670 7        45.000    22778315.985 7  93273446.630 7        44.000  
G29  23629454.538 7 124173628.268 7        43.000    23629442.816 7  96758665.037 7        43.000  
R01  20699610.239 8 110651294.268 8        49.000    20699610.918 7  86062119.240 7        44.000  
R07  22335060.611 7 119561317.019 7        47.000    22335057.967 7  92992138.805 7        45.000  
R08  19797640.034 8 106015478.655 8        52.000    19797638.247 8  82456484.452 8        49.000  
R14  22795276.083 7 121511640.270 7        45.000    22795276.261 7  94509051.115 7        42.000  
R15  23255653.072 7 124271160.668 7        43.000    23255649.945 7  96655344.559 7        42.000  
R22  23207258.326 5 123881924.028 5        33.000    23207257.003 4  96352613.091 4        28.000  
R23  19642727.666 8 105075369.510 8        50.000                                                  
R24  20673355.176 8 110549734.495 8        50.000    20673352.621 7  85983134.333 7        47.000  
> 2021 11 07 02 10  0.0000000  0 17                     
G10  21811079.228 8 114618015.939 8        50.000    21811071.276 8  89312736.286 8        50.000  
G13  23886393.041 7 125523860.122 7        42.000    23886381.086 6  97810800.928 6        37.000  
G15  22230289.097 7 116820968.632 7        47.000    22230278.251 7  91029328.171 7        47.000  
G16  22351851.167 7 117459795.298 7        45.000    22351840.428 7  91527112.064 7        44.000  
G18  20592809.644 8 108215962.946 8        49.000    20592799.315 8  84324130.760 8        49.000  
G23  20254598.393 8 106438646.374 8        50.000    20254587.993 8  82939210.720 8        50.000  
G26  22919484.126 7 120442703.584 7        47.000    22919475.674 7  93851453.227 7        47.000  
G27  22743932.304 7 119520191.265 7        45.000    22743922.744 7  93132620.083 7        43.000  
G29  23668033.401 7 124376364.623 7        42.000    23668022.698 7  96916641.408 7        42.000  
R01  20661052.800 8 110445180.830 8        48.000    20661053.497 7  85901808.828 7        44.000  
R07  22373951.896 8 119769504.448 8        49.000    22373949.895 7  93154062.353 7        45.000  
R08  19799032.442 8 106022931.677 8        51.000    19799029.940 8  82462281.242 8        49.000  
R14  22822335.930 7 121655879.836 7        43.000    22822336.484 7  94621237.400 7        42.000  
R15  23248084.254 7 124230714.777 7        43.000    23248080.931 7  96623886.630 7        43.000  
R22  23241130.631 6 124062732.713 6        38.000    23241129.613 4  96493242.005 4        28.000  
R23  19643954.518 8 105081931.109 8        51.000                                                  
R24  20646756.278 8 110407496.935 8        50.000    20646753.365 7  85872505.146 7        47.000  
> 2021 11 07 02 11  0.0000000  0 17                     
G10  21782743.961 8 114469114.071 8        50.000    21782736.062 8  89196708.888 8        50.000  
G13  23898893.530 6 125589560.788 6        41.000    23898883.148 6  97861996.254 6        37.000  
G15  22234038.590 7 116840672.743 7        47.000    22234027.368 7  91044682.062 7        47.000  
G16  22356857.353 7 117486101.791 7        45.000    22356846.828 7  91547610.610 7        43.000  
G18  20604697.851 8 108278436.355 8        48.000    20604687.612 8  84372811.341 8        48.000  
G23  20248568.902 8 106406959.543 8        49.000    20248558.252 8  82914519.701 8        49.000  
G26  22948315.866 7 120594216.786 7        46.000    22948307.825 7  93969515.439 7        46.000  
G27  22709726.849 7 119340433.704 7        46.000    22709716.538 7  92992549.279 7        44.000  
G29  23706770.620 7 124579929.834 7        44.000    23706759.934 7  97075263.625 7        43.000  
R01  20622885.657 8 110241155.299 8        48.000    20622886.283 7  85743122.335 7        43.000  
R07  22413172.579 7 119979454.297 7        47.000    22413170.489 7  93317356.653 7        46.000  
R08  19801037.703 8 106033669.750 8        51.000    19801034.826 8  82470633.086 8        49.000  
R14  22849787.342 7 121802213.209 7        43.000    22849789.200 7  94735052.188 7        42.000  
R15  23241069.251 7 124193232.574 7        42.000    23241066.803 7  96594733.784 7        43.000  
R22  23275140.099 6 124244275.465 6        38.000    23275138.634 4  96634441.923 4        27.000  
R23  19645472.831 8 105090052.696 8        50.000                                                  
R24  20620308.390 8 110266068.832 8        50.000    20620305.692 8  85762505.522 8        48.000  
> 2021 11 07 02 12  0.0000000  0 17                     
G10  21754679.963 8 114321634.861 8        50.000    21754671.600 8  89081790.060 8        50.000  
G13  23911831.078 7 125657543.407 7        42.000    23911819.231 5  97914969.682 5        35.000  
G15  22238273.799 7 116862929.724 7        47.000    22238261.648 7  91062025.192 7        47.000  
G16  22362320.324 7 117514806.701 7        46.000    22362309.424 7  91569978.036 7        44.000  
G18  20616788.765 8 108341975.365 8        48.000    20616778.597 8  84422322.239 8        48.000  
G23  20242932.030 8 106377337.557 8        50.000    20242921.308 8  82891437.647 8        50.000  
G26  22977381.386 7 120746955.225 7        46.000    22977373.095 7  94088532.375 7        46.000  
G27  22675707.731 7 119161658.799 7        47.000    22675696.867 7  92853244.160 7        43.000  
G29  23745661.816 7 124784306.211 7        42.000    23745651.380 7  97234517.906 7        42.000  
R01  20585113.491 8 110039241.328 8        49.000    20585113.616 7  85586078.179 7        43.000  
R07  22452714.636 7 120191128.222 7        47.000    22452713.439 7  93481991.986 7        46.000  
R08  19803653.889 8 106047681.442 8        51.000    19803651.477 8  82481531.089 8        49.000  
R14  22877624.367 7 121950602.956 7        44.000    22877625.261 7  94850466.373 7        42.000  
R15  23234607.955 7 124158711.709 7        43.000    23234607.116 7  96567884.225 7        43.000  
R22  23309284.496 6 124426542.263 6        39.000    23309283.19214  96776199.99014        25.0001 
R23  19647283.016 8 105099737.328 8        50.000                                                  
R24  20594013.569 8 110125458.609 8        50.000    20594011.657 8  85653142.003 8        48.000  
> 2021 11 07 02 13  0.0000000  0 17                     
G10  21726889.219 8 114175591.090 8        50.000    21726880.159 8  88967989.774 8        50.000  
G13  23925201.664 7 125727803.032 7        43.000    23925189.066 5  97969717.414 5        35.000  
G15  22242995.706 8 116887741.724 8        48.000    22242983.359 8  91081359.186 8        48.000  
G16  22368238.777 7 117545905.475 7        46.000    22368227.466 7  91594210.828 7        44.000  
G18  20629083.224 8 108406580.499 8        48.000    20629072.467 8  84472663.886 8        48.000  
G23  20237688.347 8 106349781.161 8        49.000    20237677.393 8  82869965.140 8        49.000  
G26  23006676.148 7 120900899.547 7        45.000    23006666.732 7  94208488.980 7        45.000  
G27  22641879.526 7 118983888.866 7        47.000    22641867.804 7  92714722.180 7        47.000  
G29  23784706.667 6 124989484.426 6        41.000    23784694.355 6  97394397.010 6        41.000  
R01  20547742.270 8 109839471.206 8        49.000    20547742.663 7  85430701.464 7        43.000  
R07  22492574.101 8 120404497.475 8        48.000    22492572.171 7  93647945.845 7        46.000  
R08  19806881.017 8 106064964.295 8        51.000    19806878.926 8  82494973.337 8        50.000  
R14  22905843.021 7 122101020.789 7        43.000    22905843.235 6  94967457.958 6        41.000  
R15  23228702.744 7 124127158.757 7        43.000    23228702.154 7  96543343.043 7        42.000  
R22  23343565.002 6 124609533.392 6        36.000    23343563.823 4  96918527.358 4        27.000  
R23  19649387.683 8 105110997.389 8        50.000                                                  
R24  20567874.780 8 109985684.033 8        50.000    20567872.958 8  85544428.449 8        48.000  
> 2021 11 07 02 14  0.0000000  0 17                     
G10  21699374.551 8 114030998.909 8        50.000    21699365.116 8  88855320.601 8        50.000  
G13  23939005.270 7 125800338.295 7        42.000    23938992.565 6  98026238.373 6        36.000  
G15  22248205.295 8 116915115.051 8        48.000    22248193.036 8  91102689.054 8        48.000  
G16  22374612.568 7 117579397.620 7        46.000    22374600.846 7  91620308.597 7        44.000  
G18  20641581.087 8 108472255.907 8        48.000    20641570.044 8  84523839.538 8        48.000  
G23  20232838.569 8 106324294.347 8        49.000    20232827.347 8  82850105.303 8        49.000  
G26  23036197.722 7 121056033.905 7        46.000    23036188.126 7  94329372.866 7        46.000  
G27  22608246.076 7 118807149.902 7        45.000    22608236.749 7  92577003.529 7        45.000  
G29  23823901.440 6 125195459.083 6        41.000    23823890.576 6  97554896.775 6        41.000  
R01  20510778.802 8 109641881.284 8        48.000    20510778.642 7  85277020.460 7        43.000  
R07  22532745.255 7 120619536.754 7        47.000    22532742.610 7  93815198.603 7        45.000  
R08  19810719.551 8 106085518.951 8        51.000    19810717.371 8  82510960.331 8        50.000  
R14  22934437.532 7 122253441.709 7        45.000    22934436.460 6  95086007.477 6        40.000  
R15  23223354.813 6 124098583.894 6        41.000    23223355.045 7  96521118.165 7        43.000  
R22  23377981.133 5 124793251.871 5        34.000    23377978.560 4  97061419.471 4        27.000  
R23  19651790.227 8 105123848.963 8        50.000                                                  
R24  20541896.920 8 109846766.905 8        50.000    20541894.507 7  85436381.840 7        47.000  
> 2021 11 07 02 15  0.0000000  0 17                     
G10  21672135.852 8 113887858.977 8        50.000    21672125.988 8  88743783.053 8        50.000  
G13  23953238.607 6 125875133.071 6        41.000    23953226.242 6  98084520.051 6        38.000  
G15  22253900.116 8 116945038.775 8        48.000    22253887.340 8  91126006.248 8        48.000  
G16  22381438.838 7 117615267.672 7        47.000    22381426.509 7  91648259.275 7        43.000  
G18  20654280.762 8 108538990.473 8        48.000    20654269.326 8  84575840.485 8        48.000  
G23  20228380.391 8 106300865.634 8        50.000    20228368.812 8  82831849.182 8        50.000  
G26  23065938.334 7 121212326.953 7        44.000    23065929.185 7  94451159.657 7        43.000  
G27  22574812.509 7 118631452.643 7        45.000    22574803.235 7  92440096.595 7        45.000  
G29  23863246.080 7 125402209.080 7        44.000    23863234.090 7  97716000.609 7        44.000  
R01  20474227.073 8 109446491.558 8        49.000    20474227.591 7  85125050.685 7        44.000  
R07  22573220.843 7 120836205.599 7        47.000    22573218.574 7  93983718.758 7        45.000  
R08  19815166.007 8 106109329.698 8        51.000    19815163.809 8  82529479.831 8        50.000  
R14  22963398.983 7 122407825.089 7        44.000    22963398.304 6  95206083.421 6        41.000  
R15  23218563.360 6 124072981.210 6        41.000    23218564.182 7  96501204.936 7        43.000  
R22  23412531.407 5 124977686.138 5        34.000    23412530.460 5  97204868.174 5        30.000  
R23  19654490.594 8 105138292.602 8        50.000                                                  
R24  20516079.684 8 109708713.132 8        50.000    20516077.522 8  85329006.697 8        48.000  
> 2021 11 07 02 16  0.0000000  0 17                     
G10  21645174.945 8 113746185.119 8        49.000    21645166.672 8  88633387.885 8        49.000  
G13  23967900.302 7 125952183.341 7        42.000    23967888.758 6  98144559.248 6        37.000  
G15  22260079.439 8 116977516.161 8        48.000    22260067.645 8  91151313.330 8        48.000  
G16  22388716.016 7 117653511.780 7        47.000    22388703.704 7  91678059.856 7        43.000  
G18  20667181.732 8 108606786.426 8        49.000    20667170.421 8  84628668.482 8        48.000  
G23  20224313.526 8 106279496.511 8        50.000    20224302.430 8  82815197.920 8        50.000  
G26  23095896.788 7 121369760.630 7        46.000    23095887.710 7  94573835.261 7        46.000  
G27  22541580.111 7 118456821.109 7        45.000    22541572.427 7  92304020.066 7        45.000  
G29  23902735.638 7 125609726.931 7        43.000    23902724.291 7  97877702.801 7        43.000  
R01  20438093.264 8 109253335.455 8        49.000    20438094.032 7  84974818.188 7        44.000  
R07  22613995.273 7 121054476.880 7        46.000    22613993.469 7  94153485.321 7        44.000  
R08  19820220.010 8 106136393.269 8        51.000    19820217.687 8  82550529.270 8        49.000  
R14  22992724.087 7 122564143.596 7        45.000    22992723.926 6  95327664.364 6        40.000  
R15  23214330.045 7 124050356.662 7        43.000    23214330.581 7  96483608.084 7        43.000  
R22  23447217.665 6 125162837.463 6        37.000    23447216.628 5  97348874.656 5        31.000  
R23  19657490.767 8 105154341.977 8        50.000                                                  
R24  20490428.147 8 109571541.883 8        51.000    20490426.503 7  85222317.939 7        47.000  
> 2021 11 07 02 17  0.0000000  0 17                     
G10  21618496.029 8 113605990.258 8        49.000    21618488.471 8  88524145.161 8        49.000  
G13  23982990.531 7 126031483.869 7        42.000    23982979.220 6  98206351.861 6        36.000  
G15  22266745.621 8 117012548.801 8        48.000    22266734.524 8  91178611.513 8        48.000  
G16  22396444.190 7 117694124.702 7        47.000    22396432.057 7  91709706.280 7        42.000  
G18  20680284.497 8 108675645.277 8        48.000    20680273.883 8  84682324.727 8        48.000  
G23  20220638.958 8 106260187.445 8        50.000    20220628.148 8  82800151.917 8        50.000  
G26  23126067.793 7 121528316.217 7        45.000    23126060.324 7  94697385.042 7        45.000  
G27  22508555.833 7 118283278.753 7        45.000    22508548.114 7  92168792.268 7        44.000  
G29  23942368.041 7 125818003.885 7        43.000    23942357.945 7  98039996.522 7        43.000  
R01  20402383.236 8 109062445.443 8        48.000    20402384.112 7  84826348.188 7        44.000  
R07  22655065.400 8 121274322.547 8        48.000    22655062.255 7  94324476.366 7        44.000  
R08  19825880.845 8 106166705.525 8        51.000    19825878.201 8  82574105.448 8        48.000  
R14  23022406.714 7 122722368.985 7        44.000    23022406.410 6  95450728.502 6        41.000  
R15  23210655.960 7 124030716.131 7        45.000    23210655.209 7  96468332.090 7        43.000  
R22  23482037.118 6 125348706.188 6        36.000    23482035.831 4  97493439.124 4        29.000  
R23  19660793.606 8 105172009.937 8        51.000                                                  
R24  20464945.831 8 109435273.265 8        50.000    20464943.275 8  85116331.270 8        48.000  
> 2021 11 07 02 18  0.0000000  0 17                     
G10  21592098.836 8 113467272.179 8        49.000    21592091.296 8  88416053.179 8        49.000  
G13  23998504.649 7 126113014.314 7        42.000    23998493.659 6  98269882.091 6        37.000  
G15  22273895.857 8 117050122.614 8        48.000    22273884.331 8  91207889.828 8        48.000  
G16  22404619.160 7 117737087.835 7        47.000    22404607.546 7  91743184.046 7        42.000  
G18  20693587.538 8 108745553.663 8        48.000    20693576.870 8  84736798.803 8        48.000  
G23  20217353.792 8 106242923.812 8        50.000    20217343.053 8  82786699.753 8        50.000  
G26  23156447.705 7 121687959.772 7        47.000    23156438.807 7  94821782.646 7        47.000  
G27  22475741.749 7 118110834.081 7        46.000    22475732.493 7  92034419.835 7        46.000  
G29  23982141.573 7 126027016.383 7        42.000    23982130.584 7  98202863.307 7        42.000  
R01  20367100.636 8 108873838.393 8        49.000    20367101.315 7  84679653.883 7        44.000  
R07  22696420.645 8 121495699.848 8        48.000    22696417.857 7  94496658.695 7        45.000  
R08  19832144.581 8 106200246.816 8        51.000    19832141.740 8  82600193.124 8        49.000  
R14  23052437.501 7 122882457.329 7        43.000    23052440.342 7  95575241.633 7        42.000  
R15  23207537.922 7 124014048.830 7        44.000    23207536.296 7  96455368.611 7        43.000  
R22  23516987.604 6 125535277.514 6        37.000    23516986.550 4  97638550.054 4        29.000  
R23  19664398.878 8 105191294.457 8        51.000                                                  
R24  20439631.787 8 109299910.710 8        50.000    20439629.964 8  85011049.281 8        48.000  
> 2021 11 07 02 19  0.0000000  0 17                     
G10  21565985.493 8 113330042.695 8        49.000    21565977.505 8  88309121.135 8        49.000  
G13  24014442.298 7 126196768.710 7        44.000    24014431.505 6  98335145.245 6        37.000  
G15  22281529.236 7 117090237.933 7        47.000    22281517.478 7  91239148.508 7        47.000  
G16  22413240.446 7 117782394.413 7        47.000    22413229.099 7  91778487.854 7        42.000  
G18  20707091.159 8 108816512.411 8        49.000    20707079.776 8  84792091.334 8        49.000  
G23  20214457.920 8 106227704.820 8        50.000    20214447.038 8  82774840.804 8        50.000  
G26  23187029.841 7 121848671.639 7        44.000    23187022.247 7  94947012.608 7        44.000  
G27  22443140.467 7 117939509.852 7        47.000    22443130.675 8  91900920.454 8        48.000  
G29  24022054.341 7 126236755.295 7        43.000    24022042.834 7  98366296.164 7        43.000  
R01  20332250.430 7 108687545.181 7        47.000    20332250.913 7  84534759.172 7        44.000  
R07  22738055.987 7 121718579.881 7        47.000    22738054.289 7  94670009.859 7        45.000  
R08  19839009.645 8 106237010.514 8        51.000    19839007.251 8  82628787.137 8        49.000  
R14  23082814.286 7 123044379.145 7        46.000    23082816.520 6  95701180.802 6        41.000  
R15  23204976.380 7 124000357.833 7        46.000    23204974.111 7  96444720.051 7        44.000  
R22  23552070.697 6 125722551.099 6        39.000    23552070.804 5  97784207.199 5        31.000  
R23  19668308.280 8 105212207.654 8        50.000                                                  
R24  20414491.429 8 109165473.256 8        51.000    20414489.410 7  84906486.821 7        47.000  
> 2021 11 07 02 20  0.0000000  0 17                     
G10  21540156.624 8 113194311.626 8        49.000    21540148.994 8  88203356.691 8        49.000  
G13  24030801.782 7 126282737.673 7        42.000    24030790.667 6  98402134.027 6        36.000  
G15  22289644.792 7 117132891.898 7        46.000    22289634.160 7  91272385.357 7        45.000  
G16  22422306.116 7 117830036.284 7        46.000    22422294.608 7  91815611.351 7        42.000  
G18  20720793.143 8 108888520.598 8        49.000    20720782.779 8  84848201.611 8        49.000  
G23  20211949.860 8 106214527.659 8        50.000    20211939.693 8  82764572.890 8        50.000  
G26  23217811.806 7 122010430.133 7        46.000    23217802.765 7  95073058.197 7        46.000  
G27  22410753.149 7 117769327.173 7        45.000    22410745.519 7  91768310.627 7        45.000  
G29  24062102.878 6 126447209.666 6        41.000    24062092.032 6  98530286.562 6        41.000  
R01  20297838.248 8 108503594.990 8        48.000    20297839.142 7  84391686.803 7        43.000  
R07  22779966.350 7 121942931.962 7        46.000    22779964.689 7  94844505.913 7        44.000  
R08  19846475.109 8 106276987.677 8        51.000    19846473.232 8  82659880.500 8        50.000  
R14  23113529.689 7 123208103.009 7        45.000    23113530.654 6  95828521.483 6        41.000  
R15  23202972.137 7 123989644.256 7        46.000    23202969.385 7  96436387.252 7        43.000  
R22  23587285.198 6 125910524.210 6        37.000    23587284.519 5  97930408.412 5        30.000  
R23  19672523.976 8 105234759.697 8        49.000                                                  
R24  20389527.672 8 109031977.848 8        51.000    20389524.848 8  84802657.094 8        48.000  
> 2021 11 07 02 21  0.0000000  0 17                     
G10  21514615.018 8 113060091.528 8        50.000    21514607.531 8  88098769.636 8        50.000  
G13  24047580.169 7 126370915.580 7        42.000    24047569.037 6  98470844.045 6        36.000  
G15  22298244.134 7 117178085.015 7        45.000    22298234.771 7  91307600.778 7        45.000  
G16  22431815.456 7 117880008.174 7        46.000    22431803.448 6  91854550.475 6        41.000  
G18  20734695.493 8 108961580.208 8        49.000    20734685.648 8  84905131.183 8        49.000  
G23  20209830.344 8 106203392.090 8        50.000    20209820.587 8  82755895.845 8        50.000  
G26  23248787.525 7 122173216.669 7        44.000    23248780.539 7  95199904.801 7        44.000  
G27  22378590.320 7 117600309.919 7        45.000    22378583.851 7  91636608.818 7        45.000  
G29  24102284.325 6 126658370.491 6        41.000    24102274.300 6  98694827.431 6        41.000  
R01  20263870.701 8 108322018.952 8        49.000    20263871.755 7  84250461.056 7        43.000  
R07  22822147.108 7 122168728.547 7        46.000    22822145.625 7  95020125.435 7        45.000  
R08  19854539.470 8 106320171.988 8        51.000    19854537.755 8  82693468.302 8        50.000  
R14  23144576.742 7 123373599.874 7        45.000    23144577.010 7  95957241.230 7        42.000  
R15  23201525.604 7 123981910.814 7        47.000    23201522.066 7  96430372.325 7        43.000  
R22  23622629.983 6 126099197.511 6        36.000    23622628.893 4  98077154.211 4        29.000  
R23  19677048.895 8 105258963.816 8        51.000                                                  
R24  20364743.051 8 108899444.620 8        50.000    20364740.621 7  84699575.665 7        47.000  
> 2021 11 07 02 22  0.0000000  0 18                     
G08  25136401.422 6 132092683.409 6        40.000                                                  
G10  21489359.620 8 112927371.840 8        50.000    21489351.776 8  87995351.724 8        50.000  
G13  24064775.584 7 126461272.989 7        44.000    24064764.237 6  98541252.446 6        36.000  
G15  22307324.028 7 117225793.976 7        45.000    22307313.932 7  91344776.596 7        45.000  
G16  22441762.766 7 117932280.968 7        46.000    22441750.936 7  91895282.520 7        42.000  
G18  20748794.689 8 109035670.307 8        49.000    20748784.485 8  84962863.718 8        49.000  
G23  20208095.690 8 106194274.780 8        50.000    20208085.523 8  82748791.467 8        50.000  
G26  23279953.210 7 122336989.359 7        45.000    23279946.884 7  95327519.919 7        45.000  
G27  22346651.031 7 117432459.024 7        45.000    22346642.597 7  91505815.944 7        46.000  
G29  24142596.144 6 126870206.403 6        40.000    24142585.154 6  98859894.334 6        41.000  
R01  20230348.968 8 108142825.349 8        49.000    20230349.772 7  84111088.309 7        42.000  
R07  22864588.254 7 122395919.276 7        46.000    22864586.931 7  95196829.361 7        44.000  
R08  19863197.012 8 106366533.191 8        51.000    19863195.082 8  82729527.011 8        49.000  
R14  23175947.169 7 123540817.797 7        46.000    23175947.974 7  96087299.568 7        43.000  
R15  23200632.474 7 123977137.007 7        47.000    23200628.900 7  96426659.362 7        44.000  
R22  23658101.691 5 126288548.234 5        34.000    23658100.119 4  98224426.813 4        28.000  
R23  19681880.661 8 105284809.385 8        51.000                                                  
R24  20340137.424 8 108767870.812 8        50.000    20340135.262 8  84597240.527 8        48.000  
> 2021 11 07 02 23  0.0000000  0 18                     
G08  25096467.301 6 131882823.915 6        41.000    25096457.169 6 102765832.230 6        39.000  
G10  21464395.380 8 112796186.215 8        50.000    21464388.036 8  87893129.188 8        50.000  
G13  24082388.043 7 126553824.621 7        45.000    24082377.304 6  98613370.605 6        36.000  
G15  22316885.295 7 117276039.527 7        45.000    22316874.931 7  91383928.997 7        44.000  
G16  22452149.296 7 117986869.752 7        45.000    22452139.057 7  91937819.209 7        42.000  
G18  20763094.267 8 109110814.382 8        49.000    20763084.010 8  85021417.522 8        49.000  
G23  20206748.438 8 106187196.459 8        50.000    20206738.467 8  82743275.904 8        50.000  
G26  23311304.715 7 122501751.020 7        42.000    23311299.139 7  95455905.626 7        43.000  
G27  22314940.735 7 117265819.976 7        47.000    22314932.140 7  91375967.347 7        47.000  
G29  24183036.673 6 127082730.520 6        41.000    24183027.059 6  99025497.501 6        41.000  
R01  20197282.930 8 107966066.623 8        49.000    20197283.484 6  83973609.356 6        41.000  
R07  22907288.982 7 122624498.370 7        47.000    22907286.784 7  95374613.050 7        44.000  
R08  19872450.575 8 106416085.008 8        51.000    19872448.216 8  82768067.320 8        49.000  
R14  23207638.596 7 123709749.495 7        45.000    23207638.721 6  96218690.808 6        41.000  
R15  23200297.251 8 123975346.352 8        48.000    23200294.071 7  96425266.625 7        43.000  
R22  23693704.183 5 126478597.932 5        35.000    23693702.896 4  98372243.082 4        29.000  
R23  19687025.492 8 105312331.089 8        51.000                                                  
R24  20315719.476 8 108637298.576 8        51.000    20315718.493 8  84495684.318 8        48.000  
> 2021 11 07 02 24  0.0000000  0 18                     
G08  25056572.867 6 131673199.861 6        38.000    25056569.650 6 102602488.777 6        38.000  
G10  21439723.030 8 112666530.472 8        50.000    21439715.382 8  87792098.765 8        50.000  
G13  24100414.153 7 126648547.237 7        45.000    24100403.002 6  98687180.456 6        37.000  
G15  22326925.488 7 117328803.903 7        46.000    22326915.464 7  91425044.081 7        46.000  
G16  22462973.207 7 118043751.018 7        44.000    22462962.664 7  91982142.244 7        42.000  
G18  20777591.370 8 109186998.286 8        49.000    20777581.345 8  85080781.605 8        49.000  
G23  20205786.066 8 106182140.017 8        50.000    20205776.130 8  82739335.833 8        50.000  
G26  23342840.342 7 122667466.357 7        44.000    23342834.874 7  95585034.462 7        44.000  
G27  22283462.056 7 117100400.620 7        47.000    22283453.658 7  91247069.170 7        47.000  
G29  24223605.163 7 127295917.708 7        43.000    24223595.424 7  99191617.301 7        43.000  
R01  20164675.126 8 107791756.638 8        49.000    20164674.483 7  83838034.972 7        43.000  
R07  22950240.914 7 122854421.544 7        46.000    22950238.448 7  95553442.215 7        45.000  
R08  19882295.549 8 106468802.815 8        51.000    19882292.832 8  82809070.075 8        49.000  
R14  23239641.248 7 123880348.978 7        45.000    23239640.784 6  96351379.228 6        40.000  
R15  23200516.915 7 123976523.476 7        47.000    23200514.235 7  96426182.140 7        43.000  
R22  23729435.778 5 126669330.639 5        34.000    23729434.938 4  98520590.641 4        29.000  
R23  19692483.300 8 105341525.524 8        50.000                                                  
R24  20291490.331 8 108507732.625 8        50.000    20291488.866 7  84394910.824 7        47.000  
> 2021 11 07 02 25  0.0000000  0 18                     
G08  25016731.771 6 131463817.268 6        37.000    25016724.838 6 102439333.475 6        37.000  
G10  21415341.231 8 112538401.500 8        50.000    21415333.226 8  87692258.023 8        50.000  
G13  24118848.480 7 126745418.382 7        42.000    24118836.293 5  98762664.468 5        35.000  
G15  22337443.231 7 117384071.011 7        46.000    22337432.438 7  91468109.337 7        46.000  
G16  22474230.280 7 118102902.599 7        45.000    22474218.665 6  92028234.367 6        40.000  
G18  20792284.728 8 109264209.252 8        50.000    20792274.042 8  85140945.990 8        48.000  
G23  20205206.198 8 106179089.320 8        50.000    20205195.602 8  82736958.676 8        50.000  
G26  23374550.209 7 122834101.804 7        45.000    23374543.937 7  95714880.224 7        45.000  
G27  22252217.641 7 116936210.094 7        46.000    22252208.349 7  91119128.494 7        46.000  
G29  24264296.126 7 127509744.385 7        43.000    24264285.459 7  99358235.450 7        43.000  
R01  20132527.360 8 107619910.822 8        49.000    20132527.235 7  83704377.120 7        43.000  
R07  22993436.096 8 123085647.057 8        48.000    22993432.504 6  95733284.272 6        41.000  
R08  19892727.216 8 106524662.503 8        51.000    19892724.035 8  82852516.518 8        49.000  
R14  23271950.765 7 124052571.557 7        45.000    23271947.834 6  96485330.035 6        39.000  
R15  23201288.857 7 123980654.010 7        47.000    23201287.034 7  96429394.767 7        43.000  
R22  23765291.759 5 126860731.123 5        35.000    23765290.223 4  98669457.464 4        27.000  
R23  19698252.796 8 105372389.868 8        49.000                                                  
R24  20267450.527 8 108379177.352 8        51.000    20267447.561 7  84294923.427 7        47.000  
> 2021 11 07 02 26  0.0000000  0 18                     
G08  24976939.137 6 131254707.417 6        38.000    24976930.470 5 102276390.732 5        35.000  
G10  21391253.305 8 112411821.643 8        50.000    21391245.693 8  87593624.410 8        50.000  
G13  24137689.417 6 126844441.247 6        41.000    24137678.320 5  98839825.142 5        33.000  
G15  22348437.755 7 117441849.317 7        46.000    22348426.855 7  91513131.369 7        46.000  
G16  22485918.998 7 118164328.830 7        46.000    22485908.098 6  92076098.960 6        40.000  
G18  20807174.967 8 109342460.113 8        49.000    20807164.406 8  85201920.692 8        48.000  
G23  20205009.013 8 106178053.630 8        50.000    20204998.649 8  82736151.665 8        50.000  
G26  23406433.425 7 123001648.870 7        43.000    23406427.546 7  95845436.377 7        43.000  
G27  22221213.456 7 116773283.067 7        46.000    22221204.629 7  90992172.427 7        47.000  
G29  24305107.635 7 127724212.967 7        42.000    24305097.753 7  99525353.738 7        42.000  
R01  20100848.441 8 107450569.300 8        49.000    20100849.103 7  83572667.063 7        43.000  
R07  23036871.509 7 123318158.334 7        47.000    23036866.685 7  95914126.334 7        42.000  
R08  19903745.631 8 106583665.360 8        51.000    19903742.593 8  82898407.647 8        49.000  
R14  23304561.124 7 124226398.783 7        44.000    23304558.640 6  96620528.919 6        40.000  
R15  23202615.828 7 123987748.784 7        45.000    23202614.488 7  96434912.926 7        43.000  
R22  23801274.343 5 127052810.112 5        35.000    23801273.217 4  98818852.049 4        29.000  
R23  19704339.092 8 105404947.653 8        50.000                                                  
R24  20243605.442 8 108251665.424 8        51.000    20243602.940 8  84195747.498 8        48.000  
> 2021 11 07 02 27  0.0000000  0 18                     
G08  24937201.521 6 131045883.326 6        37.000    24937192.069 6 102113670.654 6        36.000  
G10  21367461.345 8 112286794.436 8        51.000    21367453.393 8  87496200.644 8        50.000  
G13  24156938.072 7 126945599.302 7        43.000    24156927.672 5  98918649.589 5        32.000  
G15  22359908.185 7 117502128.232 7        47.000    22359897.231 7  91560101.944 7        47.000  
G16  22498037.126 7 118228012.936 7        45.000    22498026.422 6  92125722.930 6        40.000  
G18  20822261.300 8 109421744.951 8        49.000    20822251.919 8  85263701.094 8        48.000  
G23  20205193.261 8 106179023.321 8        50.000    20205183.326 8  82736907.287 8        50.000  
G26  23438483.590 7 123170080.818 7        43.000    23438479.016 7  95976682.035 7        44.000  
G27  22190450.968 7 116611635.839 7        46.000    22190443.767 7  90866213.534 7        46.000  
G29  24346037.007 7 127939306.044 7        42.000    24346028.019 7  99692958.621 7        43.000  
R01  20069641.962 8 107283753.636 8        49.000    20069641.908 7  83442921.558 7        43.000  
R07  23080539.184 7 123551919.580 7        45.000    23080536.415 7  96095940.671 7        42.000  
R08  19915347.380 8 106645793.336 8        51.000    19915344.485 8  82946729.404 8        49.000  
R14  23337463.964 7 124401792.903 7        44.000    23337463.124 6  96756946.522 6        40.000  
R15  23204495.560 7 123997798.741 7        46.000    23204494.935 7  96442729.557 7        42.000  
R22  23837382.599 5 127245559.119 5        33.000    23837381.849 4  98968767.819 4        27.000  
R23  19710742.868 8 105439203.368 8        51.000                                                  
R24  20219956.987 8 108125209.053 8        51.000    20219954.414 7  84097392.553 7        47.000  
> 2021 11 07 02 28  0.0000000  0 19                     
G08  24897518.388 6 130837344.304 6        36.000    24897508.239 5 101951172.727 5        34.000  
G10  21343962.865 8 112163309.463 8        50.000    21343954.931 8  87399978.615 8        50.000  
G13  24176589.958 7 127048863.455 7        45.000    24176578.808 6  98999115.135 6        36.000  
G15  22371850.624 7 117564883.310 7        47.000    22371840.010 7  91609002.003 7        47.000  
G16  22510580.018 7 118293924.959 7        45.000    22510568.457 6  92177082.925 6        40.000  
G18  20837542.067 8 109502044.345 8        49.000    20837532.578 8  85326272.043 8        48.000  
G23  20205754.902 8 106181974.810 8        50.000    20205745.038 8  82739207.160 8        50.000  
G26  23470696.542 7 123339356.850 7        42.000    23470691.039 7  96108585.440 7        42.000  
G27  22159935.359 7 116451270.619 7        46.000    22159927.371 7  90741253.642 7        47.000  
G29  24387081.706 7 128154992.977 7        43.000    24387073.183 7  99861026.320 7        43.000  
R01  20038909.583 8 107119470.859 8        50.000    20038910.673 7  83315146.123 7        43.000  
R07  23124432.617 8 123786881.980 8        48.000    23124430.187 7  96278689.193 7        44.000  
R08  19927526.531 8 106711013.071 8        51.000    19927523.636 8  82997455.862 8        49.000  
R14  23370650.849 7 124578702.116 7        44.000    23370650.081 6  96894542.516 6        38.000  
R15  23206924.729 7 124010780.842 7        46.000    23206924.193 7  96452826.745 7        42.000  
R17  23998891.513 6 128422910.321 6        37.000    23998887.367 5  99884490.498 5        32.000  
R22  23873612.150 5 127438956.271 5        34.000    23873609.66714  99119193.60614        26.0001 
R23  19717462.532 8 105475147.125 8        51.000                                                  
R24  20196506.110 8 107999807.506 8        51.000    20196504.073 8  83999858.016 8        48.000  
> 2021 11 07 02 29  0.0000000  0 19                     
G08  24857893.633 5 130629128.451 5        35.000    24857886.521 5 101788926.602 5        35.000  
G10  21320763.512 8 112041394.452 8        50.000    21320755.275 8  87304979.928 8        50.000  
G13  24196644.166 7 127154240.915 7        43.000    24196632.408 6  99081227.414 6        37.000  
G15  22384266.629 7 117630128.150 7        47.000    22384255.890 8  91659842.175 8        48.000  
G16  22523548.998 7 118362073.180 7        45.000    22523536.686 6  92230185.428 6        39.000  
G18  20853020.000 8 109583377.173 8        50.000    20853009.600 8  85389648.261 8        49.000  
G23  20206696.510 8 106186922.619 8        50.000    20206686.521 8  82743062.598 8        50.000  
G26  23503068.136 7 123509474.724 7        43.000    23503062.418 7  96241144.791 7        43.000  
G27  22129671.292 7 116292228.283 7        46.000    22129662.875 7  90617324.542 7        46.000  
G29  24428240.820 7 128371282.026 7        43.000    24428231.636 7 100029563.189 7        42.000  
R01  20008659.221 8 106957766.124 8        50.000    20008659.811 7  83189375.792 7        44.000  
R07  23168548.322 7 124023035.682 7        45.000    23168546.285 7  96462364.269 7        44.000  
R08  19940284.566 8 106779330.224 8        51.000    19940281.439 8  83050591.440 8        49.000  
R14  23404120.726 7 124757113.122 7        44.000    23404119.279 6  97033306.585 6        38.000  
R15  23209905.997 7 124026710.135 7        46.000    23209905.068 7  96465216.225 7        42.000  
R17  23959528.897 6 128212274.067 6        41.000    23959522.982 5  99720662.421 5        34.000  
R22  23909966.946 5 127633017.573 5        35.000    23909966.267 4  99270129.977 4        28.000  
R23  19724502.141 8 105512808.186 8        49.000                                                  
R24  20173259.905 8 107875499.391 8        51.000    20173257.975 8  83903173.904 8        48.000  
