     3.02           OBSERVATION DATA    M                   RINEX VERSION / TYPE
HIVE                geosystems.aero     18-JAN-22 11:53     PGM / RUN BY / DATE 
MAHA                                                        MARKER NAME         
1105                                                        MARKER NUMBER       
                                                            MARKER TYPE         
geosystems.aero     Industrial Geodetic Systems             OBSERVER / AGENCY   
                    RNG FASA+                               REC # / TYPE / VERS 
                    RNG80971.00     NONE                    ANT # / TYPE        
  3156865.0681  3445693.1353  4326217.3001                  APPROX POSITION XYZ 
        0.0000        0.0000        0.0000                  ANTENNA: DELTA H/E/N
G  6   C1C L1C S1C C2P L2P S2P                              SYS / # / OBS TYPES 
R  6   C1C L1C S1C C2P L2P S2P                              SYS / # / OBS TYPES 
    60.000                                                  INTERVAL            
  2021    11    07    00    00   00.0000000     GPS         TIME OF FIRST OBS   
  2021    11    07    23    59   00.0000000     GPS         TIME OF LAST OBS    
 C1C    0.000 C1P    0.000 C2C    0.000 C2P    0.000        GLONASS COD/PHS/BIS 
    18                                                      LEAP SECONDS        
    50                                                      # OF SATELLITES     
   G01   332   332   332   332   332   332                  PRN / # OF OBS      
   G02   104   104   104   100   100   100                  PRN / # OF OBS      
   G04   307   307   307   307   307   307                  PRN / # OF OBS      
   G05   122   122   122   122   122   122                  PRN / # OF OBS      
   G06   198   198   198   197   197   197                  PRN / # OF OBS      
   G07   137   137   137   137   137   137                  PRN / # OF OBS      
   G08   293   293   293   286   286   286                  PRN / # OF OBS      
   G09   215   215   215   215   215   215                  PRN / # OF OBS      
   G10   412   412   412   412   412   412                  PRN / # OF OBS      
   G12     9     9     9     9     9     9                  PRN / # OF OBS      
   G13   165   165   165   165   165   165                  PRN / # OF OBS      
   G15   239   239   239   239   239   239                  PRN / # OF OBS      
   G16   428   428   428   416   416   416                  PRN / # OF OBS      
   G17   150   150   150   149   149   149                  PRN / # OF OBS      
   G18   301   301   301   300   300   300                  PRN / # OF OBS      
   G19    98    98    98    94    94    94                  PRN / # OF OBS      
   G20    88    88    88    70    70    70                  PRN / # OF OBS      
   G21   363   363   363   363   363   363                  PRN / # OF OBS      
   G22   409   409   409   404   404   404                  PRN / # OF OBS      
   G23   354   354   354   354   354   354                  PRN / # OF OBS      
   G24   136   136   136   136   136   136                  PRN / # OF OBS      
   G25    94    94    94    93    93    93                  PRN / # OF OBS      
   G26   437   437   437   437   437   437                  PRN / # OF OBS      
   G27   336   336   336   336   336   336                  PRN / # OF OBS      
   G29   172   172   172   172   172   172                  PRN / # OF OBS      
   G30    58    58    58    58    58    58                  PRN / # OF OBS      
   G31   331   331   331   331   331   331                  PRN / # OF OBS      
   G32   361   361   361   361   361   361                  PRN / # OF OBS      
   R01   312   312   312   312   312   312                  PRN / # OF OBS      
   R02   357   357   357   357   357   357                  PRN / # OF OBS      
   R03   387   387   387   387   387   387                  PRN / # OF OBS      
   R04   351   351   351   351   351   351                  PRN / # OF OBS      
   R05   224   224   224   224   224   224                  PRN / # OF OBS      
   R06   141   141   141     0     0     0                  PRN / # OF OBS      
   R07   172   172   172   172   172   172                  PRN / # OF OBS      
   R08   269   269   269   269   269   269                  PRN / # OF OBS      
   R10    35    35    35     0     0     0                  PRN / # OF OBS      
   R12   245   245   245   245   245   245                  PRN / # OF OBS      
   R13   308   308   308   308   308   308                  PRN / # OF OBS      
   R14   417   417   417   417   417   417                  PRN / # OF OBS      
   R15   292   292   292   292   292   292                  PRN / # OF OBS      
   R16    78    78    78    73    73    73                  PRN / # OF OBS      
   R17   313   313   313   313   313   313                  PRN / # OF OBS      
   R18   277   277   277   277   277   277                  PRN / # OF OBS      
   R19   206   206   206   206   206   206                  PRN / # OF OBS      
   R20   154   154   154   154   154   154                  PRN / # OF OBS      
   R21   160   160   160   160   160   160                  PRN / # OF OBS      
   R22   158   158   158   145   145   145                  PRN / # OF OBS      
   R23   296   296   296     0     0     0                  PRN / # OF OBS      
   R24   356   356   356   356   356   356                  PRN / # OF OBS      
                                                            END OF HEADER       
> 2021 11 07 00 00  0.0000000  0 20                     
G02  25506023.530 6 134035063.678 6        39.500    25506024.470 3 104442907.886 3        19.000  
G05  21313270.478 8 112002004.197 8        48.000    21313272.838 7  87274293.162 7        46.000  
G12  25010820.654 6 131432750.641 6        38.000    25010822.914 5 102415130.804 5        35.000  
G15  24961991.394 6 131176147.680 6        37.750    24961995.254 5 102215180.055 5        34.500  
G18  21037521.200 7 110552935.850 7        46.500    21037524.600 8  86145146.853 8        48.000  
G20  23195942.206 6 121895516.301 6        41.500    23195945.686 3  94983520.645 3        23.000  
G23  23923050.262 6 125716483.621 6        40.000    23923054.082 6  97960897.124 6        39.500  
G25  22463081.372 7 118044296.637 7        44.000    22463086.512 7  91982570.196 7        42.500  
G26  22322819.912 6 117307215.911 6        41.500    22322827.012 7  91408219.617 7        44.500  
G29  20548271.504 8 107981906.846 8        48.000    20548274.724 8  84141751.452 8        50.000  
G31  24674393.996 6 129664796.888 6        40.500    24674397.016 5 101037500.492 5        35.000  
R06  21923154.476 6 116986168.807 6        37.500                                                  
R07  21534572.440 7 115276261.713 7        46.000    21534575.640 7  89659316.208 7        42.500  
R08  23710636.524 5 126969384.398 5        33.500    23710637.404 5  98753966.093 5        34.500  
R12  21314062.080 8 113855891.744 8        48.000    21314065.180 7  88554580.582 7        44.500  
R13  20799171.884 6 111066419.579 6        37.500    20799175.044 6  86384997.474 6        39.000  
R14  23699871.464 7 126333651.142 7        42.000    23699876.164 5  98259506.841 5        35.500  
R21  22968588.068 7 122909566.741 7        44.250    22968589.368 6  95596331.840 6        37.500  
R22  20098063.428 6 107284841.096 6        37.500    20098064.528 5  83443773.243 5        32.500  
R23  21407621.160 7 114516350.576 7        42.500                                                  
> 2021 11 07 00 01  0.0000000  0 20                     
G02  25537722.650 6 134201643.286 6        38.500    25537723.510 3 104572710.164 3        18.500  
G05  21325865.378 7 112068191.690 7        47.500    21325867.938 7  87325867.845 7        46.000  
G12  25055606.734 6 131668102.899 6        37.250    25055609.174 5 102598522.214 5        34.000  
G15  24926868.794 6 130991575.321 6        37.500    24926871.714 5 102071357.438 5        34.500  
G18  21017900.780 7 110449830.133 7        47.000    21017904.020 7  86064804.763 7        47.750  
G20  23227580.486 6 122061775.310 6        40.750    23227583.106 3  95113073.144 3        22.500  
G23  23880083.722 6 125490694.359 6        39.000    23880087.702 6  97784957.446 6        38.500  
G25  22502007.350 7 118248858.570 7        43.000    22502013.630 7  92141969.021 7        43.000  
G26  22301170.572 7 117193448.923 7        42.250    22301177.592 7  91319570.018 7        44.500  
G29  20554847.864 8 108016464.324 8        48.500    20554850.784 8  84168679.367 8        49.500  
G31  24702243.916 6 129811149.847 6        41.000    24702247.236 6 101151541.742 6        36.000  
R06  21934580.996 6 117047137.096 6        38.000                                                  
R07  21505451.160 7 115120373.713 7        46.500    21505453.860 7  89538070.053 7        43.000  
R08  23662660.584 5 126712480.502 5        32.000    23662662.784 5  98554152.035 5        35.500  
R12  21353516.960 8 114066650.903 8        48.000    21353519.880 7  88718504.304 7        44.500  
R13  20799734.464 6 111069412.802 6        38.250    20799735.364 6  86387325.517 6        39.500  
R14  23661708.264 7 126130222.425 7        42.000    23661712.084 5  98101284.537 5        35.000  
R21  23000849.888 7 123082215.036 7        42.500    23000851.488 6  95730613.849 6        37.250  
R22  20111192.928 6 107354920.544 6        38.500    20111192.948 5  83498279.479 5        33.000  
R23  21382918.360 7 114384200.299 7        43.500                                                  
> 2021 11 07 00 02  0.0000000  0 20                     
G02  25569388.030 5 134368055.582 5        35.000    25569390.970 2 104702381.991 2        17.250  
G05  21338915.358 7 112136773.888 7        46.000    21338918.998 7  87379308.546 7        45.500  
G12  25100404.594 5 131903518.340 5        35.500    25100407.454 5 102781962.802 5        35.250  
G15  24891757.954 6 130807067.852 6        37.500    24891761.594 5 101927585.394 5        35.500  
G18  20998538.820 7 110348083.831 7        47.500    20998542.420 8  85985521.942 8        48.000  
G20  23259468.406 7 122229348.133 7        42.000    23259471.346 3  95243649.346 3        23.000  
G23  23837197.282 6 125265326.474 6        38.000    23837202.222 6  97609346.105 6        40.000  
G25  22541126.470 7 118454430.775 7        42.000    22541133.170 7  92302155.131 7        44.000  
G26  22279886.652 7 117081600.196 7        42.500    22279893.572 7  91232415.123 7        44.500  
G29  20561688.204 8 108052409.440 8        49.000    20561690.904 8  84196688.556 8        50.000  
G31  24730255.116 6 129958351.249 6        40.500    24730259.276 6 101266244.107 6        37.000  
R06  21946587.636 6 117111210.782 6        37.000                                                  
R07  21476771.400 7 114966849.668 7        47.000    21476774.640 7  89418662.452 7        44.250  
R08  23614693.204 5 126455618.367 5        32.000    23614695.644 5  98354370.430 5        35.000  
R12  21393303.040 8 114279177.555 8        48.500    21393305.160 7  88883802.780 7        44.000  
R13  20800915.044 6 111075714.831 6        39.000    20800914.724 6  86392227.106 6        38.750  
R14  23623882.864 7 125928587.648 7        43.500    23623884.004 5  97944457.523 5        33.000  
R21  23033150.028 6 123255062.159 6        41.750    23033154.668 6  95865050.494 6        39.500  
R22  20124508.608 6 107425998.100 6        37.500    20124508.488 5  83553562.032 5        33.500  
R23  21358359.660 7 114252827.250 7        44.000                                                  
> 2021 11 07 00 03  0.0000000  0 20                     
G02  25601024.510 6 134534297.809 6        38.750    25601026.210 3 104831921.350 3        19.500  
G05  21352420.578 7 112207740.712 7        46.000    21352423.158 7  87434607.417 7        45.000  
G12  25145210.294 5 132138980.200 5        34.500    25145214.514 5 102965439.534 5        33.250  
G15  24856663.796 6 130622650.007 6        37.500    24856668.196 6 101783883.192 6        36.250  
G18  20979436.102 7 110247699.537 7        46.500    20979439.862 7  85907300.439 7        47.000  
G20  23291603.046 6 122398216.196 6        41.000    23291605.386 3  95375234.854 3        22.500  
G23  23794395.862 6 125040401.379 6        39.750    23794400.542 6  97434079.782 6        40.000  
G25  22580434.230 7 118660993.820 7        42.500    22580440.930 7  92463113.329 7        43.750  
G26  22258971.232 7 116971686.059 7        43.500    22258977.472 7  91146767.755 7        45.250  
G29  20568792.824 8 108089746.527 8        48.500    20568795.844 8  84225782.389 8        50.000  
G31  24758423.096 6 130106377.681 6        39.500    24758427.996 6 101381589.352 6        37.000  
R06  21959176.536 6 117178381.486 6        36.500                                                  
R07  21448538.480 7 114815721.053 7        46.250    21448542.460 7  89301118.055 7        43.500  
R08  23566740.344 5 126198832.133 5        34.500    23566742.064 5  98154647.785 5        33.500  
R12  21433412.400 8 114493437.925 8        48.000    21433415.280 7  89050449.724 7        43.750  
R13  20802714.324 6 111085323.783 6        39.000    20802714.324 6  86399700.731 6        39.500  
R14  23586399.204 6 125728779.346 6        41.750    23586400.504 5  97789051.037 5        32.000  
R21  23065488.088 6 123428106.434 6        41.000    23065492.148 6  95999640.361 6        38.500  
R22  20138008.788 6 107498069.218 6        38.500    20138009.588 5  83609617.348 5        32.750  
R23  21333945.440 7 114122233.164 7        44.500                                                  
> 2021 11 07 00 04  0.0000000  0 20                     
G02  25632626.830 6 134700365.569 6        39.000    25632627.950 3 104961324.795 3        19.750  
G05  21366376.698 7 112281080.647 7        46.500    21366379.118 7  87491755.432 7        44.750  
G12  25190021.832 5 132374471.106 5        32.000    25190026.992 5 103148939.032 5        34.500  
G15  24821593.056 6 130438346.811 6        36.500    24821596.836 5 101640270.325 5        35.000  
G18  20960593.462 7 110148679.153 7        45.000    20960596.842 8  85830141.742 8        48.000  
G20  23323980.506 6 122568360.369 6        41.250    23323981.586 3  95507814.755 3        20.750  
G23  23751682.022 7 124815939.790 7        42.000    23751686.602 6  97259174.727 6        41.750  
G25  22619927.450 7 118868527.549 7        43.000    22619933.250 7  92624827.880 7        43.500  
G26  22238425.532 7 116863722.106 7        43.500    22238432.532 7  91062639.976 7        45.000  
G29  20576163.064 8 108128479.016 8        48.250    20576166.164 8  84255963.551 8        49.500  
G31  24786744.596 6 130255206.316 6        40.000    24786748.476 6 101497559.682 6        36.500  
R06  21972343.556 6 117248638.476 6        37.500                                                  
R07  21420761.200 7 114667019.417 7        47.500    21420763.200 7  89185461.254 7        43.250  
R08  23518808.684 5 125942155.496 5        34.500    23518809.524 5  97955010.351 5        35.500  
R12  21473840.360 7 114709396.989 7        47.000    21473843.040 7  89218417.857 7        43.000  
R13  20805130.804 6 111098236.326 6        38.500    20805133.664 6  86409743.803 6        40.500  
R14  23549264.864 7 125530828.321 7        43.000    23549267.324 5  97635089.135 5        32.500  
R21  23097863.708 7 123601345.801 7        43.000    23097863.008 6  96134382.051 6        37.000  
R22  20151695.128 6 107571128.914 6        38.500    20151696.188 5  83666441.564 5        33.000  
R23  21309677.980 7 113992419.258 7        44.500                                                  
> 2021 11 07 00 05  0.0000000  0 21                     
G02  25664194.070 6 134866254.706 6        37.000    25664196.350 3 105090589.104 3        19.000  
G05  21380781.658 7 112356780.258 7        47.750    21380784.098 7  87550742.144 7        44.750  
G12  25234835.712 5 132609972.475 5        31.500    25234841.952 5 103332446.609 5        33.250  
G15  24786548.056 6 130254182.824 6        37.000    24786551.476 5 101496765.876 5        34.000  
G16  25046824.534 5 131621948.724 5        35.250                                                  
G18  20942009.762 7 110051023.200 7        46.000    20942013.182 8  85754046.204 8        48.000  
G20  23356595.766 6 122739759.951 6        40.750    23356597.686 3  95641372.834 3        21.000  
G23  23709060.942 7 124591961.374 7        42.250    23709064.582 7  97084646.125 7        42.000  
G25  22659600.250 7 119077010.550 7        43.250    22659606.050 7  92787282.175 7        43.250  
G26  22218254.752 7 116757722.471 7        43.750    22218260.872 7  90980042.869 7        44.500  
G29  20583800.324 8 108168609.748 8        48.750    20583803.344 8  84287234.239 8        49.500  
G31  24815214.816 6 130404812.659 6        41.000    24815217.816 6 101614136.082 6        36.000  
R06  21986083.136 6 117321969.881 6        36.000                                                  
R07  21393440.660 7 114520773.786 7        47.000    21393443.460 7  89071714.673 7        43.000  
R08  23470902.804 6 125685620.209 6        36.500    23470904.104 6  97755482.939 6        37.000  
R12  21514579.900 7 114927018.814 7        47.500    21514582.700 7  89387679.250 7        43.500  
R13  20808167.684 6 111114447.919 6        39.500    20808169.904 6  86422352.782 6        40.250  
R14  23512483.484 6 125334764.449 6        40.000    23512487.004 5  97482595.006 5        33.500  
R21  23130273.928 7 123774776.875 7        44.000    23130273.108 6  96269272.865 6        36.250  
R22  20165566.108 6 107645171.247 6        38.000    20165566.868 5  83724030.053 5        33.250  
R23  21285557.240 7 113863385.806 7        45.500                                                  
> 2021 11 07 00 06  0.0000000  0 21                     
G02  25695726.770 6 135031960.515 6        36.750    25695729.770 3 105219710.446 3        19.000  
G05  21395633.658 7 112434826.896 7        47.500    21395635.698 7  87611557.692 7        44.500  
G12  25279650.652 5 132845465.852 5        31.000    25279654.872 5 103515947.896 5        33.000  
G15  24751533.316 6 130070182.374 6        36.500    24751537.296 5 101353388.875 5        34.500  
G16  25007056.694 5 131412966.612 5        33.500    25007058.614 2 102399716.794 2        16.000  
G18  20923686.562 7 109954732.077 7        45.500    20923689.862 8  85679014.182 8        48.250  
G20  23389447.844 6 122912394.908 6        41.750    23389449.124 3  95775893.565 3        21.500  
G23  23666535.204 7 124368485.638 7        42.000    23666538.704 7  96910509.219 7        42.750  
G25  22699449.770 7 119286421.459 7        42.500    22699456.230 7  92950459.498 7        43.000  
G26  22198460.432 7 116653700.959 7        44.000    22198466.112 7  90898987.134 7        44.500  
G29  20591703.064 8 108210140.701 8        48.000    20591706.464 8  84319596.029 8        50.000  
G31  24843827.396 6 130555172.317 6        40.500    24843830.076 6 101731299.433 6        36.000  
R06  22000399.636 5 117398362.843 5        35.500                                                  
R07  21366585.080 7 114377013.943 7        46.000    21366588.640 7  88959901.503 7        44.000  
R08  23423030.364 6 125429259.402 6        37.750    23423030.684 6  97556091.252 6        38.500  
R12  21555624.700 7 115146267.330 7        47.750    21555626.300 7  89558205.853 7        44.000  
R13  20811820.084 6 111133952.858 6        39.000    20811822.484 6  86437523.259 6        40.500  
R14  23476062.804 6 125140617.598 6        39.500    23476065.164 5  97331591.890 5        33.000  
R21  23162718.128 7 123948396.872 7        43.000    23162721.228 6  96404310.583 6        39.500  
R22  20179618.768 6 107720190.166 6        37.750    20179620.668 5  83782378.110 5        33.500  
R23  21261582.380 7 113735133.093 7        45.250                                                  
> 2021 11 07 00 07  0.0000000  0 21                     
G02  25727224.430 6 135197481.709 6        39.000    25727227.030 3 105348687.982 3        20.000  
G05  21410929.618 7 112515208.783 7        47.000    21410931.558 7  87674192.933 7        44.500  
G12  25324458.212 4 133080935.985 4        29.500    25324462.992 5 103699431.170 5        30.500  
G15  24716555.076 6 129886371.872 6        36.500    24716559.356 5 101210159.997 5        34.500  
G16  24967432.534 5 131204742.829 5        35.000    24967434.134 2 102237464.498 2        16.750  
G18  20905623.062 7 109859809.013 7        45.000    20905626.822 8  85605048.191 8        48.500  
G20  23422531.264 6 123086247.331 6        41.500    23422532.044 3  95911362.967 3        21.500  
G23  23624108.144 6 124145535.012 6        41.500    23624112.344 7  96736781.524 7        42.250  
G25  22739472.030 7 119496741.600 7        43.000    22739478.670 7  93114345.291 7        43.000  
G26  22179045.714 7 116551674.238 7        45.500    22179051.494 7  90819485.784 7        44.000  
G29  20599873.884 8 108253077.029 8        48.750    20599876.784 8  84353052.909 8        50.000  
G31  24872578.676 6 130706263.825 6        41.000    24872581.516 5 101849033.043 5        34.500  
R06  22015288.476 6 117477806.839 6        36.000                                                  
R07  21340199.140 7 114235770.844 7        46.000    21340202.800 7  88850045.814 7        44.000  
R08  23375195.128 6 125173108.391 6        38.000    23375195.728 6  97356862.740 6        37.500  
R12  21596967.096 8 115367109.197 8        48.000    21596968.436 7  89729971.731 7        44.000  
R13  20816087.424 6 111156747.342 6        38.250    20816090.504 6  86455252.290 6        40.000  
R14  23440006.144 6 124948420.292 6        39.500    23440009.744 5  97182105.050 5        34.500  
R21  23195197.068 6 124122205.810 6        40.000    23195200.648 6  96539495.162 6        39.250  
R22  20193854.408 6 107796182.797 6        38.000    20193857.048 5  83841483.475 5        33.500  
R23  21237752.420 7 113607663.971 7        45.500                                                  
> 2021 11 07 00 08  0.0000000  0 21                     
G02  25758684.670 5 135362812.747 5        35.000    25758687.030 2 105477517.370 2        16.750  
G05  21426667.158 7 112597912.066 7        45.500    21426669.958 7  87738637.064 7        43.750  
G12  25369258.292 4 133316363.860 4        29.250    25369263.792 4 103882881.435 4        29.000  
G15  24681618.256 6 129702775.912 6        37.000    24681621.476 5 101067098.218 5        33.500  
G16  24927956.094 6 130997297.994 6        36.500    24927958.634 2 102075819.166 2        14.750  
G18  20887820.222 7 109766253.590 7        45.500    20887823.562 8  85532147.882 8        49.000  
G20  23455841.564 7 123261296.393 7        42.000    23455842.784 3  96047764.834 3        22.000  
G23  23581786.484 6 123923128.537 6        40.500    23581789.484 6  96563477.824 6        41.000  
G25  22779663.690 7 119707948.833 7        42.500    22779669.470 7  93278922.321 7        42.500  
G26  22160012.774 7 116451655.053 7        45.500    22160018.194 7  90741548.745 7        44.000  
G29  20608312.024 8 108297420.710 8        48.500    20608315.164 8  84387606.425 8        49.750  
G31  24901464.314 6 130858062.012 6        40.250    24901467.814 5 101967317.318 5        34.500  
R06  22030743.976 6 117560287.440 6        36.500                                                  
R07  21314289.800 7 114097073.164 7        47.500    21314293.860 7  88742169.907 7        45.000  
R08  23327405.608 6 124917199.510 6        37.500    23327406.008 6  97157822.562 6        36.500  
R12  21638599.916 8 115589507.117 8        48.500    21638601.496 7  89902947.868 7        44.000  
R13  20820970.824 6 111182823.109 6        39.250    20820973.584 6  86475533.434 6        39.750  
R14  23404321.724 6 124758201.233 6        37.750    23404324.844 5  97034156.887 5        32.750  
R21  23227714.028 6 124296199.501 6        41.500    23227714.868 6  96674823.503 6        38.000  
R22  20208271.408 6 107873142.859 6        37.500    20208273.708 5  83901341.313 5        33.000  
R23  21214069.160 7 113480978.274 7        46.000                                                  
> 2021 11 07 00 09  0.0000000  0 20                     
G02  25790111.128 6 135527949.848 6        39.000    25790111.408 2 105606195.611 2        16.000  
G05  21442844.038 7 112682922.252 7        44.750    21442846.858 7  87804878.788 7        43.500  
G15  24646726.296 6 129519418.623 6        37.000    24646729.556 5 100924222.414 5        32.750  
G16  24888632.854 6 130790652.408 6        36.000    24888634.034 2 101914796.654 2        15.500  
G18  20870277.742 7 109674065.861 7        45.500    20870280.582 8  85460313.311 8        48.500  
G20  23489376.344 7 123437521.587 7        42.000    23489377.304 3  96185083.151 3        22.000  
G23  23539570.704 6 123701285.725 6        40.500    23539575.024 7  96390613.308 7        42.000  
G25  22820019.468 6 119920021.632 6        41.250    22820025.848 7  93444173.816 7        42.750  
G26  22141364.394 7 116353656.619 7        44.000    22141369.654 7  90665186.341 7        45.000  
G29  20617018.344 8 108343173.519 8        48.500    20617021.504 8  84423257.952 8        49.000  
G31  24930480.094 6 131010542.313 6        38.500    24930483.574 5 102086133.153 5        33.500  
R06  22046768.776 6 117645789.889 6        37.000                                                  
R07  21288860.820 7 113960948.232 7        47.000    21288863.800 7  88636295.014 7        44.500  
R08  23279666.528 6 124661565.820 6        37.000    23279668.088 6  96958996.398 6        36.500  
R12  21680516.836 8 115813424.793 8        48.000    21680519.556 7  90077106.048 7        44.500  
R13  20826469.224 6 111212172.785 6        39.250    20826470.004 6  86498360.943 6        39.500  
R14  23369013.908 6 124569989.793 6        38.000    23369016.548 5  96887770.149 5        32.500  
R21  23260259.428 6 124470375.518 6        39.250    23260263.068 6  96810293.685 6        36.500  
R22  20222869.008 6 107951064.990 6        37.000    20222871.028 5  83961947.422 5        32.750  
R23  21190532.980 7 113355076.595 7        46.000                                                  
> 2021 11 07 00 10  0.0000000  0 19                     
G05  21459457.858 7 112770225.512 7        47.000    21459460.918 7  87872907.331 7        44.500  
G15  24611884.736 6 129336325.060 6        36.500    24611888.276 5 100781552.061 5        33.500  
G16  24849465.976 5 130584826.766 5        34.500    24849467.236 2 101754412.965 2        13.750  
G18  20852994.982 7 109583246.678 7        46.000    20852998.622 8  85389545.118 8        49.000  
G20  23523130.724 7 123614903.339 7        42.500    23523131.984 3  96323302.675 3        22.000  
G23  23497466.024 6 123480027.076 6        40.500    23497471.384 7  96218203.997 7        42.750  
G25  22860536.868 7 120132939.245 7        42.000    22860542.428 7  93610083.603 7        42.000  
G26  22123102.354 7 116257692.727 7        43.250    22123108.934 7  90590409.298 7        45.500  
G29  20625993.684 8 108390338.366 8        49.000    20625996.564 8  84460009.779 8        49.500  
G31  24959622.054 6 131163681.248 6        38.750    24959625.094 5 102205462.126 5        34.500  
R06  22063355.936 6 117734299.992 6        36.500                                                  
R07  21263917.720 7 113827424.478 7        47.000    21263920.160 7  88532443.226 7        43.500  
R08  23231986.968 6 124406241.181 6        36.000    23231988.168 6  96760410.603 6        37.000  
R12  21722712.556 8 116038826.686 8        48.000    21722715.776 7  90252418.613 7        44.500  
R13  20832576.384 6 111244788.553 6        38.750    20832578.704 6  86523728.740 6        39.500  
R14  23334088.088 6 124383815.218 6        36.500    23334091.488 5  96742967.752 5        34.500  
R21  23292844.248 6 124644732.191 6        40.500    23292847.128 6  96945904.349 6        37.750  
R22  20237646.868 6 108029944.352 6        37.500    20237648.128 5  84023298.028 5        33.000  
R23  21167144.440 7 113229959.767 7        45.500                                                  
> 2021 11 07 00 11  0.0000000  0 19                     
G05  21476505.138 7 112859810.033 7        47.500    21476507.938 7  87942713.465 7        44.750  
G15  24577098.258 6 129153523.302 6        36.000    24577101.818 5 100639109.208 5        31.750  
G16  24810458.616 5 130379845.098 5        35.000    24810460.976 2 101594686.975 2        15.500  
G18  20835973.782 7 109493798.735 7        47.000    20835976.762 8  85319845.459 8        49.000  
G20  23557102.624 7 123793423.915 7        42.500    23557103.824 3  96462409.603 3        22.500  
G23  23455477.664 6 123259374.897 6        39.500    23455482.104 7  96046267.274 7        42.500  
G25  22901211.188 7 120346682.870 7        42.000    22901217.088 7  93776637.053 7        43.000  
G26  22105231.294 7 116163778.892 7        44.500    22105237.594 7  90517229.685 7        45.500  
G29  20635238.284 7 108438920.564 7        47.250    20635241.744 8  84497866.023 8        49.000  
G31  24988884.234 6 131317456.939 6        37.500    24988887.754 5 102325287.344 5        34.000  
R06  22080501.316 6 117825804.987 6        36.250                                                  
R07  21239464.840 7 113696531.864 7        45.750    21239467.400 7  88430637.914 7        42.250  
R08  23184370.828 6 124151262.014 6        36.000    23184372.348 6  96562093.529 6        37.500  
R12  21765180.496 7 116265679.041 7        47.500    21765182.936 7  90428859.312 7        43.750  
R13  20839294.024 6 111280664.722 6        38.500    20839296.744 6  86551632.404 6        40.000  
R14  23299549.768 6 124199709.954 6        36.500    23299555.008 5  96599774.785 5        35.000  
R21  23325461.488 7 124819269.315 7        43.000    23325463.928 6  97081655.423 6        38.000  
R22  20252603.888 6 108109778.000 6        37.000    20252603.428 5  84085390.886 5        33.000  
R23  21143902.460 7 113105631.520 7        46.500                                                  
> 2021 11 07 00 12  0.0000000  0 19                     
G05  21493983.298 7 112951659.937 7        47.500    21493986.138 7  88014284.827 7        44.500  
G15  24542372.958 6 128971037.894 6        37.000    24542375.698 5 100496912.747 5        31.000  
G16  24771616.656 5 130175728.632 5        35.750    24771618.316 2 101435635.249 2        14.750  
G18  20819213.522 7 109405721.721 7        46.500    20819216.802 8  85251214.028 8        49.250  
G20  23591286.524 7 123973062.654 7        42.000    23591288.964 3  96602387.839 3        22.000  
G23  23413607.584 6 123039348.727 6        39.500    23413611.924 6  95874818.347 6        41.500  
G25  22942037.708 7 120561230.847 7        42.500    22942044.328 7  93943817.254 7        42.000  
G26  22087751.474 6 116071927.507 6        41.750    22087758.614 7  90445657.142 7        44.750  
G29  20644753.584 7 108488921.707 7        47.500    20644756.664 8  84536827.938 8        49.250  
G31  25018263.774 6 131471844.939 6        39.000    25018266.714 5 102445589.708 5        35.000  
R06  22098210.436 5 117920288.316 5        34.500                                                  
R07  21215509.440 7 113568297.059 7        46.000    21215511.800 7  88330899.755 7        43.500  
R08  23136826.528 6 123896661.638 6        36.000    23136827.988 6  96364071.094 6        39.500  
R12  21807911.896 7 116493945.068 7        46.500    21807915.056 7  90606399.541 7        43.750  
R13  20846621.284 6 111319790.064 6        38.000    20846623.084 6  86582063.194 6        39.250  
R14  23265405.748 6 124017702.200 6        37.500    23265410.328 5  96458213.213 5        35.500  
R21  23358111.488 7 124993984.482 7        42.000    23358113.108 6  97217544.914 6        37.500  
R22  20267736.528 6 108190561.384 6        38.250    20267736.468 5  84148222.415 5        33.250  
R23  21120808.760 7 112982091.918 7        46.500                                                  
> 2021 11 07 00 13  0.0000000  0 19                     
G05  21511889.818 7 113045759.453 7        46.000    21511892.458 7  88087609.125 7        44.250  
G15  24507712.278 6 128788893.041 6        37.750    24507714.458 5 100354981.679 5        32.000  
G16  24732943.676 6 129972497.261 6        36.250    24732944.676 2 101277273.062 2        13.750  
G18  20802713.542 7 109319014.895 7        47.500    20802716.762 8  85183650.275 8        49.500  
G20  23625679.344 6 124153798.944 6        41.500    23625681.904 3  96743221.285 3        22.750  
G23  23371861.106 6 122819967.568 6        40.000    23371865.226 6  95703872.046 6        41.500  
G25  22983013.888 7 120776561.052 7        43.000    22983019.888 6  94111606.983 6        41.000  
G26  22070667.994 7 115982150.176 7        44.000    22070675.594 7  90375700.815 7        45.500  
G29  20654538.164 8 108540342.928 8        48.000    20654542.044 8  84576896.406 8        49.000  
G31  25047754.874 6 131626820.607 6        39.000    25047758.174 5 102566350.069 5        35.000  
R06  22116469.736 5 118017732.621 5        35.000                                                  
R07  21192056.380 7 113442746.311 7        47.750    21192059.480 7  88233249.223 7        44.500  
R08  23089357.988 6 123642473.462 6        37.000    23089359.368 6  96166369.235 6        39.000  
R12  21850901.856 7 116723587.980 7        44.500    21850904.576 7  90785010.690 7        44.000  
R13  20854554.444 6 111362153.812 6        39.000    20854556.104 6  86615012.759 6        38.750  
R14  23231659.428 6 123837819.824 6        39.000    23231664.268 6  96318304.735 6        36.000  
R21  23390792.984 6 125168874.344 6        40.500    23390795.284 6  97353570.406 6        36.500  
R22  20283045.548 6 108272288.151 6        39.250    20283046.928 5  84211787.683 5        33.000  
R23  21097862.420 7 112859341.158 7        47.500                                                  
> 2021 11 07 00 14  0.0000000  0 19                     
G05  21530221.738 7 113142093.922 7        46.500    21530224.178 7  88162674.960 7        45.000  
G15  24473120.818 5 128607115.955 5        35.500    24473124.178 5 100213337.210 5        35.250  
G16  24694442.816 5 129770173.537 5        35.500    24694443.376 2 101119618.153 2        15.500  
G18  20786474.762 7 109233679.708 7        46.750    20786478.162 8  85117155.364 8        49.000  
G20  23660277.584 6 124335613.944 6        41.250    23660280.684 3  96884895.284 3        22.000  
G23  23330241.386 7 122601253.042 7        43.000    23330244.886 6  95533445.139 6        39.500  
G25  23024134.848 7 120992653.744 7        42.000    23024140.548 6  94279990.890 6        40.500  
G26  22053981.754 7 115894460.865 7        44.750    22053988.434 7  90307371.484 7        46.000  
G29  20664594.664 7 108593188.003 7        47.000    20664597.844 8  84618074.395 8        50.000  
G31  25077353.054 6 131782360.944 6        37.250    25077356.594 5 102687550.291 5        35.250  
R06  22135281.556 5 118118122.604 5        34.500                                                  
R07  21169109.480 8 113319906.938 8        48.500    21169110.860 7  88137707.517 7        44.000  
R08  23041974.128 6 123388733.080 6        37.500    23041975.248 6  95969015.593 6        38.000  
R12  21894142.696 7 116954572.780 7        46.000    21894144.936 7  90964665.492 7        43.500  
R13  20863092.944 6 111407746.608 6        38.500    20863094.204 6  86650473.804 6        39.500  
R14  23198319.088 6 123660093.196 6        40.000    23198322.208 5  96180072.910 5        35.500  
R21  23423507.624 6 125343938.821 6        39.250    23423511.684 6  97489731.543 6        39.500  
R22  20298532.188 6 108354955.633 6        38.500    20298533.528 5  84276084.623 5        33.250  
R23  21075062.640 7 112737381.871 7        46.500                                                  
> 2021 11 07 00 15  0.0000000  0 19                     
G05  21548976.298 7 113240648.142 7        46.500    21548978.618 7  88239470.454 7        45.500  
G15  24438604.098 5 128425731.584 5        35.000    24438607.858 5 100071998.705 5        35.000  
G16  24656119.076 5 129568779.261 5        34.500    24656120.916 2 100962687.573 2        15.500  
G18  20770496.902 7 109149715.745 7        45.500    20770500.402 8  85051728.913 8        48.500  
G20  23695077.362 6 124518487.139 6        40.500    23695080.042 3  97027393.858 3        21.500  
G23  23288752.346 7 122383224.608 7        43.500    23288754.926 6  95363552.840 6        40.500  
G25  23065397.328 6 121209487.353 6        41.500    23065403.048 6  94448952.108 6        41.000  
G26  22037694.854 7 115808871.206 7        44.500    22037700.034 7  90240678.264 7        44.000  
G29  20674921.964 7 108647459.088 7        47.000    20674925.364 8  84660363.541 8        49.500  
G31  25107054.514 6 131938442.068 6        38.000    25107057.594 5 102809171.950 5        33.500  
R06  22154643.896 5 118221440.105 5        35.250                                                  
R07  21146671.400 7 113199804.526 7        46.000    21146673.860 7  88044294.568 7        43.000  
R08  22994680.948 6 123135473.684 6        37.000    22994681.348 6  95772036.083 6        39.500  
R12  21937628.396 7 117186862.980 7        46.500    21937630.576 7  91145335.628 7        43.500  
R13  20872233.144 6 111456556.002 6        38.500    20872235.264 6  86688436.627 6        40.000  
R14  23165389.228 7 123484549.946 7        42.500    23165390.948 6  96043539.271 6        36.000  
R21  23456255.704 6 125519175.216 6        40.500    23456258.124 6  97626026.444 6        38.500  
R22  20314194.408 6 108438558.691 6        37.500    20314194.568 5  84341109.228 5        32.500  
R23  21052411.980 7 112616214.821 7        47.000                                                  
> 2021 11 07 00 16  0.0000000  0 19                     
G05  21568149.678 7 113341406.702 7        47.000    21568153.098 7  88317983.620 7        45.500  
G15  24404168.098 6 128244765.654 6        36.250    24404171.958 6  99930986.400 6        36.500  
G16  24617975.396 5 129368335.733 5        34.500    24617976.976 2 100806497.862 2        15.500  
G18  20754779.702 7 109067123.222 7        46.000    20754783.302 8  84987371.107 8        49.000  
G20  23730074.502 6 124702399.063 6        40.500    23730077.382 3  97170701.881 3        22.000  
G23  23247397.206 7 122165902.705 7        43.500    23247400.626 6  95194211.088 6        41.250  
G25  23106795.646 6 121427041.008 6        39.500    23106802.326 6  94618474.416 6        41.500  
G26  22021809.834 7 115725393.483 7        44.000    22021814.994 7  90175630.715 7        44.750  
G29  20685521.484 7 108703158.189 7        47.000    20685524.704 8  84703765.432 8        49.000  
G31  25136853.854 6 132095040.378 6        37.750    25136857.414 5 102931196.538 5        35.000  
R06  22174552.196 5 118327667.637 5        35.500                                                  
R07  21124752.900 8 113082464.908 8        48.000    21124755.080 7  87953030.477 7        45.000  
R08  22947483.208 6 122882731.021 6        36.500    22947483.768 6  95575458.525 6        39.500  
R12  21981349.856 7 117420422.514 7        46.000    21981353.196 7  91326993.006 7        43.000  
R13  20881973.664 6 111508570.292 6        39.000    20881976.444 6  86728892.140 6        41.500  
R14  23132870.888 7 123311218.980 7        42.000    23132875.428 6  95908726.300 6        36.250  
R21  23489034.624 6 125694582.777 6        41.500    23489035.584 5  97762454.520 5        35.250  
R22  20330031.088 6 108523093.290 6        37.500    20330031.208 5  84406858.359 5        32.250  
R23  21029909.460 7 112495841.711 7        46.500                                                  
> 2021 11 07 00 17  0.0000000  0 19                     
G05  21587739.996 7 113444354.095 7        47.500    21587743.476 7  88398202.365 7        46.000  
G15  24369815.958 5 128064245.298 5        35.750    24369820.438 6  99790321.223 6        36.750  
G16  24580017.958 5 129168865.838 5        34.500    24580018.958 2 100651066.771 2        15.500  
G18  20739323.922 7 108985902.808 7        45.500    20739327.502 8  84924082.487 8        49.000  
G20  23765265.582 6 124887331.139 6        39.750    23765269.262 3  97314804.759 3        21.000  
G23  23206180.066 7 121949308.171 7        42.500    23206184.406 6  95025436.146 6        41.500  
G25  23148328.386 6 121645294.495 6        41.250    23148334.926 6  94788541.971 6        41.750  
G26  22006328.094 7 115644040.153 7        44.000    22006333.674 7  90112238.495 7        43.500  
G29  20696392.422 7 108760287.970 7        47.500    20696395.942 8  84748282.147 8        49.000  
G31  25166747.074 6 132252132.501 6        36.000    25166751.014 5 103053605.990 5        34.500  
R06  22195001.812 5 118436787.716 5        35.250                                                  
R07  21103354.280 8 112967913.904 8        48.500    21103355.380 7  87863935.289 7        43.500  
R08  22900386.528 6 122630540.460 6        39.000    22900388.268 6  95379310.359 6        39.750  
R12  22025304.636 7 117655216.022 7        46.500    22025306.896 7  91509610.156 7        43.500  
R13  20892313.784 6 111563777.943 6        39.000    20892314.584 6  86771831.402 6        40.500  
R14  23100775.968 7 123140129.338 7        42.000    23100779.028 6  95775656.532 6        37.000  
R21  23521845.644 6 125870160.258 6        40.500    23521847.664 6  97899014.793 6        37.500  
R22  20346039.888 6 108608556.261 6        36.750    20346041.268 5  84473329.578 5        33.250  
R23  21007555.120 7 112376264.885 7        46.500                                                  
> 2021 11 07 00 18  0.0000000  0 20                     
G05  21607742.876 7 113549472.887 7        45.500    21607746.536 7  88480113.119 7        45.500  
G13  25020904.094 6 131485738.246 6        37.500    25020909.054 2 102456420.172 2        17.250  
G15  24335553.818 6 127884195.171 6        38.750    24335558.278 6  99650022.490 6        36.000  
G16  24542249.138 5 128970390.161 5        32.500                                                  
G18  20724129.562 7 108906053.705 7        46.000    20724132.422 8  84861862.442 8        49.500  
G20  23800647.562 6 125073262.702 6        39.500    23800651.202 3  97459686.517 3        21.500  
G23  23165105.526 7 121733460.542 7        42.500    23165110.506 7  94857243.209 7        43.250  
G25  23189989.606 6 121864226.117 6        41.500    23189996.186 6  94959138.022 6        41.250  
G26  21991253.034 7 115564822.088 7        43.000    21991258.314 7  90050510.135 7        44.500  
G29  20707536.542 7 108818850.435 7        47.250    20707539.462 8  84793915.241 8        48.500  
G31  25196730.612 6 132409694.781 6        38.500    25196733.452 5 103176381.762 5        35.000  
R06  22215987.792 5 118548780.802 5        35.500                                                  
R07  21082480.060 8 112856175.453 8        48.250    21082480.820 7  87777027.586 7        43.000  
R08  22853402.088 6 122378935.908 6        38.500    22853402.608 6  95183617.961 6        39.750  
R12  22069482.956 7 117891207.040 7        46.500    22069485.116 7  91693158.709 7        43.250  
R13  20903247.164 6 111622164.151 6        39.000    20903248.024 6  86817242.886 6        39.250  
R14  23069104.568 7 122971308.175 7        42.000    23069107.948 6  95644351.231 6        36.500  
R21  23554687.704 6 126045905.408 6        40.500    23554690.244 6  98035705.376 6        37.500  
R22  20362224.408 6 108694943.469 6        37.750    20362225.008 5  84540519.626 5        33.500  
R23  20985350.524 7 112257485.146 7        46.500                                                  
> 2021 11 07 00 19  0.0000000  0 20                     
G05  21628156.396 7 113656746.877 7        45.000    21628160.156 7  88563703.238 7        45.000  
G13  24993096.674 6 131339605.497 6        38.000    24993098.854 2 102342550.588 2        14.750  
G15  24301385.818 6 127704641.915 6        39.500    24301390.098 5  99510110.798 5        34.750  
G16  24504671.498 5 128772930.669 5        31.000                                                  
G18  20709195.582 7 108827575.728 7        46.500    20709198.942 8  84800710.794 8        49.000  
G20  23836215.142 6 125260173.838 6        37.500    23836218.682 3  97605331.541 3        20.000  
G23  23124177.146 7 121518379.896 7        42.500    23124182.146 7  94689647.919 7        43.000  
G25  23231776.206 7 122083814.868 7        43.000    23231782.246 6  95130246.130 6        40.500  
G26  21976587.034 7 115487750.467 7        44.750    21976593.074 7  89990454.342 7        45.500  
G29  20718953.902 7 108878847.643 7        47.500    20718956.162 8  84840666.305 8        48.250  
G31  25226798.032 6 132567702.904 6        36.500    25226801.152 5 103299505.024 5        33.500  
R06  22237510.232 5 118663627.345 5        35.500                                                  
R07  21062136.660 7 112747273.365 7        47.500    21062138.440 7  87692325.997 7        45.000  
R08  22806533.648 6 122127952.651 6        40.500    22806532.848 6  94988408.792 6        38.000  
R12  22113879.416 7 118128359.702 7        45.500    22113880.556 7  91877610.723 7        43.000  
R13  20914772.444 6 111683715.544 6        39.000    20914774.204 6  86865116.163 6        39.500  
R14  23037865.568 7 122804783.142 7        44.000    23037869.488 6  95514831.744 6        37.750  
R21  23587562.524 6 126221817.285 6        41.000    23587562.524 6  98172525.746 6        38.000  
R22  20378578.848 6 108782250.444 6        37.000    20378580.528 5  84608425.057 5        33.500  
R23  20963295.504 7 112139504.433 7        47.500                                                  
> 2021 11 07 00 20  0.0000000  0 21                     
G05  21648977.136 7 113766159.180 7        45.500    21648980.136 7  88648959.599 7        44.000  
G13  24965457.734 6 131194365.839 6        38.500    24965459.194 2 102229376.769 2        16.750  
G15  24267316.560 6 127525611.312 6        38.000    24267321.720 5  99370606.520 5        34.000  
G16  24467293.798 4 128576509.235 4        29.750                                                  
G18  20694522.562 7 108750468.537 7        46.000    20694526.142 8  84740627.299 8        49.500  
G20  23871966.202 6 125448045.284 6        38.750    23871969.902 3  97751724.912 3        20.500  
G23  23083398.608 6 121304086.437 6        40.500    23083403.268 7  94522666.050 7        44.000  
G25  23273683.506 7 122304039.791 7        42.250    23273690.106 6  95301849.964 6        41.000  
G26  21962330.974 7 115412836.207 7        44.000    21962337.334 7  89932079.609 7        44.500  
G29  20730644.382 7 108940281.291 7        47.250    20730646.942 8  84888536.670 8        48.250  
G31  25256945.592 5 132726133.297 5        35.000    25256949.672 5 103422957.219 5        34.000  
R06  22259564.352 6 118781307.740 6        38.000                                                  
R07  21042326.340 8 112641231.608 8        48.000    21042327.660 7  87609849.159 7        44.000  
R08  22759785.532 6 121877625.298 6        39.000    22759785.932 6  94793709.742 6        38.000  
R12  22158484.616 7 118366637.813 7        45.000    22158486.516 7  92062938.124 7        42.500  
R13  20926888.164 6 111748417.090 6        38.000    20926891.484 6  86915439.571 6        39.500  
R14  23007062.268 7 122640581.543 7        43.500    23007065.288 6  95387119.385 6        37.000  
R21  23620463.984 6 126397894.587 6        41.000    23620468.464 6  98309474.758 6        38.500  
R22  20395108.264 6 108870473.488 6        38.000    20395107.464 5  84677042.988 5        33.500  
R23  20941390.864 7 112022324.589 7        47.500                                                  
R24  24133837.140 6 129054467.045 6        40.750    24133839.420 6 100375697.356 6        38.000  
> 2021 11 07 00 21  0.0000000  0 21                     
G05  21670201.496 7 113877692.518 7        46.000    21670203.516 7  88735868.691 7        44.000  
G13  24937993.414 6 131050044.230 6        37.500    24937997.254 2 102116918.342 2        16.000  
G15  24233353.320 6 127347129.290 6        38.500    24233356.660 5  99231529.639 5        32.500  
G16  24430118.698 5 128381147.643 5        31.500                                                  
G18  20680110.084 7 108674731.455 7        47.250    20680113.384 8  84681611.399 8        49.500  
G20  23907896.162 6 125636857.009 6        38.750    23907899.122 3  97898850.905 3        20.500  
G23  23042773.488 6 121090599.843 6        41.500    23042778.028 7  94356312.903 7        45.000  
G25  23315708.506 7 122524879.593 7        42.000    23315714.586 6  95473932.902 6        41.750  
G26  21948488.194 7 115340089.672 7        45.000    21948494.274 7  89875394.011 7        44.500  
G29  20742608.522 7 109003152.790 7        47.500    20742611.502 8  84937527.451 8        48.500  
G31  25287170.632 6 132884962.924 6        38.000    25287173.632 5 103546720.579 5        34.500  
R06  22282144.992 6 118901801.124 6        37.000                                                  
R07  21023055.440 8 112538073.006 8        49.000    21023056.740 7  87529614.706 7        43.000  
R08  22713168.452 6 121627989.361 6        38.500    22713169.072 6  94599548.484 6        40.000  
R12  22203293.892 7 118606004.830 7        43.500    22203296.312 7  92249112.475 7        42.000  
R13  20939593.664 6 111816253.322 6        39.000    20939595.764 6  86968201.041 6        39.500  
R14  22976699.068 7 122478730.427 7        43.500    22976701.408 6  95261235.188 6        36.250  
R21  23653401.884 6 126574135.478 6        40.750    23653403.584 6  98446550.948 6        39.000  
R22  20411803.324 6 108959609.149 6        37.500    20411805.904 5  84746370.700 5        34.000  
R23  20919634.864 7 111905946.734 7        47.500                                                  
R24  24100210.560 6 128874652.318 6        39.500    24100213.580 6 100235841.485 6        38.000  
> 2021 11 07 00 22  0.0000000  0 21                     
G05  21691826.196 7 113991330.668 7        46.250    21691827.916 7  88824417.879 7        44.000  
G13  24910710.054 6 130906666.360 6        38.000    24910715.194 2 102005195.392 2        16.000  
G15  24199498.580 6 127169222.566 6        37.750    24199502.080 5  99092900.965 5        34.000  
G16  24393148.358 4 128186868.170 4        29.750                                                  
G18  20665958.364 8 108600364.500 8        48.000    20665961.644 8  84623663.164 8        49.500  
G20  23944000.462 6 125826589.321 6        38.000    23944004.362 3  98046694.244 3        21.000  
G23  23002306.268 7 120877940.718 7        43.500    23002309.708 7  94190604.510 7        43.000  
G25  23357846.126 6 122746313.876 6        40.000    23357852.266 7  95646479.095 7        42.000  
G26  21935059.414 7 115269521.708 7        44.000    21935066.514 7  89820405.987 7        45.500  
G29  20754846.482 7 109067464.899 7        46.500    20754850.042 8  84987640.770 8        48.750  
G31  25317466.072 6 133044168.223 6        37.750    25317468.692 5 103670776.709 5        32.000  
R06  22305247.592 6 119025087.233 6        38.500                                                  
R07  21004328.360 8 112437820.503 8        49.250    21004329.720 7  87451640.555 7        44.000  
R08  22666686.492 6 121379080.573 6        37.500    22666686.852 6  94405952.846 6        39.000  
R12  22248301.272 7 118846425.689 7        43.000    22248304.192 7  92436106.446 7        42.500  
R13  20952881.884 6 111887208.533 6        39.500    20952883.164 6  87023388.367 6        40.000  
R14  22946781.308 7 122319257.003 7        43.250    22946784.528 5  95137200.307 5        35.000  
R21  23686364.144 6 126750539.794 6        40.000    23686366.784 5  98583754.330 5        35.500  
R22  20428673.244 6 109049654.131 6        38.500    20428673.804 5  84816405.697 5        33.000  
R23  20898028.844 7 111790373.766 7        47.500                                                  
R24  24066606.560 6 128694961.979 6        38.250    24066610.320 6 100096082.350 6        38.500  
> 2021 11 07 00 23  0.0000000  0 21                     
G05  21713847.756 7 114107054.713 7        47.000    21713850.076 7  88914592.473 7        45.500  
G13  24883610.494 6 130764257.272 6        38.000    24883614.714 2 101894227.328 2        16.750  
G15  24165758.680 5 126991916.944 5        35.500    24165761.860 5  98954740.844 5        35.000  
G16  24356388.818 5 127993692.459 5        31.500                                                  
G18  20652068.024 7 108527366.803 7        47.500    20652070.744 8  84566781.843 8        49.500  
G20  23980277.122 6 126017222.947 6        39.000    23980280.302 3  98195239.969 3        20.250  
G23  22961999.688 7 120666128.725 7        44.000    22962003.008 7  94025556.239 7        42.750  
G25  23400091.664 6 122968321.342 6        38.250    23400098.744 7  95819471.847 7        42.500  
G26  21922047.394 7 115201141.941 7        43.000    21922054.314 7  89767123.038 7        45.000  
G29  20767358.942 7 109133218.252 7        47.500    20767362.562 8  85038877.141 8        49.000  
G31  25347829.932 6 133203725.540 6        36.500    25347832.372 5 103795107.107 5        32.500  
R06  22328871.092 6 119151144.613 6        37.000                                                  
R07  20986146.060 8 112340495.528 8        48.000    20986147.760 7  87375943.362 7        44.000  
R08  22620346.092 6 121130933.543 6        38.000    22620347.072 6  94212949.649 6        39.000  
R12  22293499.592 7 119087864.106 7        45.000    22293502.612 7  92623891.854 7        43.250  
R13  20966750.264 6 111961265.947 6        40.500    20966752.664 6  87080988.524 6        40.500  
R14  22917315.668 7 122162187.236 7        43.000    22917318.908 5  95015034.954 5        35.250  
R21  23719362.504 6 126927105.840 6        39.750    23719362.404 6  98721083.369 6        36.000  
R22  20445710.084 6 109140604.834 6        37.500    20445712.264 5  84887145.109 5        33.500  
R23  20876575.304 8 111675607.375 8        48.000                                                  
R24  24033026.920 6 128515396.186 6        38.250    24033030.760 6  99956420.105 6        36.500  
> 2021 11 07 00 24  0.0000000  0 21                     
G05  21736263.356 8 114224847.809 8        48.000    21736266.116 7  89006379.306 7        46.250  
G13  24856699.956 6 130622841.464 6        38.250    24856702.116 2 101784033.161 2        15.500  
G15  24132137.260 6 126815238.886 6        36.000    24132140.780 5  98817069.635 5        35.500  
G16  24319843.318 5 127801641.517 5        33.250                                                  
G18  20638437.384 8 108455737.548 8        48.000    20638440.304 8  84510966.864 8        49.500  
G20  24016721.700 6 126208738.125 6        38.000    24016724.800 3  98344472.552 3        20.500  
G23  22921858.368 7 120455183.716 7        45.000    22921861.828 7  93861183.507 7        43.250  
G25  23442443.644 6 123190880.857 6        39.500    23442450.344 7  95992894.803 7        42.500  
G26  21909453.454 7 115134960.056 7        44.250    21909460.714 7  89715552.717 7        45.500  
G29  20780145.982 7 109200414.601 7        47.000    20780149.702 8  85091237.924 8        49.000  
G31  25378254.272 6 133363610.817 6        38.500    25378258.372 5 103919693.024 5        34.500  
R06  22353010.092 6 119279951.113 6        37.000                                                  
R07  20968515.824 7 112246119.700 7        47.500    20968518.104 7  87302540.005 7        44.500  
R08  22574154.872 6 120883584.097 6        38.500    22574156.192 6  94020566.769 6        40.000  
R12  22338880.912 7 119330283.816 7        46.000    22338884.092 7  92812440.524 7        42.500  
R13  20981194.584 6 112038407.136 6        38.500    20981196.924 6  87140987.206 6        39.250  
R14  22888305.948 7 122007547.492 7        43.000    22888308.188 5  94894759.609 5        35.500  
R21  23752388.144 6 127103832.539 6        41.000    23752389.144 6  98858537.498 6        36.500  
R22  20462917.024 6 109232457.546 6        36.250    20462919.384 5  84958586.095 5        33.000  
R23  20855271.344 7 111561649.312 7        47.500                                                  
R24  23999471.040 6 128335956.124 6        38.500    23999474.060 6  99816855.599 6        37.500  
> 2021 11 07 00 25  0.0000000  0 21                     
G05  21759068.956 7 114344693.076 7        47.000    21759071.956 7  89099765.241 7        46.000  
G13  24829983.756 6 130482445.183 6        39.000    24829984.676 2 101674633.476 2        17.250  
G15  24098642.460 6 126639216.142 6        37.000    24098645.340 6  98679909.096 6        36.500  
G16  24283516.118 5 127610740.307 5        34.000    24283519.438 2  99436939.135 2        17.250  
G18  20625067.024 8 108385477.524 8        48.500    20625070.404 8  84456218.803 8        50.500  
G20  24053329.700 6 126401117.332 6        38.500    24053333.420 3  98494378.399 3        20.500  
G23  22881885.628 7 120245127.161 7        45.000    22881889.628 7  93697503.082 7        42.500  
G25  23484896.864 6 123413973.088 6        41.000    23484903.124 6  96166732.872 6        40.500  
G26  21897279.494 7 115070986.964 7        43.750    21897287.154 7  89665703.534 7        45.500  
G29  20793207.982 7 109269057.088 7        46.500    20793211.722 8  85144725.554 8        48.500  
G31  25408737.832 6 133523803.079 6        38.000    25408741.532 5 104044518.170 5        34.000  
R06  22377658.352 6 119411486.428 6        36.500                                                  
R07  20951440.664 7 112154715.152 7        47.500    20951443.424 7  87231447.613 7        45.000  
R08  22528119.792 6 120637069.014 6        39.000    22528121.172 6  93828832.880 6        40.500  
R12  22384440.032 7 119573650.673 7        45.000    22384442.212 7  93001725.841 7        42.000  
R13  20996216.140 6 112118617.325 6        38.000    20996217.280 6  87203372.894 6        39.000  
R14  22859757.428 7 121855364.865 7        43.000    22859759.648 6  94776395.369 6        36.000  
R21  23785441.884 6 127280720.417 6        39.500    23785445.084 6  98996116.904 6        37.000  
R22  20480294.304 6 109325211.072 6        37.000    20480295.104 5  85030727.709 5        32.500  
R23  20834119.864 7 111448503.453 7        46.250                                                  
R24  23965940.544 6 128156643.557 6        41.500    23965942.724 6  99677390.355 6        38.000  
> 2021 11 07 00 26  0.0000000  0 21                     
G05  21782261.156 7 114466570.949 7        46.750    21782264.416 7  89194735.018 7        45.250  
G13  24803466.396 6 130343092.099 6        39.500    24803468.576 2 101566046.687 2        17.250  
G15  24065274.500 5 126463874.106 5        34.500    24065279.680 6  98543279.042 6        38.000  
G16  24247411.260 5 127421007.903 5        34.500    24247415.060 2  99289095.661 2        15.500  
G18  20611957.044 7 108316584.277 7        46.500    20611960.304 8  84402535.766 8        50.000  
G20  24090098.800 6 126594339.419 6        38.500    24090101.960 3  98644941.033 3        20.500  
G23  22842085.628 7 120035977.324 7        44.500    22842089.848 7  93534529.177 7        43.750  
G25  23527447.064 6 123637575.443 6        41.000    23527452.784 6  96340968.435 6        40.000  
G26  21885527.834 7 115009230.113 7        44.500    21885534.674 7  89617581.307 7        44.500  
G29  20806545.562 7 109339145.632 7        46.750    20806548.462 8  85199339.986 8        48.000  
G31  25439274.812 6 133684277.038 6        37.000    25439279.192 5 104169562.799 5        35.250  
R06  22402814.052 6 119545725.881 6        37.500                                                  
R07  20934924.324 8 112066300.861 8        48.500    20934926.224 7  87162680.993 7        45.000  
R08  22482247.112 6 120391423.032 6        38.500    22482247.672 6  93637774.935 6        39.500  
R12  22430168.952 7 119817927.368 7        45.500    22430171.452 7  93191718.782 7        42.000  
R13  21011808.920 6 112201875.239 6        39.250    21011809.960 6  87268129.022 6        40.000  
R14  22831672.388 7 121705663.167 7        43.000    22831675.608 5  94659960.746 5        35.500  
R21  23818529.644 6 127457767.086 6        41.000    23818528.764 5  99133819.808 5        34.500  
R22  20497837.924 6 109418860.731 6        36.500    20497838.884 5  85103566.321 5        33.500  
R23  20813120.484 7 111336170.690 7        46.500                                                  
R24  23932431.224 7 127977458.469 7        42.000    23932433.024 6  99538024.260 6        37.500  
> 2021 11 07 00 27  0.0000000  0 21                     
G05  21805836.876 7 114590461.886 7        46.750    21805839.856 7  89291273.429 7        45.500  
G13  24777151.356 6 130204806.774 6        38.000    24777153.716 2 101458291.941 2        16.750  
G15  24032042.560 6 126289238.200 6        36.750    24032047.180 5  98407199.193 5        34.000  
G16  24211533.240 5 127232466.508 5        35.500    24211535.980 2  99142180.310 2        16.750  
G18  20599106.944 7 108249056.835 7        46.500    20599110.344 8  84349917.000 8        50.500  
G20  24127025.040 6 126788384.612 6        38.000    24127027.940 3  98796145.098 3        19.500  
G23  22802461.948 7 119827753.877 7        44.500    22802466.688 7  93372277.178 7        44.500  
G25  23570090.304 7 123861667.001 7        42.000    23570096.044 6  96515585.229 6        38.500  
G26  21874199.416 7 114949698.179 7        46.000    21874205.476 7  89571192.768 7        44.500  
G29  20820158.242 7 109410681.366 7        47.500    20820161.482 8  85255082.101 8        48.000  
G31  25469862.332 6 133845009.511 6        37.000    25469865.132 5 104294808.986 5        34.500  
R06  22428474.232 6 119682646.765 6        36.000                                                  
R07  20918968.944 7 111980896.439 7        47.000    20918972.544 7  87096255.384 7        45.500  
R08  22436544.212 6 120146681.159 6        38.500    22436543.792 6  93447420.158 6        39.000  
R12  22476061.432 7 120063078.145 7        46.500    22476064.072 6  93382391.575 6        41.500  
R13  21027967.960 6 112288162.444 6        40.000    21027968.640 6  87335241.264 6        39.750  
R14  22804059.568 7 121558467.945 7        42.750    22804063.068 6  94545475.596 6        36.000  
R21  23851643.064 6 127634971.359 6        39.000    23851644.164 5  99271645.412 5        34.250  
R22  20515548.624 6 109513402.857 6        37.250    20515549.424 5  85177099.081 5        33.000  
R23  20792272.904 7 111224652.906 7        46.500                                                  
R24  23898946.324 6 127798400.965 6        41.500    23898948.504 6  99398757.359 6        37.000  
> 2021 11 07 00 28  0.0000000  0 21                     
G05  21829792.896 7 114716350.042 7        45.500    21829795.536 7  89389368.112 7        45.000  
G13  24751043.816 6 130067614.903 6        38.000    24751046.196 2 101351389.157 2        16.000  
G15  23998950.760 6 126115336.228 6        39.000    23998951.800 5  98271691.130 5        31.000  
G16  24175885.300 5 127045139.410 5        35.000    24175889.060 2  98996211.158 2        16.000  
G18  20586516.364 7 108182895.368 7        46.000    20586519.924 8  84298362.611 8        50.000  
G20  24164103.760 6 126983234.680 6        39.250    24164106.520 3  98947976.326 3        19.500  
G23  22763018.590 7 119620477.850 7        44.500    22763023.270 7  93210763.439 7        44.500  
G25  23612823.984 6 124086228.138 6        41.500    23612828.464 6  96690567.898 6        38.000  
G26  21863296.156 7 114892400.809 7        45.000    21863301.736 7  89526545.493 7        43.500  
G29  20834047.042 7 109483665.895 7        47.000    20834049.762 8  85311953.158 8        48.000  
G31  25500492.650 6 134005978.236 6        37.250    25500496.590 6 104420239.223 6        36.000  
R06  22454631.852 6 119822226.255 6        39.250                                                  
R07  20903581.964 8 111898522.424 8        48.500    20903584.124 7  87032186.741 7        44.500  
R08  22391015.712 6 119902880.473 6        39.500    22391015.632 6  93257797.473 6        39.500  
R12  22522111.552 7 120309068.419 7        45.500    22522113.952 6  93573717.331 6        41.000  
R13  21044688.800 6 112377459.554 6        38.000    21044691.380 6  87404694.534 6        39.250  
R14  22776920.992 7 121413804.770 7        43.750    22776924.552 6  94432959.820 6        36.500  
R21  23884787.704 6 127812333.685 6        38.750    23884790.864 6  99409593.786 6        37.750  
R22  20533427.224 6 109608836.653 6        38.000    20533428.384 5  85251325.357 5        34.000  
R23  20771580.304 7 111113954.271 7        46.500                                                  
R24  23865487.664 6 127619473.479 6        40.500    23865488.844 6  99259591.551 6        36.500  
> 2021 11 07 00 29  0.0000000  0 21                     
G05  21854124.596 7 114844214.417 7        45.500    21854127.196 7  89489002.665 7        45.000  
G13  24725149.716 6 129931539.472 6        39.000    24725151.896 2 101245356.307 2        15.500  
G15  23966003.382 6 125942193.519 6        39.000    23966006.642 5  98136774.746 5        35.500  
G16  24140473.340 6 126859046.383 6        36.000    24140475.580 2  98851203.578 2        16.000  
G18  20574186.264 7 108118096.805 7        46.500    20574188.964 8  84247870.232 8        50.500  
G20  24201330.640 6 127178868.775 6        38.000    24201334.960 3  99100418.472 3        19.500  
G23  22723758.770 7 119414166.897 7        44.500    22723763.010 7  93050001.703 7        45.000  
G25  23655640.924 6 124311235.853 6        41.500    23655645.824 6  96865898.597 6        37.500  
G26  21852819.376 7 114837344.062 7        44.750    21852824.536 7  89483644.140 7        43.250  
G29  20848211.362 7 109558099.192 7        47.750    20848213.782 7  85369953.114 7        47.750  
G31  25531164.730 6 134167157.794 6        37.000    25531167.990 5 104545833.669 5        35.500  
R06  22481282.612 6 119964438.835 6        38.500                                                  
R07  20888763.124 8 111819194.750 8        49.750    20888763.204 7  86970487.462 7        43.000  
R08  22345669.352 6 119660054.483 6        40.500    22345669.712 6  93068932.835 6        40.250  
R12  22568311.272 7 120555860.911 7        44.000    22568313.772 6  93765667.020 6        40.500  
R13  21061972.060 6 112469744.764 6        39.750    21061973.660 6  87476471.913 6        39.500  
R14  22750262.33217 121271700.94517        43.5001   22750265.332 6  94322430.736 6        36.000  
R21  23917959.684 6 127989851.241 6        37.750    23917963.624 6  99547662.957 6        36.250  
R22  20551469.244 6 109705156.794 6        36.000    20551471.684 5  85326240.997 5        33.000  
R23  20751038.664 7 111004074.972 7        46.000                                                  
R24  23832049.224 6 127440674.648 6        40.500    23832050.724 6  99120525.889 6        36.000  
> 2021 11 07 00 30  0.0000000  0 20                     
G05  21878829.096 7 114974035.141 7        45.750    21878831.216 7  89590161.639 7        44.500  
G13  24699471.536 6 129796605.023 6        38.000    24699476.056 2 101140212.594 2        16.750  
G15  23933204.542 6 125769836.067 6        38.750    23933207.742 6  98002470.283 6        36.000  
G16  24105300.400 5 126674209.300 5        35.000    24105302.640 2  98707174.665 2        16.750  
G18  20562114.664 7 108054660.048 7        47.500    20562117.664 8  84198438.995 8        50.750  
G20  24238705.440 6 127375267.748 6        38.250    24238708.560 3  99253456.645 3        20.500  
G23  22684687.370 7 119208840.732 7        45.000    22684690.050 7  92890007.311 7        44.500  
G25  23698539.402 6 124536669.559 6        40.500    23698544.562 6  97041561.244 6        38.500  
G26  21842770.796 7 114784535.840 7        46.000    21842775.076 7  89442494.868 7        43.000  
G29  20862651.402 7 109633981.344 7        47.500    20862653.842 8  85429082.072 8        48.000  
R06  22508421.692 6 120109260.154 6        38.000                                                  
R07  20874517.224 8 111742931.384 8        48.500    20874517.904 7  86911171.521 7        44.000  
R08  22300513.292 7 119418239.778 7        42.500    22300512.952 6  92880854.785 6        41.750  
R12  22614653.992 7 120803420.024 7        42.500    22614657.312 6  93958213.001 6        41.000  
R13  21079807.200 6 112564997.586 6        38.000    21079811.940 6  87550557.398 6        40.000  
R14  22724086.252 7 121132170.987 7        43.500    22724089.512 6  94213907.440 6        37.250  
R21  23951160.484 6 128167523.822 6        37.750    23951166.604 6  99685852.680 6        36.500  
R22  20569678.384 6 109802361.032 6        36.250    20569681.044 5  85401844.304 5        33.000  
R23  20730651.304 7 110895017.972 7        46.250                                                  
R24  23798637.544 6 127262006.005 6        39.250    23798640.764 6  98981561.404 6        37.000  
> 2021 11 07 00 31  0.0000000  0 20                     
G05  21903901.774 7 115105796.848 7        46.000    21903904.414 7  89692833.098 7        44.000  
G13  24674017.996 6 129662839.238 6        39.000    24674021.816 2 101035979.546 2        16.750  
G15  23900560.282 6 125598292.876 6        36.500    23900564.202 6  97868800.376 6        36.500  
G16  24070370.260 6 126490653.178 6        36.500    24070372.580 2  98564143.960 2        16.750  
G18  20550302.644 7 107992586.967 7        47.500    20550305.644 8  84150070.371 8        50.500  
G20  24276221.140 6 127572415.680 6        38.500    24276223.840 3  99407078.406 3        19.000  
G23  22645806.370 7 119004522.108 7        45.250    22645808.970 7  92730798.022 7        44.000  
G25  23741514.942 6 124762511.537 6        39.500    23741521.342 6  97217541.931 6        40.000  
G26  21833151.556 7 114733986.643 7        46.000    21833156.076 7  89403105.879 7        43.500  
G29  20877367.402 7 109711316.485 7        47.000    20877370.502 7  85489343.221 7        47.500  
R06  22536046.252 6 120256668.645 6        38.000                                                  
R07  20860845.764 8 111669753.586 8        48.500    20860847.364 7  86854255.475 7        44.500  
R08  22255551.932 6 119177474.631 6        41.500    22255552.372 7  92693593.037 7        42.500  
R12  22661136.132 7 121051713.006 7        44.000    22661139.072 7  94151329.746 7        42.000  
R13  21098199.440 6 112663198.743 6        39.500    21098200.140 6  87626935.993 6        38.250  
R14  22698400.112 7 120995246.376 7        44.500    22698402.392 6  94107410.564 6        36.750  
R21  23984396.140 6 128345353.966 6        39.500    23984395.820 5  99824164.906 5        33.500  
R22  20588055.144 6 109900449.375 6        36.500    20588056.724 5  85478135.213 5        33.500  
R23  20710420.124 7 110786788.890 7        45.000                                                  
R24  23765250.424 6 127083471.434 6        38.750    23765252.504 6  98842701.294 6        36.500  
> 2021 11 07 00 32  0.0000000  0 20                     
G05  21929340.014 7 115239476.187 7        45.750    21929343.074 7  89796998.819 7        44.000  
G13  24648788.596 6 129530261.737 6        37.000    24648793.216 2 100932672.450 2        16.750  
G15  23868077.102 6 125427587.492 6        38.250    23868079.882 5  97735783.266 5        35.000  
G16  24035687.560 6 126308395.676 6        36.000    24035690.620 2  98422125.168 2        16.750  
G18  20538748.564 7 107931872.221 7        47.500    20538751.884 8  84102760.198 8        50.500  
G20  24313875.678 6 127770289.040 6        39.000    24313876.718 3  99561265.467 3        19.750  
G23  22607120.830 7 118801226.489 7        45.500    22607123.410 7  92572385.878 7        44.500  
G25  23784563.602 6 124988736.868 6        38.750    23784571.382 6  97393821.407 6        40.750  
G26  21823962.696 7 114685699.469 7        46.000    21823967.596 7  89365479.502 7        43.500  
G29  20892359.762 7 109790102.042 7        46.500    20892363.062 7  85550734.546 7        47.500  
R06  22564149.292 6 120406634.965 6        37.000                                                  
R07  20847754.184 8 111599673.242 8        49.000    20847756.384 7  86799748.566 7        45.000  
R08  22210792.512 6 118937791.420 6        41.500    22210793.292 6  92507172.829 6        41.500  
R12  22707746.892 7 121300701.027 7        43.750    22707749.992 6  94344987.114 6        41.750  
R13  21117137.180 6 112764322.642 6        38.750    21117137.860 6  87705587.937 6        38.000  
R14  22673205.432 7 120860946.057 7        42.000    22673208.632 6  94002954.758 6        37.500  
R21  24017655.960 6 128523336.400 6        41.000    24017654.540 5  99962595.723 5        31.000  
R22  20606595.784 6 109999415.657 6        37.000    20606595.864 5  85555108.966 5        32.500  
R23  20690340.984 7 110679386.611 7        45.000                                                  
R24  23731889.244 6 126905068.386 6        40.500    23731891.164 5  98703943.430 5        34.000  
> 2021 11 07 00 33  0.0000000  0 20                     
G05  21955140.154 7 115375056.010 7        46.250    21955143.234 7  89902645.447 7        44.000  
G13  24623791.656 6 129398900.249 6        38.000    24623794.076 2 100830312.837 2        14.750  
G15  23835757.042 6 125257749.002 6        37.500    23835761.042 6  97603441.669 6        37.000  
G16  24001257.320 6 126127461.631 6        37.000    24001260.080 2  98281137.609 2        17.250  
G18  20527453.844 7 107872516.990 7        47.500    20527457.124 8  84056509.386 8        50.750  
G20  24351664.118 6 127968872.269 6        39.000    24351666.278 3  99716005.623 3        19.000  
G23  22568633.590 7 118598975.855 7        46.000    22568636.770 7  92414788.006 7        44.250  
G25  23827683.022 6 125215327.604 6        38.000    23827690.082 6  97570385.562 6        40.250  
G26  21815205.736 7 114639683.709 7        45.000    21815210.976 7  89329623.074 7        43.500  
G29  20907628.542 7 109870340.270 7        47.000    20907631.942 8  85613257.813 8        48.000  
R06  22592727.892 6 120559136.699 6        37.000                                                  
R07  20835243.824 7 111532709.437 7        47.500    20835246.164 7  86747665.645 7        44.000  
R08  22166241.996 6 118699228.049 6        41.250    22166242.696 6  92321623.594 6        39.500  
R12  22754482.192 7 121550351.270 7        44.000    22754485.492 6  94539159.513 6        41.500  
R13  21136618.620 6 112868349.801 6        37.250    21136619.940 6  87786497.856 6        40.000  
R14  22648508.272 6 120729295.631 6        41.500    22648510.892 6  93900559.965 6        37.000  
R21  24050946.760 6 128701473.478 6        40.500    24050946.680 5 100101146.840 5        35.500  
R22  20625299.664 6 110099259.846 6        37.750    20625299.964 5  85632765.557 5        33.500  
R23  20670418.984 7 110572816.742 7        46.000                                                  
R24  23698550.504 6 126726800.294 6        40.500    23698551.364 5  98565290.576 5        32.500  
> 2021 11 07 00 34  0.0000000  0 20                     
G05  21981297.474 7 115512515.042 7        45.500    21981300.914 7  90009756.397 7        43.250  
G13  24599030.416 6 129268776.401 6        39.500    24599032.276 2 100728917.653 2        16.000  
G15  23803607.922 6 125088801.703 6        41.000    23803612.202 6  97471794.464 6        37.000  
G16  23967082.542 6 125947870.037 6        36.750    23967085.502 2  98141196.138 2        16.000  
G18  20516416.844 7 107814517.471 7        47.000    20516420.084 8  84011314.989 8        50.500  
G20  24389584.798 6 128168143.522 6        40.000    24389585.658 3  99871281.944 3        19.000  
G23  22530348.510 7 118397787.342 7        45.250    22530352.490 7  92258017.767 7        45.000  
G25  23870867.482 6 125442260.565 6        38.500    23870874.022 6  97747216.434 6        39.500  
G26  21806882.616 7 114595943.440 7        44.750    21806888.496 7  89295539.737 7        45.000  
G29  20923173.842 7 109952030.348 7        47.000    20923177.302 8  85676912.387 8        48.500  
R06  22621776.732 6 120714145.312 6        36.500                                                  
R07  20823320.204 8 111468875.255 8        49.000    20823322.204 7  86698016.854 7        45.000  
R08  22121907.996 6 118461819.186 6        41.500    22121908.376 6  92136972.230 6        41.750  
R12  22801334.488 7 121800626.097 7        44.750    22801337.168 6  94733817.712 6        41.500  
R13  21156638.000 6 112975253.698 6        39.000    21156639.020 6  87869645.323 6        39.500  
R14  22624310.992 7 120600315.224 7        42.750    22624314.612 6  93800241.851 6        37.000  
R21  24084262.380 6 128879762.188 6        37.500    24084265.420 6 100239815.737 6        36.750  
R22  20644167.444 6 110199977.630 6        36.500    20644168.324 5  85711101.606 5        33.500  
R23  20650653.724 7 110467080.037 7        46.000                                                  
R24  23665239.244 6 126548665.937 6        38.500    23665242.044 5  98426741.667 5        35.500  
> 2021 11 07 00 35  0.0000000  0 20                     
G05  22007809.594 7 115651836.479 7        46.250    22007812.094 7  90118318.558 7        42.000  
G13  24574507.258 5 129139918.488 5        33.000    24574512.858 2 100628508.881 2        15.500  
G15  23771632.982 6 124920775.706 6        40.000    23771636.442 5  97340865.125 5        35.000  
G16  23933167.462 6 125769646.936 6        37.000    23933171.322 2  98002321.018 2        17.250  
G18  20505638.104 7 107757876.134 7        46.750    20505641.424 8  83967178.895 8        50.000  
G20  24427632.058 6 128368087.894 6        39.500    24427633.518 2 100027082.823 2        17.500  
G23  22492270.330 7 118197684.131 7        45.500    22492274.570 7  92102093.207 7        45.000  
G25  23914112.662 6 125669519.180 6        38.000    23914119.162 6  97924301.032 6        39.500  
G26  21798993.376 7 114554488.646 7        44.750    21799000.176 7  89263237.261 7        45.000  
G29  20938995.922 7 110035176.063 7        47.500    20938999.342 8  85741701.243 8        48.000  
R06  22651289.992 6 120871638.867 6        37.000                                                  
R07  20811983.404 8 111408189.510 8        49.000    20811985.524 7  86650816.851 7        45.500  
R08  22077796.916 6 118225604.423 6        41.750    22077797.056 7  91953249.730 7        42.500  
R12  22848297.448 7 122051494.930 7        45.250    22848300.048 6  94928937.865 6        41.500  
R13  21177192.720 6 113085015.536 6        38.500    21177194.860 6  87955015.596 6        41.000  
R14  22600621.272 7 120474030.854 7        42.500    22600623.692 6  93702020.701 6        36.000  
R21  24117607.660 6 129058206.228 6        38.500    24117611.220 5 100378605.493 5        34.250  
R22  20663199.144 6 110301570.522 6        37.000    20663200.804 5  85790118.295 5        33.750  
R23  20631044.364 7 110362183.611 7        46.000                                                  
R24  23631953.384 6 126370670.789 6        40.250    23631955.084 5  98288301.103 5        34.500  
> 2021 11 07 00 36  0.0000000  0 21                     
G05  22034671.714 7 115792995.660 7        45.500    22034673.734 7  90228312.754 7        43.000  
G10  25341150.172 5 133168642.645 5        33.000    25341155.672 5 103767773.877 5        34.000  
G13  24550233.278 6 129012345.468 6        38.250    24550237.178 2 100529101.446 2        17.250  
G15  23739838.982 6 124753693.068 6        41.000    23739842.282 6  97210670.871 6        37.500  
G16  23899516.182 6 125592808.531 6        37.000    23899519.362 2  97864524.861 2        16.750  
G18  20495117.184 7 107702586.272 7        47.500    20495119.764 8  83924095.897 8        50.000  
G20  24465804.298 6 128568681.589 6        39.000    24465805.358 3 100183389.636 3        19.000  
G23  22454401.332 7 117998680.402 7        45.500    22454404.792 7  91947025.416 7        44.500  
G25  23957416.142 6 125897077.731 6        36.500    23957422.382 6  98101619.359 6        39.750  
G26  21791540.596 7 114515319.811 7        44.500    21791546.756 7  89232716.068 7        45.000  
G29  20955094.242 7 110119772.472 7        46.750    20955097.322 7  85807620.503 7        47.500  
R06  22681264.872 5 121031585.447 5        34.500                                                  
R07  20801236.544 8 111350660.609 8        48.000    20801238.384 7  86606072.167 7        44.750  
R08  22033913.036 6 117990614.303 6        41.500    22033914.056 7  91770479.678 7        42.500  
R12  22895364.048 7 122302917.290 7        45.000    22895367.308 6  95124488.567 6        40.750  
R13  21198276.080 6 113197605.106 6        37.250    21198279.320 6  88042585.239 6        41.000  
R14  22577439.252 7 120350459.066 7        43.000    22577441.692 5  93605909.328 5        35.500  
R21  24150981.760 6 129236799.908 6        37.000    24150984.880 5 100517511.733 5        34.750  
R22  20682393.364 6 110404031.169 6        37.250    20682394.864 5  85869809.895 5        34.000  
R23  20611590.244 7 110258125.465 7        46.000                                                  
R24  23598693.144 6 126192811.406 6        40.500    23598695.844 6  98149966.114 6        36.750  
> 2021 11 07 00 37  0.0000000  0 21                     
G05  22061880.034 7 115935976.649 7        46.500    22061882.454 7  90339726.511 7        43.000  
G10  25298761.772 5 132945893.056 5        34.500    25298768.812 5 103594202.774 5        35.000  
G13  24526206.298 6 128886085.816 6        39.250    24526209.518 2 100430717.356 2        17.250  
G15  23708229.422 6 124587585.062 6        39.500    23708232.962 6  97081236.129 6        37.500  
G16  23866134.562 6 125417381.792 6        37.000    23866136.082 3  97727828.701 3        18.000  
G18  20484853.284 7 107648651.207 7        47.000    20484856.424 8  83882068.603 8        50.500  
G20  24504096.618 6 128769911.493 6        37.000    24504098.138 2 100340192.177 2        17.500  
G23  22416745.072 7 117800800.278 7        45.000    22416749.132 7  91792833.142 7        44.500  
G25  24000772.620 6 126124920.611 6        37.500    24000779.300 6  98279159.237 6        39.500  
G26  21784523.136 7 114478447.623 7        44.000    21784528.936 7  89203984.455 7        44.000  
G29  20971469.242 8 110205824.824 8        48.000    20971472.442 7  85874674.275 7        47.750  
R06  22711693.612 5 121193963.696 5        34.500                                                  
R07  20791081.444 7 111296307.548 7        47.500    20791084.664 7  86563797.607 7        44.500  
R08  21990265.116 6 117756890.118 6        39.500    21990266.276 6  91588694.219 6        39.500  
R12  22942529.648 7 122554863.471 7        45.000    22942532.248 6  95320446.642 6        40.500  
R13  21219886.960 6 113313004.083 6        38.750    21219888.900 6  88132339.951 6        40.500  
R14  22554770.632 7 120229625.366 7        42.000    22554773.732 5  93511927.541 5        35.500  
R21  24184386.640 6 129415547.946 6        40.000    24184389.860 6 100656537.912 6        37.500  
R22  20701750.664 6 110507363.014 6        36.000    20701752.104 5  85950179.095 5        34.000  
R23  20592296.904 7 110154914.337 7        46.000                                                  
R24  23565458.104 6 126015094.056 6        41.500    23565461.144 6  98011741.621 6        36.250  
> 2021 11 07 00 38  0.0000000  0 20                     
G05  22089431.014 7 116080755.874 7        47.000    22089433.034 7  90452541.467 7        43.000  
G10  25256384.492 5 132723198.505 5        35.500    25256391.332 5 103420674.610 5        35.500  
G13  24502433.398 6 128761158.830 6        38.500    24502434.238 2 100333371.682 2        15.500  
G15  23676809.804 6 124422473.048 6        40.500    23676814.484 6  96952577.513 6        38.500  
G16  23833021.922 6 125243383.582 6        37.500    23833025.622 3  97592245.706 3        19.000  
G18  20474846.704 8 107596064.317 8        48.000    20474849.544 8  83841091.844 8        50.500  
G20  24542505.958 6 128971754.053 6        36.250    24542507.478 3 100497472.142 3        19.000  
G23  22379306.292 7 117604057.941 7        45.500    22379309.932 7  91639527.449 7        44.000  
G25  24044179.580 6 126353022.446 6        37.500    24044185.920 6  98456900.931 6        39.000  
G26  21777944.036 7 114443871.970 7        45.500    21777948.716 7  89177042.402 7        43.500  
G29  20988121.340 8 110293328.506 8        48.500    20988124.160 8  85942858.958 8        48.000  
R06  22742573.412 5 121358741.237 5        34.500                                                  
R07  20781524.404 8 111245138.744 8        48.500    20781526.124 7  86523999.661 7        44.750  
R08  21946861.916 6 117524462.622 6        41.000    21946862.776 6  91407917.301 6        40.750  
R12  22989784.448 7 122807293.857 7        44.000    22989787.268 6  95516781.345 6        38.750  
R13  21242016.380 6 113431180.434 6        37.750    21242019.620 6  88224254.874 6        39.000  
R14  22532620.112 7 120111546.040 7        42.000    22532622.612 6  93420088.051 6        36.250  
R22  20721270.384 6 110611558.651 6        36.000    20721271.404 5  86031220.122 5        33.000  
R23  20573161.244 7 110052548.651 7        46.000                                                  
R24  23532249.164 7 125837515.301 7        42.500    23532252.284 5  97873624.880 5        34.000  
> 2021 11 07 00 39  0.0000000  0 20                     
G05  22117320.294 7 116227315.035 7        47.000    22117322.114 7  90566743.403 7        42.750  
G10  25214019.912 5 132500578.575 5        34.500    25214028.312 6 103247204.611 6        36.500  
G13  24478919.258 6 128637590.517 6        38.750    24478921.018 3 100237084.738 3        18.500  
G15  23645584.264 6 124258386.681 6        39.500    23645587.844 5  96824717.945 5        35.500  
G16  23800188.302 6 125070837.645 6        39.000    23800190.942 2  97457794.333 2        17.500  
G18  20465096.364 7 107544826.533 7        47.500    20465099.424 8  83801166.323 8        51.000  
G20  24581028.518 5 129174192.946 5        35.500    24581030.278 2 100655216.732 2        16.000  
G23  22342088.312 7 117408475.074 7        46.500    22342091.932 7  91487125.246 7        44.750  
G25  24087632.480 6 126581365.488 6        37.500    24087638.400 6  98634830.510 6        38.500  
G26  21771802.816 7 114411600.209 7        46.000    21771807.536 7  89151895.571 7        43.000  
G29  21005049.080 8 110382285.465 8        48.500    21005052.340 8  86012176.059 8        49.000  
R06  22773898.552 6 121525893.477 6        36.500                                                  
R07  20772562.864 8 111197168.300 8        49.000    20772564.604 7  86486689.316 7        44.250  
R08  21903707.976 7 117293370.627 7        42.000    21903708.396 7  91228179.075 7        42.000  
R12  23037125.648 7 123060176.842 7        43.750    23037127.028 6  95713468.100 6        39.000  
R13  21264665.740 6 113552112.927 6        40.000    21264666.220 6  88318313.444 6        39.000  
R14  22510989.472 7 119996243.618 7        42.500    22510992.252 6  93330408.412 6        36.500  
R22  20740952.344 6 110716619.496 6        37.000    20740952.324 5  86112934.118 5        33.000  
R23  20554184.584 7 109951034.558 7        46.500                                                  
R24  23499068.564 7 125660079.481 7        43.000    23499069.224 5  97735619.304 5        32.500  
> 2021 11 07 00 40  0.0000000  0 20                     
G05  22145544.274 7 116375631.464 7        46.500    22145545.894 7  90682314.656 7        42.500  
G10  25171675.114 6 132278047.756 6        36.000    25171681.954 6 103073804.046 6        37.500  
G13  24455666.398 6 128515402.201 6        36.500    24455671.618 2 100141873.123 2        17.500  
G15  23614559.524 6 124095350.096 6        41.000    23614564.064 6  96697676.509 6        36.500  
G16  23767633.802 6 124899763.169 6        39.250    23767636.882 3  97324489.558 3        19.000  
G18  20455602.324 8 107494933.603 8        48.000    20455605.224 8  83762288.719 8        51.000  
G20  24619660.476 5 129377207.823 5        35.750    24619663.076 2 100813410.245 2        16.000  
G23  22305093.872 7 117214068.161 7        46.500    22305097.352 7  91335639.320 7        45.000  
G25  24131125.900 6 126809926.886 6        38.250    24131132.380 6  98812930.324 6        37.500  
G26  21766100.416 7 114381634.252 7        46.500    21766106.336 7  89128545.476 7        44.500  
G29  21022253.020 8 110472693.544 8        48.000    21022257.020 8  86082623.919 8        48.250  
R06  22805662.068 5 121695390.299 5        35.500                                                  
R07  20764200.144 8 111152405.535 8        49.000    20764202.504 7  86451873.851 7        45.000  
R08  21860809.216 6 117063647.994 6        40.500    21860809.936 7  91049505.986 7        43.500  
R12  23084543.148 7 123313475.407 7        43.750    23084545.108 6  95910478.068 6        40.000  
R13  21287822.000 5 113675772.944 5        35.500    21287824.100 6  88414493.402 6        39.500  
R14  22489882.712 6 119883735.471 6        41.000    22489886.812 6  93242902.053 6        36.500  
R22  20760795.444 6 110822541.106 6        37.000    20760795.424 5  86195317.593 5        32.750  
R23  20535365.704 7 109850373.325 7        46.000                                                  
R24  23465912.724 7 125482785.315 7        42.500    23465916.844 5  97597723.890 5        35.000  
> 2021 11 07 00 41  0.0000000  0 20                     
G05  22174098.094 7 116525686.766 7        45.000    22174101.114 7  90799240.849 7        42.750  
G10  25129349.574 5 132055625.668 5        35.750    25129356.894 6 102900488.121 6        38.000  
G13  24432682.138 6 128394619.699 6        37.000    24432687.158 2 100047756.948 2        17.500  
G15  23583739.984 7 123933391.979 7        42.000    23583743.104 5  96571475.389 5        35.500  
G16  23735364.882 6 124730184.343 6        40.000    23735367.722 3  97192350.214 3        19.750  
G18  20446364.184 7 107446386.245 7        47.250    20446366.844 8  83724459.650 8        50.000  
G20  24658400.456 6 129580783.317 6        37.000    24658402.456 2 100972040.484 2        15.500  
G23  22268327.612 7 117020858.642 7        46.500    22268330.952 7  91185086.489 7        45.000  
G25  24174657.320 6 127038688.988 6        36.750    24174664.720 6  98991186.509 6        37.500  
G26  21760838.396 7 114353980.637 7        47.000    21760844.356 7  89106997.178 7        45.000  
G29  21039733.120 7 110564555.246 7        47.000    21039737.160 7  86154204.460 7        47.500  
R06  22837858.848 5 121867206.314 5        35.500                                                  
R07  20756440.444 8 111110863.769 8        48.500    20756442.344 7  86419563.624 7        45.000  
R08  21818172.576 6 116835333.054 6        40.500    21818173.116 7  90871927.767 7        42.500  
R12  23132032.388 7 123567157.718 7        42.500    23132035.588 6  96107786.486 6        41.250  
R13  21311484.780 6 113802135.061 6        37.000    21311487.660 6  88512774.988 6        39.000  
R14  22469305.912 7 119774043.536 7        42.500    22469308.272 6  93157586.101 6        37.500  
R22  20780799.264 6 110929324.447 6        36.750    20780799.744 5  86278371.302 5        34.250  
R23  20516709.264 7 109750571.317 7        46.000                                                  
R24  23432785.464 7 125305638.268 7        42.500    23432789.704 6  97459942.980 6        36.250  
> 2021 11 07 00 42  0.0000000  0 20                     
G05  22202979.432 7 116677459.284 7        45.000    22202982.552 7  90917505.145 7        42.500  
G10  25087048.314 6 131833328.158 6        37.500    25087054.874 6 102727269.305 6        38.500  
G13  24409970.538 6 128275265.291 6        38.500    24409973.978 2  99954753.541 2        16.000  
G15  23553130.644 6 123772538.659 6        41.000    23553134.244 6  96446135.062 6        36.500  
G16  23703383.082 6 124562121.199 6        40.000    23703385.762 3  97061391.914 3        19.500  
G18  20437380.904 8 107399181.441 8        48.000    20437384.044 8  83687676.690 8        51.000  
G20  24697241.876 6 129784899.489 6        36.000    24697243.736 2 101131092.126 2        17.250  
G23  22231792.572 7 116828864.090 7        46.000    22231795.412 7  91035480.389 7        45.000  
G25  24218223.420 6 127267630.446 6        37.000    24218230.620 6  99169582.367 6        37.500  
G26  21756016.316 7 114328641.820 7        46.500    21756023.096 7  89087252.629 7        45.500  
G29  21057490.180 7 110657869.205 7        47.000    21057494.100 7  86226916.615 7        46.750  
R06  22870487.868 6 122041312.429 6        36.000                                                  
R07  20749283.724 8 111072552.446 8        48.750    20749285.024 7  86389765.928 7        44.750  
R08  21775805.876 7 116608460.416 7        42.250    21775806.236 6  90695471.324 6        41.500  
R12  23179589.148 7 123821188.967 7        43.500    23179591.228 6  96305366.303 6        41.500  
R13  21335651.880 6 113931172.028 6        37.000    21335652.240 6  88613137.025 6        39.000  
R14  22449259.172 7 119667185.212 7        42.500    22449262.372 6  93074474.080 6        37.000  
R22  20800963.604 6 111036966.653 6        37.500    20800964.944 5  86362092.995 5        32.250  
R23  20498213.304 7 109651631.424 7        46.500                                                  
R24  23399685.924 7 125128638.008 7        44.500    23399688.904 6  97322276.213 6        36.000  
> 2021 11 07 00 43  0.0000000  0 20                     
G05  22232182.832 7 116830927.795 7        45.500    22232186.452 7  91037091.005 7        42.000  
G10  25044773.574 6 131611171.634 6        38.000    25044780.134 6 102554160.310 6        39.500  
G13  24387533.258 6 128157361.752 6        37.250    24387536.478 2  99862880.610 2        16.000  
G15  23522735.644 6 123612815.343 6        37.000    23522739.784 6  96321675.419 6        38.000  
G16  23671694.744 6 124395594.798 6        40.500    23671696.864 3  96931631.110 3        19.500  
G18  20428653.464 7 107353316.595 7        47.500    20428656.024 8  83651937.863 8        50.750  
G20  24736184.116 6 129989538.006 6        37.000    24736185.916 2 101290550.783 2        17.500  
G23  22195492.132 7 116638102.592 7        47.000    22195495.052 7  90886835.050 7        45.500  
G25  24261819.780 6 127496730.323 6        37.250    24261826.940 6  99348101.786 6        39.000  
G26  21751635.836 7 114305620.427 7        45.500    21751641.736 7  89069313.879 7        45.000  
G29  21075523.580 7 110752634.268 7        47.250    21075526.940 7  86300759.518 7        47.000  
R06  22903538.908 5 122217679.271 5        35.000                                                  
R07  20742731.164 8 111037479.853 8        48.000    20742732.924 7  86362487.232 7        44.500  
R08  21733714.476 7 116383065.718 7        42.000    21733714.696 7  90520164.343 7        42.000  
R12  23227202.868 7 124075534.531 7        44.000    23227204.228 6  96503190.583 6        40.250  
R13  21360310.000 5 114062856.144 5        35.500    21360312.940 6  88715558.015 6        40.250  
R14  22429747.852 7 119563178.063 7        42.500    22429749.992 6  92993579.662 6        38.000  
R22  20821289.284 6 111145465.899 6        36.750    20821290.724 5  86446481.308 5        33.500  
R23  20479879.884 7 109553557.296 7        47.000                                                  
R24  23366614.408 7 124951786.536 7        42.500    23366615.788 5  97184725.143 5        35.000  
> 2021 11 07 00 44  0.0000000  0 20                     
G05  22261705.832 7 116986071.177 7        44.750    22261709.192 7  91157981.963 7        42.000  
G10  25002529.254 6 131389172.939 6        38.000    25002535.154 6 102381174.347 6        39.000  
G13  24365378.218 6 128040932.174 6        38.500    24365382.298 3  99772156.294 3        19.000  
G15  23492562.084 6 123454248.439 6        39.000    23492564.984 6  96198116.914 6        37.500  
G16  23640301.904 6 124230625.632 6        41.000    23640304.164 3  96803083.749 3        19.000  
G18  20420180.324 8 107308789.495 8        48.000    20420182.864 8  83617241.444 8        51.500  
G20  24775220.696 6 130194680.786 6        36.750    24775223.256 2 101450402.322 2        15.500  
G23  22159428.834 7 116448592.439 7        45.500    22159432.934 7  90739164.856 7        46.000  
G25  24305442.998 6 127725968.421 6        36.000    24305449.458 6  99526728.840 6        39.250  
G26  21747696.136 7 114284919.108 7        45.250    21747701.996 7  89053182.998 7        44.500  
G29  21093832.920 8 110848848.910 8        48.000    21093835.140 7  86375731.947 7        46.500  
R06  22937010.068 5 122396277.872 5        35.000                                                  
R07  20736785.504 8 111005655.173 8        48.500    20736787.944 7  86337734.743 7        44.750  
R08  21691906.316 6 116159184.358 6        41.000    21691906.336 6  90346034.467 6        41.750  
R12  23274869.388 7 124330160.183 7        43.750    23274870.668 6  96701232.759 6        40.000  
R13  21385460.48016 114197176.63616        36.5001   21385463.200 6  88820015.469 6        40.500  
R14  22410774.192 7 119462039.911 7        42.500    22410777.692 6  92914916.661 6        38.500  
R22  20841772.944 6 111254820.798 6        36.000    20841776.664 5  86531535.104 5        33.250  
R23  20461707.704 7 109456352.869 7        47.000                                                  
R24  23333569.388 7 124775085.436 7        42.500    23333570.268 5  97047290.973 5        35.500  
> 2021 11 07 00 45  0.0000000  0 20                     
G05  22291543.732 7 117142868.839 7        45.500    22291547.192 7  91280161.965 7        42.000  
G10  24960317.114 6 131167349.342 6        39.000    24960323.514 6 102208324.732 6        39.250  
G13  24343508.198 6 127925998.437 6        40.500    24343511.178 3  99682597.647 3        19.000  
G15  23462613.204 6 123296864.425 6        41.500    23462615.704 6  96075479.999 6        36.000  
G16  23609208.724 6 124067235.212 6        40.500    23609211.724 3  96675766.517 3        19.750  
G18  20411960.924 7 107265598.201 7        47.000    20411964.024 8  83583585.900 8        51.500  
G20  24814351.296 6 130400310.174 6        37.250    24814352.336 2 101610633.151 2        14.750  
G23  22123607.934 7 116260352.247 7        44.750    22123611.954 7  90592484.218 7        45.500  
G25  24349087.958 5 127955324.657 5        33.500    24349094.358 6  99705448.010 6        39.000  
G26  21744198.596 7 114266540.557 7        45.250    21744204.216 7  89038862.032 7        43.500  
G29  21112417.760 8 110946512.625 8        48.000    21112420.160 7  86451833.551 7        46.500  
R06  22970889.168 5 122577079.607 5        34.500                                                  
R07  20731450.124 8 110977086.627 8        49.500    20731452.204 7  86315514.769 7        45.500  
R08  21650387.956 7 115936852.766 7        42.500    21650386.976 6  90173109.906 6        40.500  
R12  23322581.948 7 124585032.481 7        43.500    23322583.628 6  96899466.760 6        39.500  
R13  21411097.980 6 114334070.218 6        37.000    21411100.000 6  88926488.196 6        41.250  
R14  22392343.432 6 119363787.959 6        41.250    22392345.012 6  92838498.478 6        38.750  
R22  20862420.944 6 111365030.057 6        37.000    20862422.504 5  86617253.373 5        33.750  
R23  20443700.444 7 109360022.597 7        47.000                                                  
R24  23300553.888 7 124598536.721 7        42.250    23300556.608 6  96909975.364 6        36.000  
> 2021 11 07 00 46  0.0000000  0 20                     
G05  22321692.312 7 117301299.997 7        44.750    22321695.072 6  91403614.789 6        41.000  
G10  24918141.314 6 130945717.906 6        38.000    24918148.634 6 102035624.879 6        40.000  
G13  24321925.638 6 127812583.791 6        39.750    24321928.418 2  99594222.631 2        17.250  
G15  23432894.324 6 123140689.932 6        41.250    23432896.104 5  95953785.617 5        34.000  
G16  23578421.484 6 123905444.578 6        40.500    23578424.284 3  96549695.897 3        19.500  
G18  20403995.244 7 107223740.629 7        47.000    20403998.884 8  83550969.648 8        51.000  
G20  24853570.916 6 130606408.187 6        36.000    24853571.596 2 101771229.053 2        17.250  
G23  22088032.074 7 116073400.417 7        45.500    22088035.834 7  90446807.481 7        45.500  
G25  24392749.858 5 128184779.322 5        32.000    24392758.438 6  99884243.803 6        38.000  
G26  21741143.756 7 114250486.917 7        43.000    21741149.596 7  89026352.703 7        43.500  
G29  21131277.900 8 111045624.682 8        48.500    21131280.800 7  86529063.728 7        47.000  
R06  23005180.648 5 122760055.166 5        34.000                                                  
R07  20726722.764 8 110951781.502 8        49.000    20726724.684 7  86295833.053 7        45.250  
R08  21609163.656 7 115716106.078 7        42.500    21609165.136 7  90001418.113 7        42.500  
R12  23370334.588 7 124840117.925 7        42.500    23370335.868 6  97097866.517 6        39.000  
R13  21437213.620 6 114473525.064 6        36.000    21437214.220 6  89034953.031 6        39.500  
R14  22374454.852 6 119268438.785 6        41.500    22374457.952 6  92764338.005 6        39.500  
R22  20883226.344 6 111476092.390 6        37.500    20883227.984 5  86703635.183 5        33.000  
R23  20425856.224 7 109264570.877 7        47.000                                                  
R24  23267566.828 7 124422142.421 7        42.000    23267570.208 6  96772779.915 6        37.000  
> 2021 11 07 00 47  0.0000000  0 20                     
G05  22352147.892 7 117461342.607 7        46.000    22352149.072 6  91528323.308 6        40.500  
G10  24876006.156 6 130724295.276 6        39.500    24876013.096 6 101863087.760 6        40.000  
G13  24300636.558 6 127700710.700 6        40.000    24300638.398 2  99507048.838 2        17.500  
G15  23403409.684 6 122985750.581 6        41.000    23403412.764 5  95833053.662 5        35.500  
G16  23547941.884 6 123745274.092 6        41.000    23547944.244 3  96424887.728 3        20.000  
G18  20396283.504 7 107183214.140 7        47.000    20396286.724 8  83519390.590 8        51.000  
G20  24892874.774 5 130812956.802 5        35.500    24892876.254 2 101932176.005 2        17.500  
G23  22052704.994 7 115887754.659 7        45.500    22052708.114 7  90302148.484 7        45.000  
G25  24436426.438 5 128414311.825 5        31.000    24436436.218 6 100063100.240 6        38.500  
G26  21738530.976 7 114236759.532 7        44.250    21738538.076 7  89015655.990 7        43.500  
G29  21150414.220 8 111146183.927 8        48.500    21150416.960 7  86607421.563 7        47.500  
R06  23039870.508 5 122945174.760 5        33.500                                                  
R07  20722606.864 8 110929746.162 8        48.500    20722607.564 7  86278694.491 7        44.000  
R08  21568244.760 7 115496979.915 7        44.750    21568245.120 7  89830986.721 7        43.750  
R12  23418120.424 7 125095383.009 7        43.000    23418121.724 6  97296406.026 6        39.000  
R13  21463803.760 6 114615511.783 6        36.250    21463803.920 6  89145387.193 6        39.500  
R14  22357115.71217 119176003.25617        42.5001   22357118.932 6  92692447.600 6        39.500  
R22  20904191.924 6 111588005.992 6        37.500    20904192.884 5  86790679.088 5        32.500  
R23  20408178.464 8 109170001.833 8        48.000                                                  
R24  23234610.228 7 124245904.747 7        42.250    23234612.828 6  96635706.251 6        37.000  
> 2021 11 07 00 48  0.0000000  0 20                     
G05  22382904.812 7 117622974.576 7        45.000    22382907.552 6  91654270.307 6        41.000  
G10  24833913.836 6 130503097.343 6        38.500    24833920.476 6 101690725.747 6        40.250  
G13  24279644.460 6 127590399.946 6        38.000    24279646.640 2  99421092.386 2        16.750  
G15  23374165.866 6 122832071.355 6        40.500    23374168.886 6  95713303.632 6        37.500  
G16  23517774.364 6 123586743.808 6        41.500    23517776.364 3  96301357.669 3        20.000  
G18  20388823.824 7 107144015.312 7        46.000    20388827.224 8  83488846.079 8        51.000  
G20  24932263.494 5 131019937.817 5        33.500    24932263.734 2 102093459.915 2        14.750  
G23  22017629.014 7 115703431.857 7        44.750    22017632.334 7  90158520.312 7        45.500  
G25  24480118.258 5 128643901.082 5        33.250    24480125.678 6 100242000.911 6        37.750  
G26  21736362.156 7 114225358.489 7        44.000    21736368.216 7  89006772.058 7        43.000  
G29  21169824.440 7 111248187.923 7        47.750    21169827.320 7  86686905.202 7        46.500  
R06  23074958.068 5 123132407.540 5        34.000                                                  
R07  20719100.384 7 110910985.759 7        47.750    20719102.184 7  86264103.068 7        43.250  
R08  21527633.320 7 115279508.405 7        44.250    21527633.840 7  89661842.266 7        43.500  
R12  23465934.004 7 125350793.046 7        43.000    23465935.184 6  97495058.261 6        39.000  
R13  21490861.580 5 114760000.490 5        35.500    21490861.480 6  89257767.197 6        38.500  
R14  22340325.812 7 119086505.440 7        43.000    22340328.572 6  92622838.200 6        39.500  
R22  20925315.584 6 111700768.791 6        37.500    20925317.204 5  86878383.474 5        33.500  
R23  20390665.264 7 109076318.613 7        47.500                                                  
R24  23201681.748 6 124069825.246 6        41.500    23201685.248 6  96498755.630 6        38.500  
> 2021 11 07 00 49  0.0000000  0 20                     
G05  22413960.772 7 117786174.432 7        45.000    22413963.712 6  91781439.000 6        41.500  
G10  24791866.956 6 130282141.163 6        38.500    24791874.096 6 101518552.076 6        39.750  
G13  24258955.120 6 127481673.743 6        39.250    24258958.000 2  99336370.751 2        17.250  
G15  23345165.806 6 122679678.358 6        39.750    23345169.206 6  95594555.924 6        37.000  
G16  23487923.184 6 123429874.095 6        41.000    23487925.044 3  96179121.529 3        20.250  
G18  20381616.646 7 107106141.887 7        47.000    20381620.266 8  83459334.346 8        51.500  
G20  24971727.754 5 131227333.294 5        32.750    24971729.074 2 102255066.855 2        14.750  
G23  21982809.034 7 115520449.956 7        45.000    21982812.274 7  90015937.076 7        45.500  
G25  24523815.898 5 128873527.311 5        35.000    24523821.658 6 100420930.446 6        36.500  
G26  21734635.416 7 114216284.863 7        44.500    21734641.396 7  88999701.721 7        42.750  
G29  21189510.080 8 111351635.233 8        48.000    21189512.860 7  86767513.508 7        47.250  
R06  23110436.548 5 123321723.829 5        33.500                                                  
R07  20716209.364 8 110895505.018 8        49.000    20716211.244 7  86252062.479 7        45.000  
R08  21487335.680 7 115063726.850 7        42.500    21487337.260 6  89494012.223 6        41.500  
R12  23513767.524 7 125606314.909 7        42.250    23513770.124 6  97693797.469 6        38.500  
R13  21518382.060 5 114906961.046 5        35.000    21518382.520 6  89372069.802 6        38.000  
R14  22324089.372 7 118999955.985 7        43.000    22324093.072 6  92555521.970 6        40.000  
R22  20946599.304 6 111814379.830 6        37.500    20946600.584 5  86966747.605 5        32.750  
R23  20373317.848 7 108983526.195 7        47.500                                                  
R24  23168784.508 6 123893905.754 6        40.500    23168786.608 6  96361929.414 6        37.500  
> 2021 11 07 00 50  0.0000000  0 20                     
G05  22445310.972 7 117950920.811 7        44.500    22445314.212 6  91909812.777 6        41.500  
G10  24749870.196 6 130061443.484 6        39.000    24749876.136 6 101346579.879 6        39.250  
G13  24238570.740 6 127374553.626 6        40.500    24238575.720 3  99252900.626 3        19.750  
G15  23316417.286 7 122528598.020 7        42.750    23316418.946 6  95476831.026 6        36.500  
G16  23458391.684 7 123274684.828 7        42.000    23458393.664 3  96058194.848 3        21.500  
G18  20374661.766 7 107069591.205 7        46.500    20374664.866 8  83430853.326 8        50.500  
G20  25011267.994 5 131435125.888 5        33.500    25011270.854 2 102416983.226 2        15.500  
G23  21948247.094 7 115338826.479 7        45.500    21948250.314 7  89874412.314 7        46.000  
G25  24567515.418 5 129103170.438 5        34.500    24567521.638 6 100599873.099 6        36.000  
G26  21733352.256 7 114209538.911 7        46.000    21733357.176 7  88994445.108 7        43.000  
G29  21209470.040 8 111456524.592 8        48.000    21209473.360 7  86849245.456 7        47.750  
R06  23146298.188 5 123513093.110 5        34.000                                                  
R07  20713932.004 8 110883308.535 8        48.750    20713933.164 7  86242576.328 7        45.000  
R08  21447363.980 7 114849670.430 7        44.000    21447363.920 7  89327523.930 7        43.250  
R12  23561616.604 6 125861915.713 6        41.250    23561618.844 6  97892598.046 6        38.000  
R13  21546357.440 5 115056361.434 5        33.250    21546360.360 6  89488270.029 6        38.000  
R14  22308408.132 7 118916368.630 7        43.250    22308411.332 6  92490509.591 6        40.000  
R22  20968041.824 6 111928837.518 6        38.000    20968042.364 5  87055770.223 5        32.500  
R23  20356138.748 7 108891629.134 7        46.500                                                  
R24  23135916.208 6 123718148.253 6        40.000    23135918.128 6  96225229.208 6        37.000  
> 2021 11 07 00 51  0.0000000  0 19                     
G05  22476951.612 7 118117193.543 7        45.000    22476954.332 6  92039375.953 6        40.500  
G10  24707925.216 6 129841022.109 6        40.500    24707931.496 6 101174822.981 6        39.500  
G13  24218496.540 6 127269062.194 6        38.500    24218499.740 3  99170699.580 3        18.000  
G15  23287920.506 6 122378856.562 6        40.000    23287924.666 6  95360149.403 6        36.750  
G16  23429184.444 6 123121197.612 6        41.500    23429186.844 3  95938594.430 3        21.500  
G18  20367957.726 7 107034361.608 7        46.500    20367960.666 8  83403401.721 8        51.000  
G23  21913947.754 7 115158579.851 7        46.500    21913951.374 7  89733960.446 7        45.500  
G25  24611214.496 5 129332811.460 5        35.250    24611221.356 6 100778814.131 6        36.750  
G26  21732511.636 7 114205121.654 7        45.000    21732516.816 7  88991003.088 7        43.000  
G29  21229704.140 7 111562854.972 7        47.500    21229707.100 7  86932100.291 7        47.250  
R06  23182538.808 5 123706485.976 5        34.500                                                  
R07  20712267.444 8 110874401.125 8        49.750    20712268.944 7  86235648.392 7        44.750  
R08  21407718.800 7 114637375.414 7        44.000    21407720.460 7  89162405.642 7        45.000  
R12  23609473.904 6 126117563.282 6        40.500    23609475.844 6  98091435.030 6        37.000  
R13  21574786.360 5 115208173.485 5        34.000    21574790.840 6  89606346.089 6        39.000  
R14  22293285.57217 118835760.10917        43.0001   22293289.212 6  92427812.526 6        39.500  
R22  20989642.720 6 112044142.131 6        38.250    20989642.400 5  87145451.591 5        32.500  
R23  20339128.368 7 108800633.178 7        47.500                                                  
R24  23103079.688 6 123542556.725 6        41.500    23103081.528 6  96088658.051 6        37.500  
> 2021 11 07 00 52  0.0000000  0 19                     
G05  22508878.210 7 118284970.299 7        44.750    22508881.190 6  92170111.104 6        40.500  
G10  24666037.136 6 129620893.996 6        40.500    24666042.416 6 101003294.656 6        38.500  
G13  24198736.040 6 127165220.701 6        40.500    24198739.060 3  99089784.113 3        18.000  
G15  23259686.866 6 122230479.618 6        41.500    23259690.606 6  95244531.024 6        38.750  
G16  23400304.624 6 122969432.553 6        41.500    23400306.264 3  95820335.969 3        21.000  
G18  20361504.186 7 107000450.662 7        46.250    20361507.806 8  83376977.611 8        51.500  
G23  21879912.816 7 114979727.598 7        46.500    21879916.996 7  89594595.092 7        46.500  
G25  24654909.076 5 129562430.799 5        35.000    24654916.396 6 100957738.263 6        37.000  
G26  21732113.496 7 114203032.820 7        45.500    21732119.776 7  88989375.412 7        44.500  
G29  21250211.620 7 111670624.149 7        46.500    21250215.120 7  87016076.246 7        47.500  
R06  23219155.808 5 123901872.129 5        34.500                                                  
R07  20711218.464 8 110868785.577 8        49.500    20711218.684 7  86231280.761 7        43.500  
R08  21368409.160 7 114426876.269 7        42.500    21368410.380 7  88998684.181 7        42.500  
R12  23657334.984 6 126373225.255 6        40.000    23657337.184 6  98290283.205 6        38.500  
R13  21603665.256 6 115362365.081 6        36.000    21603665.076 6  89726272.828 6        38.750  
R14  22278724.332 7 118758139.514 7        42.000    22278727.592 6  92367440.956 6        40.000  
R22  21011401.040 6 112160292.660 6        36.750    21011401.540 5  87235790.888 5        33.000  
R23  20322286.768 7 108710543.298 7        47.500                                                  
R24  23070274.928 7 123367133.690 7        43.500    23070278.288 6  95952217.990 6        38.750  
> 2021 11 07 00 53  0.0000000  0 19                     
G05  22541088.010 7 118454229.405 7        46.000    22541090.370 6  92302001.302 6        40.750  
G10  24624206.836 6 129401075.293 6        41.500    24624212.136 6 100832007.379 6        39.000  
G13  24179294.120 7 127063049.417 7        42.000    24179295.800 3  99010170.189 3        18.000  
G15  23231715.546 6 122083491.930 6        41.500    23231719.606 6  95129995.237 6        38.500  
G16  23371755.726 6 122819408.537 6        41.250    23371757.466 3  95703434.178 3        20.750  
G18  20355301.486 7 106967854.925 7        46.500    20355305.226 8  83351578.345 8        51.500  
G23  21846146.956 7 114802286.126 7        45.500    21846150.596 7  89456329.048 7        45.500  
G25  24698596.296 6 129792007.899 6        36.250    24698603.876 5 101136629.470 5        35.500  
G26  21732159.096 7 114203270.960 7        46.000    21732165.196 7  88989560.972 7        45.250  
G29  21270992.400 8 111779829.651 8        48.000    21270996.740 7  87101171.418 7        47.500  
R06  23256136.948 5 124099219.839 5        33.000                                                  
R07  20710784.664 8 110866463.527 8        49.500    20710785.184 7  86229474.728 7        44.250  
R08  21329442.300 7 114218207.341 7        44.000    21329441.900 7  88836386.116 7        42.000  
R12  23705190.984 6 126628868.367 6        39.000    23705194.624 6  98489116.721 6        38.500  
R13  21632979.516 5 115518905.052 5        35.000    21632980.876 6  89848026.066 6        39.000  
R14  22264726.072 7 118683520.853 7        43.000    22264729.052 6  92309404.215 6        39.500  
R22  21033317.240 6 112277287.219 6        37.750    21033318.600 5  87326786.643 5        33.000  
R23  20305615.148 8 108621363.692 8        48.000                                                  
R24  23037502.648 7 123191880.605 7        43.500    23037504.608 6  95815910.093 6        39.500  
> 2021 11 07 00 54  0.0000000  0 19                     
G05  22573574.370 7 118624948.920 7        45.000    22573576.950 6  92435029.510 6        40.500  
G10  24582438.278 7 129181583.381 7        42.000    24582443.678 6 100660974.733 6        38.000  
G13  24160173.020 6 126962570.706 6        39.750    24160176.700 3  98931875.114 3        18.000  
G15  23204014.506 6 121937919.849 6        41.500    23204017.746 6  95016562.453 6        37.500  
G16  23343542.146 6 122671146.361 6        41.000    23343544.766 3  95587905.220 3        22.500  
G18  20349348.526 7 106936572.250 7        47.000    20349352.306 8  83327202.268 8        51.500  
G23  21812652.416 7 114626273.153 7        45.000    21812656.276 7  89319176.105 7        45.500  
G25  24742272.076 6 130021523.617 6        36.500    24742279.096 6 101315472.875 6        37.000  
G26  21732647.376 7 114205835.535 7        46.500    21732653.716 7  88991559.340 7        46.000  
G29  21292046.538 7 111890470.179 7        45.750    21292050.638 7  87187384.792 7        46.000  
R06  23293482.548 5 124298499.005 5        34.500                                                  
R07  20710966.144 8 110867437.412 8        50.000    20710967.904 7  86230232.188 7        44.500  
R08  21290822.540 7 114011403.423 7        44.000    21290823.580 7  88675538.651 7        44.250  
R12  23753038.144 6 126884460.613 6        40.750    23753042.104 6  98687910.674 6        38.000  
R13  21662727.496 5 115677760.801 5        34.500    21662728.616 6  89971580.519 6        38.000  
R14  22251294.132 7 118611916.446 7        43.000    22251296.612 6  92253711.917 6        40.250  
R22  21055392.320 6 112395125.653 6        36.500    21055393.480 5  87418438.737 5        33.000  
R23  20289115.948 8 108533100.227 8        49.500                                                  
R24  23004760.348 7 123016801.018 7        42.500    23004764.308 6  95679737.193 6        39.000  
> 2021 11 07 00 55  0.0000000  0 19                     
G05  22606335.210 7 118797106.961 7        45.750    22606337.010 6  92569178.653 6        40.500  
G10  24540736.418 7 128962434.248 7        42.500    24540740.778 6 100490209.205 6        38.000  
G13  24141377.800 6 126863803.657 6        39.000    24141382.480 3  98854913.799 3        19.000  
G15  23176586.746 6 121793787.863 6        41.500    23176591.526 6  94904251.859 6        40.500  
G16  23315668.226 6 122524664.686 6        41.500    23315669.866 3  95473763.702 3        22.500  
G18  20343645.426 7 106906599.084 7        47.250    20343648.406 8  83303846.595 8        51.500  
G23  21779433.516 7 114451704.729 7        45.750    21779436.676 7  89183148.801 7        45.750  
G25  24785932.696 6 130250957.538 6        37.500    24785938.996 6 101494252.574 6        37.000  
G26  21733578.036 7 114210724.211 7        46.750    21733583.876 7  88995368.690 7        46.000  
G29  21313372.238 7 112002542.053 7        45.250    21313376.598 7  87274713.509 7        45.000  
R06  23331183.308 5 124499677.575 5        34.000                                                  
R07  20711763.264 8 110871707.151 8        48.500    20711765.564 7  86233553.125 7        45.000  
R08  21252558.720 7 113806498.171 7        43.250    21252559.340 7  88516167.929 7        44.500  
R12  23800871.844 6 127139969.271 6        39.750    23800872.824 6  98886639.643 6        37.500  
R13  21692903.716 5 115838900.997 5        34.250    21692905.856 6  90096911.748 6        39.000  
R14  22238428.112 7 118543336.747 7        42.750    22238431.052 6  92200372.176 6        39.750  
R22  21077624.760 6 112513806.370 6        36.000    21077626.480 5  87510745.938 5        32.750  
R23  20272788.248 8 108445757.234 8        49.250                                                  
R24  22972053.448 7 122841897.071 7        44.000    22972056.028 6  95543700.867 6        40.000  
> 2021 11 07 00 56  0.0000000  0 19                     
G05  22639366.030 7 118970682.391 7        44.500    22639367.610 6  92704432.237 6        41.000  
G10  24499101.938 7 128743645.662 7        42.500    24499106.438 6 100319724.609 6        37.500  
G13  24122913.080 6 126766769.690 6        40.500    24122916.480 3  98779302.981 3        19.500  
G15  23149438.766 7 121651122.513 7        42.500    23149442.226 6  94793084.113 6        39.250  
G16  23288135.246 6 122379983.764 6        40.250    23288137.826 3  95361025.368 3        22.000  
G18  20338190.266 7 106877933.638 7        47.000    20338193.866 8  83281509.882 8        52.000  
G23  21746492.096 7 114278598.632 7        45.500    21746495.536 7  89048260.953 7        46.250  
G25  24829574.016 6 130480291.112 6        38.000    24829579.916 6 101672954.011 6        37.000  
G26  21734949.916 7 114217936.077 7        45.250    21734956.136 7  89000988.322 7        45.500  
G29  21334971.878 7 112116044.605 7        46.000    21334974.998 7  87363157.041 7        45.500  
R06  23369234.568 5 124702725.399 5        34.750                                                  
R07  20713176.664 8 110879273.660 8        49.250    20713178.864 7  86239438.198 7        45.000  
R08  21214653.980 7 113603527.293 7        42.000    21214655.960 7  88358301.777 7        44.000  
R12  23848681.844 6 127395363.071 6        39.500    23848684.264 6  99085279.230 6        38.500  
R13  21723502.096 5 116002291.994 5        35.000    21723502.956 6  90223993.598 6        37.750  
R14  22226132.212 7 118477793.395 7        43.000    22226135.432 6  92149394.022 6        41.000  
R22  21100015.880 6 112633329.215 6        36.500    21100017.140 5  87603708.164 5        33.500  
R23  20256633.368 8 108359340.875 8        49.000                                                  
R24  22939378.528 7 122667172.440 7        43.500    22939379.488 6  95407803.981 6        38.000  
> 2021 11 07 00 57  0.0000000  0 19                     
G05  22672661.610 7 119145652.825 7        44.000    22672663.690 6  92840772.816 6        41.000  
G10  24457538.798 6 128525233.053 6        41.500    24457543.818 6 100149532.991 6        38.250  
G13  24104781.120 6 126671488.153 6        39.500    24104782.920 2  98705057.680 2        17.500  
G15  23122573.106 6 121509946.975 6        41.500    23122576.386 6  94683077.220 6        36.000  
G16  23260950.206 6 122237121.847 6        41.500    23260952.346 3  95249704.393 3        22.500  
G18  20332983.786 7 106850571.690 7        47.000    20332986.986 8  83260188.906 8        51.500  
G23  21713832.596 7 114106970.112 7        46.000    21713835.956 7  88914524.469 7        46.500  
G25  24873191.556 6 130709503.565 6        36.750    24873197.816 6 101851561.125 6        37.250  
G26  21736763.436 7 114227467.542 7        46.250    21736770.376 7  89008415.421 7        45.500  
G29  21356842.358 7 112230973.229 7        47.000    21356845.858 7  87452711.805 7        46.500  
R06  23407630.284 5 124907609.861 5        34.750                                                  
R07  20715206.684 8 110890135.372 8        49.000    20715207.524 7  86247886.217 7        44.750  
R08  21177118.540 7 113402522.941 7        44.500    21177119.100 7  88201965.071 7        43.500  
R12  23896464.624 6 127650608.952 6        39.750    23896466.544 6  99283803.803 6        38.500  
R13  21754514.696 5 116167901.510 5        34.000    21754517.556 6  90352800.968 6        39.000  
R14  22214408.072 7 118415295.615 7        44.500    22214410.292 6  92100784.634 6        41.000  
R22  21122563.880 6 112753692.250 6        36.250    21122565.080 5  87697323.854 5        33.000  
R23  20240653.188 8 108273855.593 8        49.500                                                  
R24  22906738.128 7 122492628.676 7        43.250    22906738.608 6  95272047.726 6        38.250  
> 2021 11 07 00 58  0.0000000  0 20                     
G05  22706218.150 7 119321995.296 7        44.000    22706220.350 6  92978182.522 6        40.500  
G10  24416051.138 6 128307213.201 6        41.500    24416056.978 6  99979647.424 6        39.500  
G13  24086987.420 6 126577978.581 6        39.250    24086990.200 3  98632193.161 3        18.000  
G15  23095996.966 6 121370286.418 6        41.500    23096000.846 6  94574250.807 6        39.250  
G16  23234114.806 6 122096097.846 6        41.500    23234116.186 3  95139815.564 3        22.750  
G18  20328024.126 7 106824510.353 7        46.500    20328027.386 8  83239881.389 8        51.500  
G23  21681457.176 7 113936835.554 7        46.000    21681460.436 7  88781952.122 7        46.500  
G25  24916782.094 6 130938575.466 6        38.000    24916788.294 6 102030058.690 6        37.250  
G26  21739018.596 7 114239315.907 7        45.250    21739024.916 7  89017647.911 7        45.000  
G29  21378983.838 7 112347325.587 7        47.000    21378986.458 7  87543375.980 7        46.250  
R01  24036241.620 5 128487488.323 5        35.000    24036245.560 5  99934713.767 5        30.500  
R06  23446363.544 5 125114299.770 5        35.000                                                  
R07  20717850.724 8 110904290.800 8        50.000    20717851.804 7  86258896.003 7        44.500  
R08  21139956.340 7 113203519.307 7        43.500    21139957.140 7  88047184.496 7        45.500  
R12  23944212.384 6 127905675.550 6        40.250    23944215.644 6  99482188.912 6        38.500  
R13  21785936.896 5 116335695.664 5        33.250    21785939.716 6  90483307.479 6        39.000  
R14  22203256.512 7 118355852.543 7        44.500    22203259.332 6  92054551.156 6        41.250  
R22  21145269.300 6 112874894.529 6        37.500    21145271.640 5  87791592.278 5        33.250  
R23  20224847.088 8 108189306.561 8        48.500                                                  
R24  22874131.148 7 122318268.700 7        43.000    22874134.268 6  95136434.491 6        39.500  
> 2021 11 07 00 59  0.0000000  0 20                     
G05  22740032.270 7 119499691.438 7        43.750    22740035.150 6  93116647.064 6        40.750  
G10  24374641.358 6 128089605.170 6        40.500    24374647.218 6  99810082.784 6        39.000  
G13  24069533.860 6 126486262.885 6        39.000    24069538.280 3  98560726.458 3        19.750  
G15  23069713.668 7 121232168.381 7        43.000    23069717.528 6  94466626.389 6        39.500  
G16  23207632.386 6 121956933.088 6        41.500    23207633.146 3  95031375.519 3        23.000  
G18  20323311.966 7 106799749.138 7        46.250    20323315.586 8  83220586.948 8        51.500  
G23  21649369.376 7 113768213.639 7        46.000    21649372.356 7  88650558.459 7        46.250  
G25  24960342.774 6 131167489.869 6        37.500    24960349.254 6 102208433.509 6        36.500  
G26  21741713.256 7 114253480.482 7        44.000    21741720.036 7  89028685.220 7        44.250  
G29  21401395.518 8 112465100.548 8        48.000    21401398.098 7  87635148.667 7        45.250  
R01  23985196.440 6 128214623.258 6        36.500    23985200.780 5  99722485.410 5        30.500  
R06  23485431.244 5 125322765.811 5        33.500                                                  
R07  20721110.544 8 110921740.562 8        49.750    20721112.004 7  86272468.052 7        44.750  
R08  21103173.660 7 113006552.274 7        43.000    21103174.700 7  87893987.972 7        44.000  
R12  23991922.800 6 128160533.374 6        38.750    23991925.180 6  99680411.658 6        37.500  
R13  21817765.356 5 116505643.275 5        35.000    21817765.256 6  90615488.930 6        37.500  
R14  22192680.512 7 118299475.147 7        44.000    22192683.412 7  92010702.089 7        42.000  
R22  21168133.140 6 112996938.074 6        36.500    21168134.220 5  87886515.000 5        33.500  
R23  20209217.288 8 108105702.065 8        48.500                                                  
R24  22841560.728 7 122144098.538 7        43.000    22841563.808 6  95000968.868 6        40.250  
> 2021 11 07 01 00  0.0000000  0 20                     
G05  22774099.190 7 119678715.089 7        43.500    22774102.610 6  93256146.005 6        41.500  
G10  24333313.138 6 127872422.129 6        41.000    24333318.898 6  99640849.268 6        40.500  
G13  24052426.800 6 126396357.813 6        40.500    24052430.200 3  98490670.659 3        20.750  
G15  23043728.028 6 121095613.580 6        41.750    23043731.408 6  94360220.137 6        39.000  
G16  23181506.686 6 121819642.764 6        41.000    23181508.106 4  94924396.093 4        24.500  
G18  20318846.606 7 106776281.487 7        46.250    20318849.826 8  83202300.475 8        51.000  
G23  21617571.736 7 113601117.003 7        46.500    21617575.396 7  88520353.309 7        46.750  
G25  25003869.654 6 131396223.996 6        37.000    25003875.834 6 102386667.838 6        37.000  
G26  21744848.376 7 114269954.333 7        44.500    21744854.556 7  89041522.003 7        43.750  
G29  21424077.118 7 112584292.572 7        46.500    21424079.038 7  87728025.548 7        44.500  
R01  23934121.384 6 127941602.199 6        36.000    23934126.744 5  99510135.689 5        31.750  
R06  23524821.964 5 125532972.868 5        33.750                                                  
R07  20724984.144 8 110942477.852 8        50.250    20724985.504 7  86288597.107 7        43.750  
R08  21066776.660 7 112811652.404 7        43.500    21066778.340 7  87742399.218 7        43.750  
R12  24039586.760 6 128415147.837 6        38.500    24039590.220 6  99878445.078 6        36.750  
R13  21849986.736 5 116677708.453 5        35.750    21849987.516 6  90749317.345 6        37.500  
R14  22182680.596 7 118246168.613 7        44.750    22182683.756 7  91969241.460 7        43.000  
R22  21191151.700 6 113119818.566 6        36.500    21191153.860 5  87982088.701 5        32.500  
R23  20193765.988 8 108023044.110 8        48.750                                                  
R24  22809025.908 7 121970117.954 7        43.000    22809029.308 6  94865650.714 6        41.000  
> 2021 11 07 01 01  0.0000000  0 19                     
G05  22808415.548 7 119859046.986 7        44.000    22808417.848 6  93396664.356 6        40.500  
G10  24292068.898 6 127655683.060 6        40.750    24292075.118 6  99471961.710 6        40.500  
G13  24035666.860 6 126308284.446 6        41.500    24035669.740 3  98422042.068 3        20.250  
G15  23018045.528 6 120960649.017 6        41.500    23018048.668 6  94255052.947 6        38.500  
G16  23155741.446 6 121684247.390 6        41.500    23155743.346 4  94818893.222 4        25.500  
G18  20314626.666 7 106754106.825 7        47.000    20314630.206 8  83185021.542 8        51.000  
G23  21586067.876 7 113435563.805 7        45.500    21586071.616 7  88391350.854 7        45.750  
G25  25047358.794 6 131624760.961 6        37.000    25047364.614 6 102564748.567 6        36.750  
G26  21748422.656 7 114288735.911 7        44.250    21748428.396 7  89056156.968 7        44.000  
G29  21447028.218 7 112704900.460 7        47.750    21447029.618 7  87822005.701 7        45.000  
R01  23883025.564 6 127668457.371 6        36.750    23883029.124 5  99297689.721 5        31.500  
R06  23564536.224 5 125744891.570 5        33.000                                                  
R07  20729472.324 8 110966501.945 8        50.000    20729473.364 7  86307282.511 7        44.500  
R08  21030773.080 7 112618854.785 7        42.750    21030774.580 7  87592445.543 7        44.500  
R13  21882599.07615 116851857.82115        34.0001   21882600.436 6  90884766.835 6        38.000  
R14  22173258.336 7 118195942.615 7        46.000    22173261.096 7  91930176.803 7        43.000  
R22  21214326.460 5 113243537.340 5        35.500    21214330.860 5  88078314.382 5        33.500  
R23  20178492.648 8 107941341.323 8        48.000                                                  
R24  22776526.452 7 121796332.591 7        43.750    22776529.812 6  94730484.405 6        40.500  
> 2021 11 07 01 02  0.0000000  0 19                     
G05  22842976.608 7 120040664.012 7        45.250    22842978.348 6  93538184.125 6        40.500  
G10  24250911.980 6 127439403.451 6        41.250    24250917.960 6  99303432.143 6        39.500  
G13  24019258.120 6 126222060.517 6        39.500    24019261.720 3  98354854.616 3        19.750  
G15  22992669.548 7 120827297.928 7        42.500    22992672.568 6  94151143.011 6        37.500  
G16  23130341.266 7 121550765.164 7        42.500    23130342.686 4  94714881.090 4        25.500  
G18  20310652.086 7 106733220.981 7        46.250    20310655.726 8  83168746.860 8        51.500  
G23  21554860.318 7 113271568.729 7        46.000    21554864.458 7  88263562.532 7        46.500  
G25  25090806.154 6 131853080.560 6        36.500    25090812.314 6 102742659.918 6        36.000  
G26  21752434.516 7 114309819.923 7        43.750    21752440.116 7  89072586.056 7        44.750  
G29  21470247.878 7 112826919.278 7        47.250    21470250.498 7  87917085.293 7        46.000  
R01  23831909.804 6 127395217.287 6        37.500    23831913.764 5  99085169.635 5        32.500  
R06  23604564.284 5 125958488.949 5        32.500                                                  
R07  20734574.364 8 110993808.013 8        50.000    20734574.764 7  86328520.562 7        45.500  
R08  20995169.720 7 112428191.100 7        44.250    20995170.020 7  87444151.588 7        45.500  
R13  21915594.976 5 117028057.889 5        35.000    21915596.956 6  91021811.261 6        37.500  
R14  22164413.416 7 118148803.018 7        45.250    22164417.936 7  91893512.674 7        43.000  
R22  21237660.940 5 113368093.191 5        35.000    21237663.800 5  88175191.158 5        32.750  
R23  20163398.248 8 107860598.288 8        48.000                                                  
R24  22744064.052 7 121622744.363 7        43.000    22744067.212 6  94595471.411 6        39.000  
> 2021 11 07 01 03  0.0000000  0 19                     
G05  22877777.128 7 120223544.233 7        44.750    22877779.128 6  93680688.196 6        40.500  
G10  24209845.800 6 127223599.723 6        40.500    24209852.420 6  99135273.347 6        40.500  
G13  24003206.280 6 126137704.625 6        39.750    24003207.900 3  98289122.805 3        19.000  
G15  22967605.748 7 120695584.886 7        43.000    22967609.368 6  94048509.497 6        38.000  
G16  23105307.066 7 121419213.412 7        43.000    23105309.486 4  94612373.252 4        25.500  
G18  20306922.326 7 106713620.731 7        46.000    20306926.026 8  83153473.949 8        51.500  
G23  21523952.918 7 113109147.125 7        46.000    21523956.418 7  88137000.307 7        46.000  
G25  25134208.454 5 132081163.705 5        35.500    25134215.034 6 102920387.051 6        37.000  
G26  21756884.636 7 114333201.578 7        45.250    21756890.276 7  89090805.476 7        44.500  
G29  21493734.378 7 112950346.214 7        46.000    21493738.538 7  88013262.118 7        46.000  
R01  23780782.484 6 127121911.322 6        38.000    23780786.404 5  98872598.346 5        32.500  
R06  23644900.004 5 126173732.864 5        32.250                                                  
R07  20740286.504 8 111024390.565 8        49.000    20740288.264 7  86352306.991 7        45.750  
R08  20959969.184 7 112239693.983 7        44.750    20959969.504 7  87297542.807 7        45.000  
R13  21948969.356 5 117206272.476 5        34.000    21948971.556 6  91160422.532 6        37.500  
R14  22156152.076 7 118104755.954 7        46.000    22156154.656 7  91859253.861 7        43.500  
R22  21261151.700 5 113493485.527 5        35.750    21261152.760 5  88272718.545 5        31.500  
R23  20148485.508 8 107780821.125 8        49.250                                                  
R24  22711640.592 7 121449357.324 7        43.500    22711641.492 6  94460614.891 6        36.750  
> 2021 11 07 01 04  0.0000000  0 19                     
G05  22912815.088 7 120407667.612 7        44.500    22912816.988 6  93824160.948 6        41.000  
G10  24168874.460 6 127008289.835 6        41.500    24168880.500 6  98967499.445 6        41.000  
G13  23987513.580 6 126055236.773 6        40.000    23987513.820 3  98224862.180 3        19.000  
G15  22942857.708 7 120565534.435 7        43.750    22942860.248 6  93947171.473 6        37.000  
G16  23080644.788 7 121289611.237 7        43.250    23080646.688 4  94511384.552 4        25.500  
G18  20303436.766 7 106695304.394 7        46.250    20303440.486 8  83139201.483 8        51.750  
G23  21493347.478 7 112948315.889 7        46.500    21493351.198 7  88011677.305 7        46.500  
G25  25177562.894 5 132308992.778 5        34.500    25177569.614 6 103097916.199 6        37.000  
G26  21761770.216 7 114358877.373 7        46.000    21761776.376 7  89110812.569 7        44.500  
G29  21517489.178 7 113075178.941 7        45.000    21517493.158 7  88110534.344 7        44.500  
R01  23729648.744 6 126848571.062 6        37.000    23729651.604 5  98660000.341 5        32.000  
R06  23685540.764 5 126390593.017 5        30.500                                                  
R07  20746610.784 8 111058245.897 8        50.000    20746613.164 7  86378638.943 7        46.250  
R08  20925177.604 7 112053397.533 7        43.000    20925178.404 7  87152645.568 7        42.750  
R13  21982713.896 5 117386469.588 5        34.000    21982715.876 6  91300575.825 6        37.500  
R14  22148470.896 7 118063808.269 7        46.000    22148473.016 7  91827405.647 7        44.500  
R22  21284799.320 6 113619715.046 6        36.000    21284800.380 5  88370897.050 5        31.000  
R23  20133753.568 8 107702017.442 8        49.000                                                  
R24  22679256.012 7 121276176.488 7        44.750    22679254.832 6  94325918.704 6        36.750  
> 2021 11 07 01 05  0.0000000  0 19                     
G05  22948084.188 7 120593008.832 7        44.000    22948086.988 6  93968582.686 6        40.500  
G10  24127999.680 6 126793487.288 6        41.500    24128004.720 6  98800120.849 6        41.000  
G13  23972182.462 6 125974672.013 6        41.500    23972185.202 3  98162084.435 3        19.750  
G15  22918430.488 7 120437167.912 7        43.000    22918433.868 6  93847145.609 6        39.000  
G16  23056356.548 7 121161973.661 7        43.000    23056358.668 4  94411926.740 4        24.250  
G18  20300194.466 7 106678265.754 7        47.000    20300197.946 8  83125924.638 8        52.000  
G23  21463047.578 7 112789087.064 7        47.000    21463051.018 7  87887602.945 7        47.500  
G25  25220865.212 5 132536545.940 5        33.500    25220872.132 6 103275230.335 6        36.000  
G26  21767091.496 7 114386838.805 7        45.500    21767097.536 7  89132600.675 7        45.000  
G29  21541510.598 7 113201409.609 7        46.000    21541513.998 7  88208895.877 7        46.000  
R01  23678511.464 6 126575223.594 6        38.000    23678516.404 5  98447396.744 5        32.500  
R06  23726474.984 4 126609034.295 4        29.000                                                  
R07  20753545.184 8 111095364.613 8        49.500    20753546.304 7  86407509.079 7        45.000  
R08  20890805.244 7 111869330.632 7        44.000    20890805.044 7  87009482.429 7        43.000  
R13  22016822.836 5 117568610.685 5        31.500    22016824.596 6  91442241.116 6        36.000  
R14  22141370.556 7 118025962.116 7        46.500    22141373.196 7  91797969.732 7        43.500  
R22  21308602.520 6 113746778.010 6        36.750    21308602.960 5  88469723.783 5        31.500  
R23  20119204.408 8 107624190.183 8        49.000                                                  
R24  22646908.832 7 121103202.309 7        44.500    22646909.852 6  94191383.282 6        39.250  
> 2021 11 07 01 06  0.0000000  0 19                     
G05  22983582.368 7 120779549.803 7        44.000    22983583.848 6  94113939.277 6        39.250  
G10  24087224.440 6 126579212.353 6        41.500    24087229.540 6  98633153.379 6        41.000  
G13  23957216.322 6 125896031.861 6        38.500    23957221.602 3  98100806.432 3        19.500  
G15  22894328.988 7 120310512.905 7        43.500    22894332.468 6  93748453.410 6        40.000  
G16  23032445.668 7 121036322.250 7        42.750    23032446.888 4  94314016.539 4        26.000  
G18  20297195.826 7 106662505.553 7        47.000    20297198.946 8  83113643.964 8        51.000  
G23  21433055.858 7 112631479.525 7        47.500    21433058.978 7  87764791.918 7        47.500  
G25  25264112.232 5 132763808.252 5        35.500    25264118.652 6 103452317.809 6        37.000  
G26  21772846.716 7 114417084.020 7        46.500    21772852.816 7  89156168.359 7        45.250  
G29  21565797.978 7 113329039.578 7        47.000    21565801.518 7  88308347.776 7        46.750  
R01  23627382.024 6 126301903.056 6        37.500    23627385.864 5  98234814.137 5        32.250  
R06  23767701.284 5 126829028.464 5        31.500                                                  
R07  20761088.104 8 111135743.584 8        48.500    20761088.604 7  86438914.953 7        44.500  
R08  20856856.524 7 111687529.533 7        46.500    20856856.524 7  86868081.614 7        45.500  
R13  22051290.376 5 117752665.610 5        31.000    22051293.676 6  91585394.917 6        37.000  
R14  22134853.396 7 117991225.496 7        45.000    22134856.776 7  91770952.346 7        44.250  
R22  21332563.120 6 113874678.211 6        37.000    21332563.320 5  88569201.692 5        30.750  
R23  20104840.268 8 107547349.783 8        48.750                                                  
R24  22614600.132 7 120930442.855 7        43.500    22614603.992 6  94057014.903 6        40.750  
> 2021 11 07 01 07  0.0000000  0 18                     
G05  23019302.888 7 120967267.955 7        42.500    23019305.428 6  94260213.165 6        39.000  
G10  24046551.980 7 126365480.233 7        42.500    24046557.580 6  98466608.875 6        40.750  
G13  23942620.502 6 125819332.821 6        38.500    23942625.942 3  98041041.045 3        19.000  
G15  22870556.148 6 120185591.064 6        40.000    22870560.728 6  93651111.816 6        39.500  
G16  23008915.268 7 120912672.753 7        42.500    23008917.808 4  94217666.294 4        25.750  
G18  20294439.506 8 106648019.383 8        48.000    20294442.106 8  83102356.062 8        51.000  
G23  21403375.198 7 112475506.880 7        47.750    21403378.338 7  87643254.827 7        47.500  
G25  25307299.672 5 132990759.907 5        35.000    25307306.232 5 103629163.263 5        35.250  
G26  21779035.576 7 114449605.695 7        47.500    21779041.576 7  89181509.891 7        45.500  
G29  21590350.196 7 113458062.814 7        46.500    21590353.776 7  88408885.350 7        46.250  
R01  23576262.524 6 126028638.610 6        38.000    23576266.264 5  98022275.113 5        32.000  
R07  20769237.664 8 111179373.744 8        48.000    20769239.624 7  86472849.512 7        45.500  
R08  20823334.344 7 111508024.054 7        45.000    20823335.364 7  86728466.323 7        46.000  
R13  22086109.676 5 117938597.255 5        32.500    22086112.196 6  91730008.386 6        36.250  
R14  22128920.756 7 117959601.136 7        43.750    22128924.236 7  91746355.613 7        43.500  
R22  21356679.640 6 114003413.499 6        36.500    21356680.880 5  88669329.109 5        31.500  
R23  20090661.168 8 107471501.943 8        49.000                                                  
R24  22582334.092 7 120757900.633 7        43.000    22582338.392 7  93922815.528 7        42.500  
> 2021 11 07 01 08  0.0000000  0 19                     
G05  23055244.448 7 121156140.622 7        42.250    23055246.748 6  94407386.680 6        38.000  
G10  24005986.280 7 126152306.540 7        43.500    24005991.660 6  98300499.522 6        40.500  
G13  23928398.882 6 125744591.048 6        39.500    23928401.542 3  97982800.795 3        19.000  
G15  22847119.768 7 120062425.222 7        43.000    22847121.608 6  93555138.451 6        36.500  
G16  22985769.888 7 120791040.895 7        43.000    22985771.928 4  94122888.215 4        25.250  
G18  20291924.706 8 106634803.208 8        48.750    20291926.886 8  83092057.738 8        51.500  
G23  21374008.298 7 112321182.855 7        47.750    21374011.158 7  87523002.373 7        47.000  
G25  25350423.912 5 133217381.378 5        34.500    25350430.572 6 103805751.418 6        36.000  
G26  21785656.276 7 114484396.431 7        47.000    21785661.976 7  89208619.535 7        45.750  
G29  21615166.356 7 113588474.215 7        45.500    21615169.576 7  88510504.599 7        44.750  
R01  23525157.624 6 125755460.228 6        37.750    23525162.084 5  97809803.051 5        31.500  
R06  23851003.044 5 127273542.958 5        30.500                                                  
R07  20777994.044 8 111226246.438 8        48.500    20777996.524 7  86509306.051 7        45.500  
R08  20790247.204 7 111330845.767 7        45.000    20790246.844 7  86590661.034 7        43.250  
R13  22121274.656 5 118126369.956 5        31.750    22121275.756 5  91876053.835 5        35.750  
R14  22123573.056 7 117931091.042 7        45.000    22123576.016 7  91724181.086 7        44.000  
R22  21380952.300 6 114132982.620 6        37.000    21380953.800 5  88770105.096 5        33.000  
R23  20076668.268 8 107396651.936 8        48.750                                                  
R24  22550108.472 7 120585579.405 7        43.500    22550113.472 7  93788788.010 7        42.500  
> 2021 11 07 01 09  0.0000000  0 19                     
G05  23091400.926 6 121346146.056 6        41.000    23091403.826 6  94555442.840 6        37.250  
G10  23965529.802 7 125939708.515 7        43.000    23965535.082 6  98134838.744 6        40.000  
G13  23914552.462 6 125671824.380 6        41.500    23914552.862 3  97926099.485 3        19.500  
G15  22824020.608 7 119941039.420 7        43.500    22824022.668 6  93460552.083 6        38.000  
G16  22963011.328 7 120671444.680 7        44.000    22963013.348 4  94029696.391 4        25.500  
G18  20289650.386 8 106622854.697 8        48.000    20289653.466 8  83082747.240 8        51.250  
G23  21344958.338 8 112168522.763 8        48.250    21344960.638 7  87404046.506 7        47.500  
G25  25393482.012 5 133443655.128 5        34.750    25393488.932 5 103982068.681 5        35.750  
G26  21792706.736 7 114521450.249 7        46.000    21792713.196 7  89237492.644 7        45.750  
G29  21640246.136 7 113720270.712 7        46.250    21640249.116 7  88613203.158 7        43.000  
R01  23474076.544 6 125482398.972 6        36.500    23474080.884 5  97597422.118 5        32.000  
R06  23893067.704 4 127497999.050 4        29.500                                                  
R07  20787354.584 8 111276353.424 8        49.000    20787357.024 7  86548278.185 7        46.000  
R08  20757600.664 7 111156025.314 7        46.000    20757600.664 7  86454689.573 7        44.000  
R13  22156776.776 5 118315949.256 5        32.500    22156778.296 6  92023504.370 6        36.500  
R14  22118808.61617 117905695.31417        44.5001   22118811.956 7  91704431.193 7        43.500  
R22  21405380.820 6 114263386.796 6        36.000    21405382.440 5  88871530.546 5        32.250  
R23  20062864.488 8 107322807.667 8        49.000                                                  
R24  22517927.492 7 120413484.574 7        44.500    22517930.432 7  93654936.544 7        42.500  
> 2021 11 07 01 10  0.0000000  0 17                     
G05  23127768.286 6 121537261.391 6        39.000    23127771.906 6  94704363.856 6        36.750  
G10  23925185.842 7 125727700.087 7        42.000    23925191.042 6  97969637.369 6        39.000  
G13  23901083.682 6 125601047.124 6        41.500    23901085.342 3  97870948.364 3        19.500  
G15  22801263.168 7 119821453.854 7        42.250    22801266.588 6  93367368.579 6        38.500  
G16  22940643.708 7 120553898.756 7        44.000    22940645.728 4  93938102.153 4        27.000  
G18  20287617.126 8 106612168.319 8        48.000    20287620.206 8  83074420.193 8        51.500  
G23  21316226.718 8 112017538.529 8        48.000    21316229.858 8  87286396.482 8        48.000  
G26  21800186.756 7 114560757.612 7        45.000    21800193.436 7  89268121.762 7        46.500  
G29  21665588.856 7 113853445.358 7        46.000    21665591.676 7  88716975.589 7        44.500  
R01  23423022.824 6 125209483.581 6        37.000    23423026.024 5  97385154.629 5        31.750  
R07  20797317.444 8 111329682.896 8        49.000    20797319.904 7  86589756.686 7        46.250  
R08  20725400.444 7 110983592.284 7        47.000    20725400.444 7  86320575.028 7        44.500  
R13  22192607.21215 118507288.11615        33.5001   22192611.392 5  92172330.469 5        35.000  
R14  22114629.936 7 117883419.692 7        45.500    22114633.036 7  91687105.715 7        43.250  
R22  21429966.200 5 114394622.587 5        35.000    21429966.420 5  88973602.782 5        32.000  
R23  20049248.808 8 107249973.830 8        48.500                                                  
R24  22485787.472 7 120241617.917 7        44.500    22485789.652 6  93521262.544 6        41.500  
> 2021 11 07 01 11  0.0000000  0 18                     
G05  23164344.326 6 121729466.205 6        39.000    23164348.566 6  94854133.827 6        37.000  
G10  23884957.082 6 125516299.603 6        41.000    23884963.102 6  97804909.731 6        40.000  
G13  23887996.622 6 125532278.327 6        40.000    23887998.302 3  97817362.304 3        19.000  
G15  22778854.730 7 119703693.554 7        42.500    22778857.090 6  93275607.308 6        37.500  
G16  22918668.348 7 120438420.897 7        43.000    22918670.688 4  93848119.422 4        26.000  
G18  20285823.686 8 106602742.906 8        48.000    20285826.346 8  83067075.736 8        51.500  
G23  21287817.298 8 111868246.182 8        48.500    21287820.858 8  87170064.841 8        48.500  
G26  21808093.716 7 114602312.995 7        44.500    21808101.356 7  89300502.556 7        46.000  
G29  21691192.836 8 113987995.415 8        48.000    21691196.116 7  88821819.781 7        45.000  
R01  23372001.048 6 124936747.224 6        37.000    23372005.268 5  97173026.372 5        32.000  
R06  23977987.644 5 127951144.154 5        31.000                                                  
R07  20807880.184 8 111386226.643 8        48.500    20807881.664 7  86633735.171 7        45.000  
R08  20693651.084 7 110813578.262 7        46.000    20693651.604 7  86188341.926 7        45.000  
R13  22228768.272 5 118700370.852 5        35.000    22228769.492 5  92322505.889 5        35.250  
R14  22111036.456 7 117864263.739 7        44.500    22111039.576 7  91672206.655 7        43.500  
R22  21454708.300 6 114526692.438 6        36.750    21454707.800 5  89076323.763 5        30.000  
R23  20035824.528 7 107178159.271 7        47.000                                                  
R24  22453689.632 7 120069986.160 7        42.500    22453692.972 6  93387771.245 6        40.500  
> 2021 11 07 01 12  0.0000000  0 19                     
G05  23201122.446 6 121922737.778 6        40.750    23201126.066 6  95004735.061 6        37.000  
G10  23844847.842 6 125305521.741 6        40.500    23844853.742 6  97640667.258 6        40.500  
G13  23875295.002 6 125465532.019 6        38.000    23875299.122 3  97765352.287 3        19.750  
G15  22756797.090 7 119587779.472 7        43.000    22756800.030 6  93185284.661 6        38.000  
G16  22897090.508 7 120325025.774 7        44.000    22897092.588 4  93759759.581 4        27.500  
G18  20284268.766 7 106594573.638 7        46.500    20284271.886 8  83060710.075 8        51.500  
G23  21259732.220 7 111720657.930 7        47.500    21259735.920 8  87055061.074 8        48.500  
G26  21816427.416 7 114646106.858 7        45.000    21816434.516 7  89334627.625 7        45.500  
G27  24990724.674 5 131327139.550 5        35.250    24990729.514 6 102332836.654 6        38.500  
G29  21717057.796 7 114123914.737 7        46.500    21717061.236 7  88927730.908 7        45.500  
R01  23321019.448 6 124664219.478 6        37.750    23321023.008 5  96961060.349 5        32.000  
R06  24020831.680 5 128179769.610 5        32.000                                                  
R07  20819040.424 8 111445972.208 8        49.000    20819042.364 7  86680203.969 7        45.250  
R08  20662359.244 7 110646012.405 7        45.000    20662359.984 7  86058012.986 7        45.250  
R13  22265244.752 5 118895149.979 5        35.500    22265245.252 5  92474000.709 5        34.000  
R14  22108028.296 7 117848226.736 7        44.000    22108030.656 7  91659733.445 7        42.500  
R22  21479604.420 6 114659593.762 6        36.500    21479606.200 5  89179691.478 5        32.250  
R23  20022589.048 7 107107369.622 7        47.500                                                  
R24  22421638.812 7 119898592.134 7        43.500    22421641.492 6  93254464.837 6        41.500  
> 2021 11 07 01 13  0.0000000  0 19                     
G05  23238100.366 6 122117056.499 6        39.500    23238103.806 6  95156152.254 6        37.000  
G10  23804860.762 6 125095384.867 6        41.250    23804866.442 6  97476924.272 6        41.500  
G13  23862981.862 6 125400825.824 6        39.000    23862984.742 3  97714931.965 3        19.750  
G15  22735095.010 7 119473735.683 7        43.000    22735097.890 6  93096419.409 6        38.000  
G16  22875911.828 7 120213731.151 7        43.500    22875913.608 4  93673036.511 4        27.250  
G18  20282952.966 7 106587659.436 7        47.000    20282956.446 8  83055322.386 8        51.500  
G23  21231974.340 8 111574789.688 8        48.250    21231977.980 8  86941397.554 8        49.000  
G26  21825186.636 7 114692133.047 7        45.000    21825192.616 7  89370492.204 7        44.000  
G27  24951094.474 5 131118884.407 5        34.000    24951099.834 6 102170559.982 6        39.000  
G29  21743181.836 7 114261200.910 7        46.500    21743185.756 7  89034707.077 7        44.000  
R01  23270083.628 6 124391933.491 6        37.500    23270086.168 5  96749282.361 5        32.750  
R06  24063924.040 5 128409722.715 5        30.500                                                  
R07  20830798.224 8 111508910.413 8        50.000    20830800.404 7  86729155.916 7        45.500  
R08  20631532.364 7 110480926.501 7        47.500    20631531.564 7  85929612.883 7        45.000  
R13  22302030.492 5 119091592.989 5        35.500    22302032.292 5  92626789.693 5        33.500  
R14  22105605.01617 117835313.60217        43.0001   22105607.436 7  91649687.563 7        42.000  
R22  21504656.420 5 114793329.015 5        35.000    21504658.560 5  89283707.761 5        32.000  
R23  20009550.888 7 107037614.287 7        47.500                                                  
R24  22389634.152 7 119727443.318 7        43.500    22389636.192 7  93121349.110 7        42.000  
> 2021 11 07 01 14  0.0000000  0 19                     
G05  23275273.026 6 122312400.264 6        41.000    23275276.526 6  95308368.144 6        37.500  
G10  23764997.322 7 124885904.184 7        42.000    23765003.462 6  97313692.582 6        41.000  
G13  23851059.602 6 125338174.390 6        39.000    23851061.042 3  97666112.676 3        19.750  
G15  22713753.370 7 119361583.391 7        43.000    22713755.650 6  93009028.056 6        38.000  
G16  22855135.388 7 120104551.927 7        44.000    22855138.348 4  93587961.814 4        27.250  
G18  20281875.506 7 106581996.171 7        46.000    20281878.526 8  83050909.436 8        51.750  
G23  21204546.080 8 111430653.895 8        48.000    21204549.380 8  86829083.998 8        48.500  
G26  21834368.076 7 114740382.084 7        46.250    21834373.856 7  89408088.815 7        43.500  
G27  24911475.174 5 130910682.135 5        35.500    24911480.294 6 102008324.552 6        38.750  
G29  21769565.956 7 114399847.438 7        46.500    21769568.456 7  89142743.328 7        44.000  
R01  23219197.148 6 124119920.048 6        37.000    23219200.848 5  96537716.373 5        33.250  
R06  24107260.540 5 128640970.432 5        30.500                                                  
R07  20843149.604 8 111575028.248 8        48.500    20843151.064 7  86780580.901 7        45.000  
R08  20601170.724 7 110318348.835 7        46.500    20601170.644 7  85803163.570 7        45.500  
R13  22339123.012 5 119289662.120 5        35.000    22339124.092 5  92780843.446 5        33.000  
R14  22103766.976 7 117825516.207 7        42.500    22103769.116 7  91642067.351 7        42.000  
R22  21529867.820 6 114927896.420 6        36.500    21529866.700 4  89388371.284 4        29.500  
R23  19996704.688 7 106968899.737 7        47.000                                                  
R24  22357673.452 6 119556544.001 6        41.000    22357677.232 7  92988427.500 7        43.500  
> 2021 11 07 01 15  0.0000000  0 18                     
G05  23312636.406 6 122508746.169 6        41.500    23312640.306 6  95461364.941 6        38.500  
G10  23725263.182 7 124677094.433 7        43.250    23725268.622 7  97150983.719 7        42.250  
G13  23839532.062 6 125277591.758 6        40.500    23839533.522 3  97618905.420 3        19.500  
G15  22692775.890 7 119251342.873 7        44.000    22692777.790 6  92923126.319 6        38.500  
G16  22834764.708 7 119997501.983 7        43.750    22834766.808 4  93504546.279 4        26.500  
G18  20281034.166 7 106577579.171 7        45.500    20281037.766 8  83047467.635 8        51.500  
G23  21177449.980 8 111288262.424 8        48.000    21177452.900 7  86718129.648 7        47.500  
G26  21843970.816 7 114790843.512 7        45.500    21843976.256 7  89447409.388 7        43.000  
G27  24871866.876 6 130702543.675 6        37.000    24871872.096 6 101846138.786 6        38.250  
G29  21796206.936 7 114539848.425 7        46.000    21796209.296 7  89251834.992 7        43.000  
R01  23168368.548 6 123848209.108 6        36.500    23168371.928 5  96326385.669 5        34.000  
R07  20856092.524 8 111644311.612 8        49.000    20856094.304 7  86834467.952 7        46.000  
R08  20571282.544 7 110158307.090 7        44.750    20571284.484 7  85678686.683 7        45.500  
R13  22376511.752 5 119489319.972 5        33.750    22376514.612 5  92936132.891 5        35.500  
R14  22102514.036 7 117818834.661 7        44.250    22102516.016 6  91636870.566 6        40.750  
R22  21555232.380 6 115063294.892 6        36.500    21555231.120 5  89493681.171 5        30.000  
R23  19984054.288 7 106901232.035 7        47.500                                                  
R24  22325762.032 7 119385897.690 7        42.250    22325765.112 7  92855702.675 7        43.000  
> 2021 11 07 01 16  0.0000000  0 18                     
G05  23350186.986 7 122706073.019 7        42.500    23350189.006 6  95615126.133 6        36.500  
G10  23685658.422 7 124468971.888 7        44.000    23685664.022 7  96988810.324 7        42.500  
G13  23828398.882 6 125219093.103 6        39.000    23828404.422 3  97573322.106 3        20.750  
G15  22672164.630 7 119143035.822 7        43.000    22672167.970 6  92838731.311 6        38.500  
G16  22814801.808 7 119892596.490 7        44.000    22814804.668 4  93422801.739 4        27.000  
G18  20280430.726 7 106574405.427 7        47.000    20280433.966 8  83044994.579 8        51.500  
G23  21150687.640 7 111147628.444 7        46.500    21150691.440 8  86608544.761 8        48.500  
G26  21853992.516 7 114843508.185 7        45.500    21853998.076 7  89488446.798 7        43.000  
G27  24832273.996 6 130494481.681 6        38.250    24832279.436 6 101684012.637 6        37.500  
G29  21823105.256 7 114681198.427 7        46.250    21823108.656 7  89361977.859 7        44.500  
R01  23117600.808 6 123576832.432 6        37.000    23117605.568 5  96115314.959 5        34.500  
R07  20869624.984 8 111716746.925 8        50.000    20869625.724 7  86890806.545 7        46.000  
R08  20541876.164 7 110000830.379 7        46.000    20541876.964 7  85556204.834 7        45.000  
R13  22414193.732 5 119690531.040 5        34.250    22414194.772 5  93092630.386 5        35.000  
R14  22101844.256 7 117815267.064 7        45.000    22101847.516 6  91634095.755 6        41.000  
R22  21580753.340 6 115199524.190 6        37.250    21580752.660 5  89599637.281 5        31.500  
R23  19971602.288 7 106834618.979 7        47.000                                                  
R24  22293898.972 6 119215509.998 6        41.000    22293902.092 7  92723178.950 7        43.000  
> 2021 11 07 01 17  0.0000000  0 18                     
G05  23387919.664 7 122904360.592 7        42.500    23387921.344 5  95769635.911 5        35.500  
G10  23646187.924 7 124261553.720 7        43.750    23646193.904 7  96827185.810 7        42.500  
G13  23817666.062 6 125162693.787 6        38.000    23817672.302 3  97529374.628 3        19.750  
G15  22651926.830 7 119036684.743 7        43.750    22651928.090 6  92755860.317 6        36.500  
G16  22795250.028 7 119789851.330 7        44.500    22795252.668 4  93342740.567 4        27.500  
G18  20280063.566 7 106572472.872 7        47.000    20280066.326 8  83043488.735 8        50.750  
G23  21124262.700 7 111008765.979 7        46.500    21124266.820 8  86500340.280 8        49.000  
G26  21864432.176 7 114898367.678 7        45.000    21864437.736 7  89531194.424 7        43.000  
G27  24792698.456 6 130286509.974 6        38.250    24792703.876 6 101521956.829 6        39.000  
G29  21850259.036 7 114823893.189 7        45.000    21850263.456 7  89473168.540 7        46.000  
R01  23066904.248 6 123305823.412 6        39.500    23066907.888 5  95904530.219 5        34.250  
R07  20883741.444 8 111792321.848 8        49.250    20883744.044 7  86949587.057 7        46.000  
R08  20512952.164 7 109845948.002 7        45.500    20512953.604 7  85435740.803 7        46.250  
R13  22452156.692 5 119893259.443 5        34.500    22452158.672 5  93250308.031 5        33.000  
R14  22101758.736 7 117814811.432 7        45.250    22101762.196 6  91633741.349 6        41.000  
R22  21606427.376 5 115336585.230 5        35.500    21606429.876 5  89706240.302 5        32.500  
R23  19959347.388 7 106769069.281 7        46.500                                                  
R24  22262084.732 7 119045387.457 7        42.000    22262088.292 7  92590861.482 7        43.250  
> 2021 11 07 01 18  0.0000000  0 18                     
G05  23425830.744 6 123103586.320 6        41.500    23425832.804 5  95924876.728 5        35.000  
G10  23606853.804 7 124054854.178 7        43.750    23606860.224 7  96666121.259 7        44.000  
G13  23807336.802 6 125108405.925 6        38.500    23807340.302 3  97487072.468 3        20.000  
G15  22632065.210 7 118932309.187 7        43.500    22632068.770 6  92674528.754 6        40.500  
G16  22776111.350 7 119689278.845 7        43.500    22776114.110 4  93264372.420 4        26.750  
G18  20279931.146 8 106571776.585 8        48.500    20279933.686 8  83042946.186 8        51.250  
G23  21098177.640 7 110871685.765 7        46.500    21098181.180 8  86393524.579 8        49.000  
G26  21875287.416 7 114955410.197 7        45.500    21875292.556 7  89575643.083 7        43.500  
G27  24753142.156 6 130078639.529 6        39.750    24753147.796 6 101359979.912 6        39.000  
G29  21877667.676 7 114967925.979 7        45.000    21877671.856 7  89585401.848 7        45.250  
R01  23016280.328 6 123035211.840 6        39.000    23016283.788 5  95694054.621 5        31.500  
R07  20898443.084 8 111871019.930 8        48.500    20898445.124 7  87010796.670 7        46.000  
R08  20484519.124 7 109693686.509 7        46.250    20484519.544 7  85317315.236 7        44.750  
R13  22490399.232 5 120097467.960 5        34.000    22490401.732 5  93409136.828 5        35.500  
R14  22102256.096 7 117817462.694 7        45.500    22102259.336 6  91635803.417 6        40.500  
R22  21632259.216 5 115474476.297 5        35.750    21632260.496 5  89813488.866 5        31.000  
R23  19947293.988 7 106704589.349 7        47.500                                                  
R24  22230321.292 7 118875533.780 7        42.500    22230324.352 7  92458753.102 7        43.000  
> 2021 11 07 01 19  0.0000000  0 18                     
G05  23463917.384 7 123303731.459 7        42.500    23463918.644 5  96080833.944 5        35.500  
G10  23567660.144 7 123848891.623 7        42.750    23567666.404 7  96505631.005 7        43.000  
G13  23797411.822 7 125056246.023 7        42.250    23797412.522 3  97446428.422 3        20.000  
G15  22612583.610 7 118829932.740 7        44.500    22612586.730 6  92594754.953 6        40.000  
G16  22757389.770 7 119590896.260 7        43.000    22757393.150 4  93187710.667 4        26.750  
G18  20280032.966 7 106572315.786 7        46.500    20280036.086 8  83043366.347 8        51.500  
G23  21072434.040 7 110736402.749 7        47.500    21072437.600 8  86288109.279 8        48.750  
G26  21886555.514 7 115014627.839 7        44.500    21886561.734 7  89621786.704 7        43.750  
G27  24713607.396 6 129870885.848 6        37.000    24713613.276 6 101198093.994 6        38.000  
G29  21905330.094 7 115113292.656 7        46.500    21905333.634 7  89698674.537 7        45.000  
R01  22965737.108 6 122765032.182 6        39.500    22965740.868 5  95483914.916 5        31.500  
R07  20913725.584 8 111952828.464 8        48.500    20913727.764 7  87074425.534 7        45.500  
R08  20456581.144 7 109544075.806 7        46.500    20456581.084 7  85200951.381 7        45.750  
R13  22528911.852 5 120303121.929 5        35.500    22528913.532 5  93569089.884 5        34.500  
R14  22103336.076 7 117823219.387 7        45.000    22103338.296 6  91640280.832 6        40.000  
R22  21658247.096 5 115613199.748 5        35.500    21658248.056 5  89921384.846 5        30.250  
R23  19935441.828 7 106641189.509 7        47.250                                                  
R24  22198610.652 7 118705957.860 7        44.750    22198612.212 7  92326860.780 7        42.500  
> 2021 11 07 01 20  0.0000000  0 18                     
G05  23502174.704 7 123504773.364 7        42.500    23502175.544 5  96237489.949 5        35.250  
G10  23528609.604 7 123643680.326 7        42.000    23528615.764 7  96345726.149 7        42.750  
G13  23787892.522 6 125006226.067 6        40.500    23787893.002 3  97407451.799 3        19.000  
G15  22593486.290 7 118729573.799 7        44.500    22593487.970 6  92516553.187 6        37.750  
G16  22739087.610 7 119494715.455 7        43.500    22739089.590 4  93112764.602 4        26.000  
G18  20280369.406 7 106574085.718 7        46.000    20280373.186 8  83044745.515 8        51.500  
G23  21047034.580 7 110602927.444 7        47.250    21047037.780 8  86184102.587 8        48.500  
G26  21898235.594 7 115076008.351 7        45.000    21898241.854 7  89669615.662 7        44.000  
G27  24674098.076 6 129663260.481 6        37.500    24674102.736 6 101036308.068 6        37.500  
G29  21933244.914 7 115259986.675 7        45.500    21933246.994 7  89812981.578 7        42.250  
R01  22915280.128 6 122495315.510 6        40.000    22915284.548 5  95274135.297 5        31.500  
R07  20929586.884 8 112037730.015 8        48.500    20929587.824 7  87140460.084 7        45.750  
R08  20429140.984 7 109397140.840 7        47.000    20429141.744 7  85086668.644 7        46.000  
R13  22567685.952 5 120510183.461 5        32.500    22567689.512 5  93730137.717 5        35.000  
R14  22104998.136 7 117832074.824 7        45.250    22104999.776 6  91647168.376 6        40.000  
R22  21684389.236 5 115752753.744 5        35.500    21684391.476 5  90029926.791 5        31.000  
R23  19923793.188 7 106578875.955 7        47.500                                                  
R24  22166952.196 7 118536663.352 7        44.000    22166953.776 7  92195187.314 7        42.250  
> 2021 11 07 01 21  0.0000000  0 18                     
G05  23540597.504 7 123706688.608 7        42.000    23540599.084 5  96394826.524 5        35.500  
G10  23489704.904 7 123439234.017 7        42.500    23489710.824 7  96186417.366 7        42.250  
G13  23778781.822 6 124958356.722 6        38.000    23778785.702 3  97370151.054 3        19.000  
G15  22574775.070 7 118631249.686 7        43.250    22574777.790 6  92439937.022 6        38.000  
G16  22721206.530 7 119400747.849 7        44.500    22721208.650 4  93039543.105 4        27.000  
G18  20280939.546 7 106577081.013 7        46.500    20280943.026 8  83047079.504 8        51.000  
G23  21021980.920 7 110471269.669 7        47.750    21021984.260 8  86081512.140 8        49.000  
G26  21910324.774 7 115139538.597 7        43.250    21910331.354 7  89719119.742 7        44.500  
G27  24634614.276 6 129455774.571 6        37.000    24634619.496 6 100874630.780 6        37.500  
G29  21961410.554 7 115407999.786 7        45.000    21961413.174 7  89928316.447 7        42.000  
R01  22864916.168 6 122226091.013 6        39.750    22864920.828 5  95064738.513 5        34.000  
R07  20946020.904 8 112125706.537 8        49.000    20946022.844 7  87208886.268 7        45.500  
R08  20402207.304 7 109252906.830 7        47.500    20402207.564 7  84974486.662 7        46.500  
R13  22606719.632 5 120718613.443 5        32.000    22606720.872 5  93892249.956 5        35.000  
R14  22107239.316 7 117844021.108 7        45.500    22107241.216 6  91656459.904 6        41.750  
R22  21710687.816 5 115893136.109 5        34.250    21710690.316 5  90139113.050 5        31.750  
R23  19912349.308 7 106517655.215 7        47.500                                                  
R24  22135344.956 7 118367654.407 7        43.500    22135348.136 7  92063735.968 7        42.500  
> 2021 11 07 01 22  0.0000000  0 18                     
G05  23579182.324 7 123909457.216 7        42.500    23579184.304 5  96552828.012 5        35.500  
G10  23450949.224 7 123235568.609 7        43.500    23450954.424 7  96027717.085 7        42.000  
G13  23770085.282 6 124912651.382 6        38.750    23770088.022 3  97334536.589 3        18.000  
G15  22556455.970 7 118534981.964 7        43.250    22556459.690 6  92364923.253 6        39.750  
G16  22703748.770 7 119309007.620 7        43.000    22703750.950 4  92968057.231 4        26.000  
G18  20281742.866 7 106581298.659 7        47.250    20281745.766 8  83050366.005 8        51.000  
G23  20997275.600 7 110341441.290 7        46.500    20997278.320 8  85980347.196 8        48.500  
G26  21922821.494 7 115205207.510 7        43.500    21922827.894 7  89770290.303 7        44.500  
G27  24595160.576 6 129248441.839 6        36.750    24595164.836 6 100713072.879 6        37.500  
G29  21989826.574 7 115557326.180 7        46.000    21989830.454 7  90044674.646 7        43.500  
R01  22814651.248 6 121957392.087 6        38.500    22814655.228 5  94855750.512 5        34.500  
R07  20963027.024 8 112216740.789 8        49.500    20963028.564 7  87279690.694 7        45.000  
R08  20375781.148 7 109111400.508 7        46.000    20375782.128 7  84864426.233 7        46.500  
R13  22646000.792 5 120928376.397 5        31.000    22646003.692 5  94055398.902 5        34.500  
R14  22110057.576 7 117859052.805 7        45.500    22110061.376 7  91668151.190 7        42.250  
R22  21737141.796 6 116034346.701 6        36.000    21737143.756 5  90248943.467 5        32.000  
R23  19901110.528 8 106457535.144 8        48.500                                                  
R24  22103794.316 7 118198937.932 7        44.250    22103796.936 7  91932512.101 7        42.500  
> 2021 11 07 01 23  0.0000000  0 18                     
G05  23617927.744 7 124113060.430 7        42.500    23617928.864 5  96711479.882 5        35.000  
G10  23412344.844 7 123032702.001 7        44.500    23412350.564 7  95869639.260 7        43.000  
G13  23761802.982 6 124869124.375 6        40.500    23761805.402 3  97300619.476 3        19.500  
G15  22538531.810 7 118440791.341 7        43.500    22538534.030 6  92291527.987 6        37.500  
G16  22686717.950 7 119219509.547 7        43.500    22686719.570 4  92898318.491 4        26.500  
G18  20282777.786 7 106586737.718 7        46.000    20282780.586 8  83054604.267 8        50.750  
G23  20972920.422 7 110213455.981 7        46.000    20972923.782 8  85880618.410 8        49.000  
G26  21935722.674 7 115273005.224 7        43.500    21935729.734 7  89823119.694 7        45.000  
G27  24555738.718 6 129041278.030 6        37.750    24555743.358 6 100551646.531 6        37.000  
G29  22018491.694 7 115707961.369 7        46.000    22018495.634 7  90162052.699 7        44.500  
R01  22764488.552 6 121689252.902 6        37.000    22764493.852 5  94647197.879 5        35.000  
R07  20980601.764 8 112310818.236 8        49.500    20980603.144 7  87352862.061 7        45.000  
R08  20349869.908 7 108972648.604 7        46.500    20349870.888 7  84756508.131 7        45.500  
R13  22685526.652 5 121139437.737 5        31.000    22685528.272 5  94219557.685 5        34.250  
R14  22113456.356 7 117877164.503 7        45.000    22113458.896 7  91682238.031 7        42.000  
R22  21763751.896 5 116176387.551 5        34.500    21763751.436 4  90359419.646 4        29.000  
R23  19890079.188 8 106398526.727 8        48.000                                                  
R24  22072300.636 7 118030522.328 7        45.000    22072302.676 6  91801522.256 6        41.750  
> 2021 11 07 01 24  0.0000000  0 18                     
G05  23656826.664 7 124317476.036 7        43.000    23656828.124 5  96870764.757 5        35.750  
G10  23373895.586 7 122830648.223 7        44.750    23373900.626 7  95712194.806 7        42.500  
G13  23753936.442 6 124827786.120 6        40.750    23753938.562 3  97268407.868 3        20.500  
G15  22521007.550 7 118348696.966 7        43.000    22521008.870 6  92219766.115 6        38.000  
G16  22670116.130 7 119132264.450 7        42.500    22670117.550 4  92830335.309 4        28.000  
G18  20284043.846 7 106593393.431 7        47.000    20284046.706 8  83059790.516 8        51.000  
G23  20948918.342 7 110087323.317 7        46.750    20948921.422 8  85782333.262 8        48.500  
G26  21949026.934 7 115342918.804 7        43.500    21949034.414 7  89877597.797 7        45.750  
G27  24516350.138 6 128834295.182 6        37.500    24516356.098 6 100390361.262 6        37.500  
G29  22047404.654 7 115859897.703 7        46.500    22047407.314 7  90280444.627 7        43.250  
R01  22714439.932 5 121421704.220 5        35.500    22714443.072 5  94439104.528 5        34.500  
R07  20998739.940 8 112407918.882 8        48.500    20998742.400 7  87428384.804 7        45.500  
R08  20324478.728 7 108836675.653 7        46.750    20324478.688 7  84650751.385 7        46.000  
R13  22725288.272 5 121351758.610 5        30.500    22725289.172 5  94384696.121 5        35.000  
R14  22117430.136 7 117898347.917 7        44.500    22117432.776 7  91698713.986 7        43.000  
R22  21790516.176 5 116319257.271 5        34.250    21790516.516 5  90470540.538 5        30.750  
R23  19879257.268 7 106340636.736 7        47.500                                                  
R24  22040862.736 7 117862412.714 7        46.000    22040865.496 6  91670770.396 6        41.750  
> 2021 11 07 01 25  0.0000000  0 19                     
G05  23695875.942 7 124522683.190 7        42.000    23695878.442 5  97030666.438 5        35.000  
G10  23335603.406 7 122629422.381 7        45.500    23335608.506 6  95555395.466 6        41.500  
G13  23746488.102 6 124788648.413 6        40.500    23746492.202 3  97237910.937 3        21.500  
G15  22503883.650 7 118258716.060 7        43.750    22503888.450 6  92149651.179 6        40.750  
G16  22653944.170 7 119047284.236 7        44.000    22653946.030 4  92764116.977 4        26.000  
G18  20285541.286 7 106601262.182 7        46.500    20285544.406 8  83065922.006 8        51.500  
G23  20925270.982 7 109963053.904 7        46.500    20925273.562 8  85685499.980 8        48.500  
G26  21962731.634 7 115414935.229 7        45.000    21962738.134 7  89933714.485 7        44.500  
G27  24476999.638 6 128627506.898 6        38.000    24477005.318 6 100229227.577 6        38.250  
G29  22076563.874 7 116013128.972 7        45.000    22076565.574 7  90399845.647 7        42.500  
R01  22664504.312 6 121154778.688 6        37.000    22664509.352 5  94231495.831 5        35.000  
R07  21017441.700 8 112508023.978 8        48.000    21017443.320 7  87506244.326 7        46.000  
R08  20299609.568 7 108703505.825 7        46.500    20299610.368 7  84547174.904 7        46.250  
R13  22765275.492 5 121565301.476 5        32.750    22765279.492 6  94550784.983 6        36.000  
R14  22121979.616 7 117922594.261 7        45.000    22121981.816 7  91717572.248 7        43.500  
R15  24142250.680 6 129008869.010 6        40.000    24142252.640 5 100340231.498 5        35.000  
R22  21817433.876 5 116462955.017 5        35.000    21817435.896 5  90582305.401 5        30.000  
R23  19868646.208 8 106283873.366 8        48.000                                                  
R24  22009484.156 7 117694615.316 7        45.000    22009486.316 6  91540261.373 6        41.000  
> 2021 11 07 01 26  0.0000000  0 19                     
G05  23735072.062 7 124728661.198 7        42.000    23735075.402 5  97191168.781 5        35.500  
G10  23297471.806 7 122429040.009 7        45.000    23297477.306 6  95399253.382 6        41.000  
G13  23739461.282 6 124751722.146 6        40.500    23739465.082 3  97209137.288 3        21.000  
G15  22487167.710 7 118170867.848 7        44.500    22487170.210 6  92081198.059 6        40.000  
G16  22638206.550 7 118964581.137 7        43.500    22638207.890 4  92699672.997 4        25.000  
G18  20287269.106 7 106610340.794 7        46.000    20287272.306 8  83072996.270 8        51.500  
G23  20901979.742 7 109840658.500 7        46.750    20901982.942 8  85590126.970 8        49.500  
G26  21976833.454 7 115489041.968 7        44.250    21976839.534 7  89991459.982 7        44.000  
G27  24437689.918 6 128420927.263 6        39.000    24437694.578 6 100068256.435 6        38.500  
G29  22105967.074 7 116167647.817 7        44.000    22105970.374 7  90520249.923 7        43.000  
R01  22614693.452 6 120888508.868 6        38.500    22614697.992 5  94024397.136 5        34.250  
R07  21036699.060 8 112611114.670 8        48.500    21036701.020 7  87586425.998 7        45.000  
R08  20275269.028 7 108573163.941 7        47.000    20275269.548 7  84445797.925 7        45.000  
R13  22805491.208 5 121780030.744 5        33.000    22805491.468 6  94717796.602 6        36.000  
R14  22127099.936 7 117949895.175 7        44.250    22127103.356 7  91738806.276 7        43.250  
R15  24112912.120 6 128852089.298 6        40.750    24112913.720 6 100218291.739 6        36.500  
R22  21844509.416 5 116607480.616 5        35.000    21844510.696 5  90694714.166 5        30.500  
R23  19858246.248 7 106228245.426 7        47.250                                                  
R24  21978164.256 7 117527136.885 7        46.250    21978166.556 6  91410000.434 6        40.500  
> 2021 11 07 01 27  0.0000000  0 19                     
G05  23774410.922 7 124935389.374 7        42.500    23774414.542 5  97352255.643 5        34.500  
G10  23259503.486 7 122229515.590 7        44.500    23259509.006 6  95243779.817 6        41.750  
G13  23732856.922 6 124717017.392 6        39.000    23732860.162 3  97182094.668 3        20.500  
G15  22470860.392 7 118085170.805 7        46.000    22470863.412 6  92014421.170 6        40.250  
G16  22622903.770 7 118884166.251 7        42.250    22622905.510 4  92637012.051 4        25.000  
G18  20289226.506 7 106620625.308 7        46.500    20289229.266 8  83081010.186 8        51.250  
G23  20879046.942 7 109720146.718 7        47.500    20879050.302 8  85496221.705 8        49.250  
G26  21991331.214 7 115565225.105 7        45.500    21991336.714 7  90050823.449 7        43.000  
G27  24398421.578 6 128214569.558 6        38.000    24398426.058 6  99907458.205 6        38.250  
G29  22135615.494 7 116323446.991 7        46.250    22135618.774 7  90641651.834 7        44.500  
R01  22565010.892 6 120622926.853 6        39.000    22565015.632 5  93817833.407 5        35.000  
R07  21056511.740 8 112717170.042 8        48.500    21056512.880 7  87668913.516 7        44.750  
R08  20251460.748 7 108445672.577 7        47.000    20251460.128 7  84346637.986 7        44.750  
R13  22845915.808 5 121995909.643 5        31.750    22845918.628 5  94885702.392 5        35.500  
R14  22132792.936 7 117980240.126 7        44.750    22132796.296 7  91762407.875 7        43.750  
R15  24083993.380 6 128697555.601 6        41.000    24083995.160 6 100098098.884 6        36.250  
R22  21871738.316 5 116752833.424 5        34.500    21871740.376 5  90807766.304 5        30.750  
R23  19848060.728 7 106173760.530 7        47.500                                                  
R24  21946906.376 7 117359983.531 7        47.500    21946907.716 6  91279992.307 6        39.750  
> 2021 11 07 01 28  0.0000000  0 19                     
G05  23813889.082 6 125142849.244 6        41.500    23813893.102 5  97513912.684 5        34.250  
G10  23221700.986 7 122030866.555 7        44.500    23221707.326 7  95088988.416 7        42.500  
G13  23726679.022 6 124684547.164 6        40.250    23726680.962 3  97156793.229 3        21.000  
G15  22454964.292 7 118001643.945 7        42.500    22454968.632 6  91949335.376 6        41.000  
G16  22608039.010 6 118806052.514 6        41.500    22608041.310 4  92576144.181 4        26.500  
G18  20291412.706 7 106632114.660 7        47.000    20291415.386 8  83089962.926 8        51.500  
G23  20856474.822 7 109601530.888 7        46.500    20856477.882 8  85403793.830 8        49.250  
G26  22006221.414 7 115643473.566 7        46.000    22006227.094 7  90111796.257 7        43.500  
G27  24359198.518 6 128008450.209 6        38.250    24359203.138 6  99746845.787 6        39.000  
G29  22165505.154 7 116480521.565 7        45.500    22165509.074 7  90764047.573 7        44.000  
R01  22515463.372 6 120358067.085 6        39.000    22515468.412 5  93611831.432 5        34.500  
R07  21076874.100 7 112826173.250 7        47.500    21076875.980 7  87753693.807 7        44.500  
R08  20228188.428 7 108321057.239 7        47.000    20228190.048 7  84249714.957 7        46.000  
R13  22886551.78815 122212902.31515        32.0001   22886554.308 6  95054475.220 6        36.000  
R14  22139054.956 7 118013620.827 7        44.500    22139058.296 7  91788370.619 7        43.500  
R15  24055498.720 6 128545295.783 6        41.500    24055501.340 6  99979674.594 6        36.000  
R22  21899126.256 6 116899014.725 6        36.000    21899124.696 5  90921462.827 5        30.250  
R23  19838092.648 8 106120429.807 8        48.500                                                  
R24  21915709.856 7 117193164.975 7        46.250    21915711.656 6  91150244.589 6        40.000  
> 2021 11 07 01 29  0.0000000  0 19                     
G05  23853502.382 6 125351017.778 6        41.500    23853505.762 5  97676121.912 5        33.750  
G10  23184069.306 7 121833105.705 7        45.250    23184074.646 7  94934889.085 7        42.000  
G13  23720925.622 6 124654318.784 6        39.500    23720927.482 3  97133238.659 3        19.000  
G15  22439486.412 7 117920303.513 7        43.250    22439488.612 6  91885953.238 6        39.500  
G16  22593614.290 7 118730248.898 7        42.250    22593616.470 4  92517076.416 4        26.000  
G18  20293826.926 7 106644803.256 7        46.500    20293829.686 8  83099850.147 8        51.000  
G23  20834265.282 7 109484818.542 7        45.500    20834269.022 8  85312849.155 8        49.500  
G26  22021501.454 7 115723771.393 7        45.000    22021507.334 7  90174365.968 7        43.750  
G27  24320021.618 6 127802581.338 6        37.750    24320027.738 6  99586428.589 6        38.500  
G29  22195636.352 7 116638862.218 7        44.500    22195639.972 7  90887429.863 7        43.000  
R01  22466057.352 6 120093960.424 6        39.000    22466061.532 5  93406415.165 5        34.500  
R07  21097783.380 8 112938099.972 8        48.000    21097784.440 7  87840747.889 7        44.500  
R08  20205460.508 7 108199338.371 7        47.750    20205460.288 7  84155044.729 7        46.000  
R13  22927389.668 5 122430971.027 5        30.500    22927391.728 5  95224084.183 5        35.500  
R14  22145885.056 7 118050024.982 7        44.750    22145887.616 7  91816684.971 7        43.500  
R15  24027434.320 6 128395333.166 6        40.250    24027437.540 5  99863036.972 5        35.000  
R22  21926664.396 5 117046022.579 5        35.500    21926664.156 5  91035802.237 5        30.500  
R23  19828339.428 8 106068259.813 8        49.000                                                  
R24  21884577.516 7 117026685.405 7        46.000    21884579.236 6  91020760.525 6        40.750  
> 2021 11 07 01 30  0.0000000  0 19                     
G05  23893247.182 6 125559874.909 6        41.500    23893250.262 5  97838867.736 5        34.750  
G10  23146608.006 7 121636247.155 7        45.500    23146613.746 7  94781492.843 7        42.500  
G13  23715602.142 6 124626341.232 6        39.500    23715604.702 3  97111437.965 3        20.250  
G15  22424427.112 7 117841165.482 7        45.000    22424430.212 6  91824287.228 6        40.000  
G16  22579630.690 6 118656764.749 6        39.750    22579633.390 4  92459816.049 4        26.000  
G18  20296469.146 7 106658686.926 7        47.750    20296471.966 8  83110668.608 8        51.000  
G23  20812419.682 7 109370018.385 7        46.000    20812422.922 8  85223394.510 8        49.000  
G26  22037168.854 7 115806103.613 7        45.500    22037174.934 7  90238520.893 7        43.500  
G27  24280896.780 6 127596976.549 6        38.000    24280901.360 6  99426217.032 6        38.000  
G29  22226006.732 7 116798460.501 7        43.500    22226009.412 6  91011792.098 6        41.500  
R01  22416797.112 6 119830638.188 6        39.500    22416801.452 5  93201609.043 5        34.500  
R07  21119234.100 7 113052928.675 7        47.500    21119235.600 7  87930059.090 7        44.250  
R08  20183274.688 7 108080537.410 7        47.000    20183275.508 7  84062644.009 7        47.000  
R13  22968421.848 5 122650077.572 5        31.750    22968422.908 5  95394500.383 5        34.750  
R14  22153278.636 7 118089439.558 7        44.500    22153281.656 7  91847340.700 7        43.250  
R15  23999806.580 6 128247691.561 6        40.000    23999808.160 5  99748204.589 5        34.500  
R22  21954355.976 5 117193854.995 5        34.500    21954359.296 5  91150782.969 5        31.000  
R23  19818805.628 8 106017258.485 8        48.500                                                  
R24  21853509.516 7 116860552.080 7        46.500    21853511.516 6  90891545.722 6        40.000  
> 2021 11 07 01 31  0.0000000  0 19                     
G05  23933118.362 6 125769402.078 6        40.000    23933122.122 5  98002135.660 5        34.500  
G10  23109321.986 7 121440307.921 7        45.000    23109327.846 7  94628812.949 7        44.000  
G13  23710708.822 6 124600625.934 6        40.000    23710711.902 3  97091400.128 3        21.000  
G15  22409789.932 7 117764249.021 7        45.750    22409793.772 6  91764352.364 6        41.000  
G16  22566090.150 6 118585612.373 6        40.500    22566093.390 3  92404372.657 3        23.750  
G18  20299338.306 8 106673764.592 8        48.000    20299340.986 8  83122417.451 8        51.000  
G23  20790939.562 7 109257141.768 7        45.500    20790942.862 8  85135438.752 8        48.500  
G26  22053220.834 7 115890458.060 7        45.500    22053226.914 7  90304251.609 7        43.750  
G27  24241825.520 6 127391652.497 6        36.750    24241829.180 6  99266224.332 6        37.500  
G29  22256616.032 7 116959311.412 7        45.000    22256618.592 7  91137130.474 7        42.000  
R01  22367690.752 6 119568135.893 6        39.000    22367695.152 5  92997440.646 5        35.500  
R07  21141222.240 7 113170639.816 7        47.000    21141225.480 7  88021612.241 7        44.000  
R08  20161638.688 7 107964678.108 7        47.500    20161639.188 7  83972531.264 7        47.000  
R13  23009640.688 5 122870187.822 5        32.000    23009643.348 5  95565697.250 5        35.500  
R14  22161234.816 7 118131855.064 7        44.000    22161238.036 7  91880330.509 7        42.500  
R15  23972617.324 6 128102398.024 6        40.500    23972618.464 6  99635198.461 6        36.000  
R22  21982205.296 5 117342514.261 5        34.000    21982206.576 4  91266406.788 4        28.500  
R23  19809491.948 8 105967436.800 8        48.750                                                  
R24  21822508.696 7 116694774.536 7        46.000    21822510.256 6  90762607.639 6        40.500  
> 2021 11 07 01 32  0.0000000  0 19                     
G05  23973114.222 6 125979576.296 6        41.000    23973117.142 5  98165907.780 5        34.500  
G10  23072213.508 7 121245300.155 7        47.000    23072219.028 7  94476858.891 7        43.500  
G13  23706246.862 6 124577178.912 6        39.250    23706250.042 3  97073129.733 3        21.500  
G15  22395578.752 7 117689568.051 7        44.500    22395582.592 6  91706159.447 6        40.500  
G16  22552996.170 7 118516798.829 7        42.500    22552998.310 4  92350751.724 4        27.000  
G18  20302433.806 8 106690030.230 8        48.500    20302436.386 8  83135091.974 8        51.250  
G23  20769827.262 7 109146195.168 7        45.500    20769831.422 8  85048986.878 8        50.000  
G26  22069653.994 7 115976817.455 7        44.500    22069660.534 7  90371544.613 7        42.500  
G27  24202809.740 6 127186621.395 6        37.000    24202813.260 6  99106459.845 6        38.000  
G29  22287461.712 7 117121404.615 7        44.000    22287464.552 7  91263436.856 7        42.500  
R01  22318742.752 6 119306483.443 6        40.500    22318747.272 5  92793933.210 5        35.250  
R07  21163746.520 8 113291208.718 8        48.000    21163748.680 7  88115388.075 7        45.000  
R08  20140554.868 7 107851778.519 7        47.500    20140556.588 7  83884720.501 7        47.500  
R13  23051041.908 5 123091261.843 5        32.000    23051042.448 5  95737643.672 5        33.000  
R14  22169751.636 7 118177255.466 7        44.000    22169755.596 7  91915641.900 7        42.000  
R15  23945871.024 7 127959474.590 7        42.000    23945872.624 6  99524035.793 6        37.500  
R22  22010210.216 5 117491997.188 5        35.000    22010210.436 4  91382671.271 4        28.500  
R23  19800399.608 8 105918801.166 8        48.000                                                  
R24  21791573.736 7 116529357.916 7        45.500    21791576.496 6  90633950.301 6        41.500  
> 2021 11 07 01 33  0.0000000  0 18                     
G05  24013228.380 6 126190382.170 6        39.500    24013232.560 5  98330172.050 5        33.500  
G10  23035285.168 7 121051241.785 7        46.000    23035290.808 7  94325644.622 7        43.500  
G13  23702219.282 6 124556012.176 6        39.000    23702222.262 3  97056636.195 3        20.000  
G15  22381797.472 7 117617142.480 7        44.500    22381798.412 6  91649723.949 6        38.500  
G16  22540348.730 7 118450336.383 7        42.750    22540350.450 4  92298962.807 4        26.500  
G18  20305755.006 7 106707483.851 7        47.750    20305757.846 8  83148692.208 8        51.000  
G23  20749084.482 7 109037190.503 7        46.000    20749087.702 8  84964048.246 8        49.500  
G26  22086467.554 7 116065170.070 7        44.000    22086473.094 7  90440390.802 7        42.500  
G27  24163851.820 6 126981901.293 6        37.750    24163856.920 6  98946937.684 6        39.500  
G29  22318542.132 7 117284735.563 7        44.000    22318546.432 7  91390707.684 7        43.500  
R01  22269961.752 6 119045717.545 6        39.500    22269965.892 5  92591115.335 5        35.750  
R07  21186800.360 8 113414615.673 8        48.500    21186802.620 7  88211371.258 7        44.500  
R08  20120029.508 8 107741862.657 8        48.000    20120030.488 7  83799230.415 7        47.500  
R14  22178827.796 7 118225631.472 7        44.000    22178830.676 6  91953267.624 6        41.750  
R15  23919573.024 6 127818947.978 6        41.000    23919575.524 6  99414737.310 6        36.750  
R22  22038367.216 5 117642306.547 5        35.000    22038367.176 4  91499578.562 4        26.500  
R23  19791531.668 8 105871363.913 8        48.500                                                  
R24  21760709.796 7 116364313.013 7        44.500    21760712.656 6  90505582.077 6        41.750  
> 2021 11 07 01 34  0.0000000  0 19                     
G05  24053459.860 6 126401796.272 6        40.000    24053463.380 5  98494910.293 5        33.250  
G10  22998540.068 7 120858144.986 7        46.000    22998545.568 7  94175179.619 7        43.250  
G13  23698625.122 6 124537130.901 6        39.250    23698629.182 3  97041923.535 3        20.250  
G15  22368446.332 7 117546985.510 7        45.250    22368449.972 6  91595056.187 6        40.500  
G16  22528150.390 7 118386232.210 7        42.750    22528152.190 4  92249011.508 4        27.000  
G18  20309301.166 7 106726119.722 7        47.000    20309304.266 8  83163213.662 8        51.500  
G23  20728712.142 7 108930133.849 7        45.750    20728715.602 8  84880627.468 8        50.000  
G26  22103655.694 7 116155498.354 7        44.000    22103661.914 7  90510776.444 7        43.000  
G27  24124956.520 6 126777504.760 6        38.500    24124961.580 6  98787667.677 6        38.500  
G29  22349856.032 7 117449293.809 7        43.000    22349860.732 7  91518934.835 7        43.000  
R01  22221351.272 6 118785868.093 6        40.000    22221355.852 6  92389010.261 6        36.000  
R07  21210379.100 8 113540834.879 8        48.500    21210380.760 7  88309541.757 7        43.500  
R08  20100064.008 8 107634947.456 8        48.000    20100064.728 7  83716074.178 7        47.000  
R13  23134358.568 5 123536162.349 5        30.500    23134359.188 5  96083677.328 5        34.000  
R14  22188458.552 7 118276966.182 7        45.750    22188461.132 6  91993194.602 6        41.000  
R15  23893728.584 6 127680839.319 6        40.000    23893729.684 6  99307319.446 6        37.000  
R22  22066680.036 5 117793439.076 5        33.500    22066680.136 4  91617126.039 4        28.000  
R23  19782889.632 8 105825131.732 8        48.750                                                  
R24  21729916.716 7 116199645.536 7        45.500    21729919.096 6  90377507.401 6        41.750  
> 2021 11 07 01 35  0.0000000  0 19                     
G05  24093802.760 6 126613800.933 6        39.750    24093806.020 5  98660108.718 5        33.000  
G10  22961980.288 7 120666025.509 7        46.000    22961986.588 7  94025476.163 7        43.500  
G13  23695469.822 6 124520544.194 6        39.500    23695471.682 3  97028998.836 3        19.000  
G15  22355529.792 7 117479113.229 7        44.000    22355534.452 6  91542168.726 6        41.000  
G16  22516402.030 7 118324495.969 7        44.000    22516403.930 4  92200905.336 4        28.500  
G18  20313071.586 7 106745935.831 7        47.000    20313075.246 8  83178654.787 8        51.750  
G23  20708712.622 7 108825034.642 7        46.500    20708715.982 8  84798732.009 8        50.000  
G26  22121217.994 7 116247787.915 7        44.250    22121224.114 7  90582690.379 7        42.000  
G27  24086124.900 6 126573448.133 6        40.000    24086131.480 6  98628662.580 6        38.000  
G29  22381402.852 7 117615073.073 7        44.000    22381406.892 6  91648113.429 6        41.750  
R01  22172918.676 6 118526969.682 6        40.000    22172922.916 5  92187644.887 5        35.000  
R07  21234478.940 8 113669844.558 8        48.500    21234480.800 7  88409882.648 7        43.500  
R08  20080663.008 8 107531054.130 8        48.000    20080662.648 7  83635268.272 7        47.000  
R13  23176259.668 5 123759915.212 5        33.000    23176259.208 5  96257707.343 5        33.000  
R14  22198641.932 7 118331246.276 7        45.000    22198643.592 6  92035412.414 6        39.500  
R15  23868339.524 6 127545173.007 6        40.750    23868342.244 6  99201801.214 6        37.250  
R22  22095146.776 6 117945395.613 6        37.000    22095146.796 4  91735314.397 4        28.500  
R23  19774473.512 8 105780114.832 8        48.000                                                  
R24  21699196.576 7 116035364.992 7        46.000    21699197.796 6  90249733.655 6        41.250  
> 2021 11 07 01 36  0.0000000  0 19                     
G05  24134254.320 6 126826374.766 6        37.500    24134257.180 5  98825750.627 5        32.500  
G10  22925610.148 7 120474896.274 7        45.500    22925616.268 7  93876544.283 7        43.250  
G13  23692751.102 6 124506258.036 6        38.750    23692752.902 3  97017866.803 3        19.000  
G15  22343052.152 7 117413539.840 7        44.000    22343054.412 6  91491072.649 6        39.500  
G16  22505106.050 7 118265134.663 7        44.000    22505107.790 4  92154649.789 4        29.000  
G18  20317066.486 8 106766927.472 8        48.000    20317069.906 8  83195011.912 8        51.500  
G23  20689086.762 7 108721899.285 7        47.000    20689089.702 8  84718366.844 8        50.000  
G26  22139150.914 7 116342021.579 7        44.500    22139155.914 6  90656119.189 6        41.500  
G27  24047361.740 6 126369745.309 6        41.000    24047367.280 6  98469933.093 6        38.000  
G29  22413180.212 7 117782063.486 7        44.500    22413183.332 6  91778235.860 6        40.000  
R01  22124669.956 6 118269053.865 6        40.250    22124674.376 5  91987043.737 5        35.750  
R07  21259096.220 8 113801618.931 8        48.250    21259097.200 7  88512373.796 7        43.500  
R08  20061829.248 8 107430200.031 8        48.000    20061829.628 7  83556826.224 7        47.000  
R13  23218310.788 5 123984486.499 5        30.500    23218315.408 5  96432373.864 5        34.500  
R14  22209373.232 7 118388455.434 7        44.000    22209376.492 6  92079908.384 6        40.750  
R15  23843413.064 6 127411970.680 6        41.500    23843415.624 6  99098199.385 6        38.000  
R22  22123765.216 5 118098174.021 5        34.250    22123768.496 5  91854142.033 5        31.000  
R23  19766287.052 8 105736321.360 8        48.500                                                  
R24  21668547.536 7 115871477.857 7        46.000    21668549.716 6  90122265.882 6        41.500  
> 2021 11 07 01 37  0.0000000  0 19                     
G05  24174810.100 6 127039498.242 6        39.000    24174812.640 5  98991820.811 5        32.500  
G10  22889430.228 7 120284771.182 7        45.500    22889436.308 7  93728394.921 7        42.000  
G13  23690471.042 6 124494279.253 6        38.500    23690474.042 3  97008532.712 3        21.000  
G15  22331013.812 7 117350280.049 7        44.000    22331017.192 6  91441779.311 6        40.000  
G16  22494263.530 7 118208155.848 7        44.500    22494265.490 4  92110250.702 4        29.500  
G18  20321284.286 8 106789091.259 8        48.250    20321287.406 8  83212282.410 8        51.000  
G23  20669835.944 7 108620735.367 7        47.000    20669838.884 8  84639537.811 8        49.500  
G26  22157449.394 7 116438183.147 7        44.750    22157455.114 7  90731050.253 7        42.000  
G27  24008669.020 7 126166411.505 7        42.000    24008673.880 6  98311491.243 6        36.750  
G29  22445186.212 7 117950256.327 7        44.250    22445191.252 7  91909295.202 7        43.250  
R01  22076612.456 7 118012153.004 7        43.000    22076615.256 5  91787232.000 5        35.000  
R07  21284224.760 7 113936133.877 7        47.500    21284225.180 7  88616996.531 7        43.000  
R08  20043566.528 8 107332403.050 8        48.500    20043566.868 7  83480761.941 7        47.750  
R13  23260515.40815 124209853.64615        30.5001   23260517.12815  96607664.49415        34.5001 
R14  22220651.692 7 118448577.234 7        43.000    22220656.532 7  92126669.713 7        42.500  
R15  23818950.584 6 127281254.734 6        41.500    23818953.164 6  98996531.415 6        37.500  
R22  22152542.636 5 118251773.626 5        33.500    22152541.936 4  91973608.378 4        27.500  
R23  19758331.212 8 105693760.755 8        48.500                                                  
R24  21637975.136 7 115707992.554 7        46.750    21637977.056 7  89995110.665 7        42.000  
> 2021 11 07 01 38  0.0000000  0 19                     
G05  24215467.800 6 127253153.867 6        39.500    24215469.260 5  99158305.697 5        32.750  
G10  22853444.788 7 120095666.274 7        45.500    22853450.608 7  93581040.480 7        42.500  
G13  23688632.142 6 124484614.999 6        39.750    23688634.742 3  97001002.066 3        19.000  
G15  22319418.692 7 117289349.169 7        43.000    22319421.992 6  91394300.697 6        39.750  
G16  22483875.732 7 118153568.465 7        42.500    22483877.532 4  92067715.065 4        29.500  
G18  20325724.486 8 106812425.448 8        48.000    20325727.726 8  83230464.877 8        51.500  
G23  20650961.984 7 108521551.649 7        47.500    20650965.144 8  84562251.836 8        50.750  
G26  22176112.354 7 116536257.658 7        43.750    22176118.874 7  90807471.950 7        43.500  
G27  23970049.282 6 125963463.672 6        41.000    23970054.082 6  98153350.158 6        36.000  
G29  22477420.052 7 118119644.857 7        44.500    22477424.032 7  92041286.187 7        42.000  
R01  22028750.156 7 117756302.128 7        42.000    22028753.316 5  91588236.902 5        34.500  
R07  21309859.440 7 114073365.285 7        47.000    21309860.920 7  88723732.096 7        42.000  
R08  20025878.248 8 107237681.917 8        48.250    20025878.028 7  83407089.965 7        47.500  
R13  23302855.58815 124435952.03715        30.5001   23302858.18815  96783518.34115        33.5001 
R14  22232474.192 7 118511597.342 7        44.500    22232478.032 7  92175685.316 7        42.500  
R15  23794959.144 6 127153048.408 6        41.250    23794961.284 6  98896815.383 6        38.000  
R22  22181468.316 5 118406195.069 5        34.000    22181470.616 4  92093713.932 4        29.500  
R23  19750606.672 8 105652443.321 8        48.500                                                  
R24  21607479.756 7 115544919.783 7        47.000    21607481.856 7  89868276.299 7        42.000  
> 2021 11 07 01 39  0.0000000  0 19                     
G05  24256222.440 6 127467321.093 6        40.000    24256223.940 5  99325189.249 5        32.250  
G10  22817656.028 7 119907594.433 7        46.500    22817660.928 7  93434490.980 7        42.000  
G13  23687234.982 6 124477270.514 6        39.500    23687236.382 3  96995279.128 3        18.000  
G15  22308270.552 7 117230760.694 7        45.500    22308274.632 6  91348647.381 6        41.500  
G16  22473943.572 7 118101378.196 7        43.500    22473946.532 4  92027047.337 4        29.500  
G18  20330386.666 8 106836925.713 8        48.000    20330389.746 8  83249556.007 8        50.750  
G23  20632465.724 7 108424354.187 7        47.250    20632468.504 8  84486513.568 8        50.000  
G26  22195135.632 7 116636227.490 7        44.000    22195142.452 7  90885370.473 7        43.000  
G27  23931506.262 6 125760916.556 6        41.500    23931510.422 6  97995521.227 6        37.500  
G29  22509879.510 7 118290219.141 7        44.750    22509882.610 6  92174201.217 6        41.500  
R01  21981089.876 6 117501533.050 6        41.500    21981093.436 5  91390083.224 5        35.500  
R07  21335998.160 7 114213287.787 7        45.500    21336000.420 7  88832560.705 7        43.000  
R08  20008766.568 8 107146052.732 8        48.000    20008766.268 7  83335822.823 7        46.250  
R13  23345329.808 5 124662762.357 5        33.000    23345331.808 5  96959926.370 5        31.750  
R14  22244837.552 7 118577497.349 7        45.000    22244840.672 7  92226940.829 7        42.000  
R15  23771440.704 6 127027372.405 6        41.000    23771443.224 6  98799067.399 6        37.500  
R22  22210552.252 6 118561436.384 6        36.750    22210553.372 5  92214457.121 5        30.000  
R23  19743117.132 8 105612377.786 8        48.000                                                  
R24  21577063.060 7 115382266.529 7        46.500    21577065.500 7  89741768.213 7        43.500  
> 2021 11 07 01 40  0.0000000  0 19                     
G05  24297070.978 6 127681980.040 6        40.000    24297072.278 5  99492455.972 5        31.500  
G10  22782066.630 7 119720568.558 7        45.500    22782071.630 7  93288756.584 7        42.750  
G13  23686278.722 6 124472250.599 6        39.000    23686282.462 3  96991367.559 3        19.000  
G15  22297569.932 7 117174527.135 7        45.000    22297572.692 6  91304829.058 6        40.750  
G16  22464470.792 7 118051591.554 7        44.500    22464472.892 5  91988252.555 5        30.250  
G18  20335270.246 8 106862587.891 8        48.500    20335273.026 8  83269552.505 8        51.000  
G23  20614348.684 8 108329148.788 8        48.000    20614351.764 8  84412327.562 8        50.250  
G26  22214516.772 7 116738074.731 7        45.000    22214523.572 7  90964731.945 7        44.500  
G27  23893041.802 6 125558784.804 6        41.000    23893045.922 6  97838015.974 6        37.000  
G29  22542562.370 7 118461970.230 7        44.000    22542565.430 6  92308033.216 6        39.500  
R01  21933638.696 6 117247877.441 6        41.000    21933642.036 6  91192795.623 6        36.500  
R07  21362634.620 7 114355874.225 7        46.500    21362636.220 7  88943461.240 7        43.000  
R08  19992235.388 8 107057530.390 8        48.000    19992235.148 7  83266972.117 7        46.000  
R13  23387932.804 5 124890245.019 5        34.000    23387933.044 5  97136857.313 5        33.250  
R14  22257736.992 7 118646258.580 7        45.250    22257739.572 7  92280421.770 7        43.000  
R15  23748399.084 6 126904246.742 6        40.500    23748401.804 6  98703302.970 6        37.000  
R22  22239784.952 5 118717496.142 5        33.500    22239788.632 5  92335836.937 5        30.500  
R23  19735862.072 8 105573572.600 8        48.250                                                  
R24  21546725.620 7 115220041.620 7        46.250    21546728.460 7  89615593.317 7        43.500  
> 2021 11 07 01 41  0.0000000  0 19                     
G05  24338009.058 6 127897113.375 6        40.000    24338010.238 5  99660092.320 5        30.250  
G10  22746678.810 7 119534604.233 7        45.500    22746683.930 7  93143849.403 7        44.000  
G13  23685767.462 6 124469561.913 6        37.000    23685771.482 3  96989272.516 3        18.000  
G15  22287319.512 7 117120663.237 7        44.500    22287323.512 6  91262857.196 6        41.750  
G16  22455454.432 7 118004215.954 7        42.000    22455458.452 4  91951336.490 4        29.500  
G18  20340374.726 7 106889410.519 7        47.000    20340377.286 8  83290453.267 8        51.500  
G23  20596612.404 7 108235943.747 7        47.000    20596615.164 8  84339700.298 8        49.750  
G26  22234251.832 7 116841784.107 7        45.000    22234258.692 7  91045544.419 7        44.000  
G27  23854659.482 6 125357086.206 6        41.000    23854664.122 6  97680848.262 6        37.250  
G29  22575468.050 7 118634890.719 7        43.000    22575470.750 6  92442776.467 6        39.000  
R01  21886402.216 6 116995370.865 6        41.250    21886405.256 6  90996401.668 6        36.500  
R07  21389764.440 7 114501100.345 7        47.750    21389766.120 7  89056414.902 7        42.500  
R08  19976288.008 7 106972132.881 7        47.500    19976287.828 7  83200551.832 7        47.000  
R13  23430651.244 5 125118365.959 5        31.500    23430652.364 5  97314284.700 5        31.500  
R14  22271169.592 7 118717865.322 7        45.000    22271173.332 7  92336115.855 7        44.000  
R15  23725838.724 6 126783694.107 6        41.500    23725842.764 6  98609539.795 6        37.500  
R22  22269174.432 5 118874375.315 5        34.500    22269176.672 4  92457853.988 4        27.500  
R23  19728847.152 8 105536039.204 8        48.500                                                  
R24  21516471.460 7 115058255.142 7        47.000    21516473.160 7  89489759.415 7        43.250  
> 2021 11 07 01 42  0.0000000  0 19                     
G05  24379034.918 6 128112701.684 6        40.000    24379036.958 5  99828083.226 5        32.500  
G10  22711494.770 7 119349714.247 7        45.000    22711500.870 7  92999779.307 7        44.500  
G13  23685701.022 6 124469208.044 6        41.000    23685703.242 3  96988996.780 3        20.000  
G15  22277522.792 7 117069180.690 7        45.500    22277525.672 6  91222740.925 6        40.500  
G16  22446899.212 7 117959256.114 7        43.500    22446902.772 4  91916302.868 4        29.000  
G18  20345698.506 7 106917389.442 7        47.750    20345701.466 8  83312255.039 8        50.500  
G23  20579257.444 7 108144744.267 7        47.000    20579260.664 8  84268635.793 8        50.500  
G26  22254338.192 7 116947337.080 7        45.500    22254345.112 7  91127793.461 7        44.500  
G27  23816362.942 6 125155835.760 6        41.500    23816367.422 6  97524029.669 6        37.000  
G29  22608594.290 7 118808970.454 7        42.750    22608597.330 6  92578422.980 6        40.000  
R01  21839385.796 6 116744044.891 6        41.500    21839389.676 6  90800925.957 6        37.000  
R07  21417382.980 8 114648939.215 8        48.500    21417384.040 7  89171400.678 7        43.500  
R08  19960925.488 7 106889873.948 7        47.000    19960926.188 7  83136572.699 7        46.000  
R13  23473483.224 5 125347087.932 5        32.500    23473484.244 5  97492179.545 5        31.000  
R14  22285133.652 7 118792297.344 7        45.500    22285137.012 7  92394007.334 7        43.500  
R15  23703765.104 6 126665733.670 6        41.500    23703766.144 6  98517792.787 6        36.750  
R22  22298718.692 5 119032071.826 5        34.500    22298718.272 4  92580506.811 4        26.500  
R23  19722069.772 8 105499786.272 8        48.500                                                  
R24  21486298.760 7 114896915.840 7        46.000    21486301.300 7  89364273.310 7        43.000  
> 2021 11 07 01 43  0.0000000  0 19                     
G05  24420142.418 6 128328725.083 6        38.500    24420145.558 5  99996413.142 5        32.000  
G10  22676518.650 7 119165911.502 7        44.500    22676524.250 7  92856556.436 7        44.500  
G13  23686079.102 7 124471193.255 7        42.000    23686080.182 3  96990543.726 3        21.000  
G15  22268181.532 7 117020091.546 7        45.000    22268186.372 7  91184489.689 7        42.500  
G16  22438803.712 7 117916717.238 7        42.000    22438807.912 4  91883155.681 4        28.500  
G18  20351242.146 7 106946520.797 7        47.250    20351244.806 8  83334954.778 8        50.500  
G23  20562285.504 7 108055555.677 7        46.000    20562288.804 8  84199138.186 8        50.500  
G26  22274771.592 7 117054715.393 7        45.000    22274778.492 7  91211464.863 7        43.250  
G27  23778154.362 6 124955048.966 6        41.500    23778159.042 6  97367572.435 6        36.000  
G29  22641939.750 7 118984199.609 7        45.000    22641943.310 7  92714965.138 7        42.500  
R01  21792595.636 6 116493931.647 6        41.000    21792601.096 6  90606393.483 6        38.000  
R07  21445483.520 7 114799363.074 7        47.500    21445484.120 7  89288397.003 7        42.500  
R08  19946152.868 7 106810767.568 7        46.750    19946153.528 7  83075045.544 7        46.500  
R13  23516420.824 5 125576375.839 5        32.000    23516422.544 5  97670514.513 5        31.250  
R14  22299623.612 7 118869534.898 7        47.000    22299625.692 7  92454080.952 7        43.000  
R15  23682178.844 6 126550384.668 6        41.500    23682180.864 6  98428076.907 6        37.500  
R22  22328411.012 5 119190583.636 5        33.000    22328413.192 4  92703793.769 4        25.500  
R23  19715533.152 8 105464822.432 8        48.500                                                  
R24  21456213.720 7 114736032.544 7        47.000    21456215.500 7  89239141.866 7        43.500  
> 2021 11 07 01 44  0.0000000  0 19                     
G05  24461329.558 6 128545168.464 6        39.000    24461333.658 5 100165070.314 5        32.000  
G10  22641751.270 7 118983211.888 7        43.000    22641757.630 7  92714193.139 7        45.250  
G13  23686902.842 6 124475523.735 6        41.750    23686904.602 3  96993918.100 3        21.500  
G15  22259298.352 7 116973410.012 7        46.500    22259302.192 7  91148114.550 7        42.000  
G16  22431171.212 7 117876607.352 7        42.750    22431175.472 4  91851901.204 4        29.250  
G18  20357004.846 7 106976803.911 7        46.500    20357007.486 8  83358552.026 8        51.000  
G23  20545697.524 7 107968386.002 7        47.500    20545700.824 8  84131213.805 8        50.000  
G26  22295549.332 7 117163903.648 7        44.000    22295555.972 7  91296546.581 7        43.500  
G27  23740037.602 6 124754744.527 6        40.500    23740042.182 6  97211491.103 6        36.500  
G29  22675502.170 7 119160571.350 7        44.500    22675504.870 6  92852397.648 6        40.500  
R01  21746040.956 6 116245066.614 6        40.250    21746045.696 6  90412831.880 6        38.500  
R07  21474062.220 7 114952347.357 7        47.750    21474063.320 7  89407384.788 7        43.000  
R08  19931972.588 7 106734829.872 7        47.500    19931972.848 7  83015982.930 7        46.500  
R13  23559459.304 5 125806195.474 5        30.500    23559460.304 5  97849263.122 5        30.750  
R14  22314635.852 7 118949560.616 7        45.750    22314638.672 7  92516323.100 7        43.000  
R15  23661085.584 7 126437668.923 7        42.500    23661088.984 6  98340409.109 6        38.000  
R22  22358259.632 5 119349912.819 5        34.500    22358260.992 4  92827716.413 4        28.500  
R23  19709240.532 8 105431159.963 8        48.000                                                  
R24  21426215.540 7 114575617.538 7        47.000    21426216.980 7  89114374.635 7        43.250  
> 2021 11 07 01 45  0.0000000  0 19                     
G05  24502593.518 6 128762010.421 6        39.500    24502597.398 5 100334038.034 5        32.500  
G10  22607196.790 7 118801626.783 7        42.500    22607203.210 7  92572698.265 7        44.500  
G13  23688172.702 6 124482200.851 6        40.500    23688175.282 3  96999121.060 3        20.000  
G15  22250875.392 7 116929145.296 7        46.500    22250877.432 6  91113622.575 6        40.500  
G16  22424001.432 7 117838928.685 7        43.000    22424004.372 4  91822541.199 4        28.500  
G18  20362985.446 7 107008233.598 7        46.500    20362988.526 8  83383042.681 8        50.500  
G23  20529494.584 7 107883238.586 7        46.500    20529497.704 8  84064865.194 8        50.500  
G26  22316667.632 7 117274881.612 7        45.000    22316674.312 7  91383022.927 7        43.500  
G27  23702015.082 6 124554936.937 6        39.750    23702020.342 6  97055796.881 6        38.000  
G29  22709279.410 7 119338074.307 7        43.750    22709282.950 6  92990711.654 6        39.500  
R01  21699725.096 6 115997480.992 6        41.250    21699729.296 6  90220265.354 6        38.000  
R07  21503113.440 7 115107862.860 7        47.250    21503114.600 7  89528341.280 7        43.000  
R08  19918386.048 8 106662071.531 8        48.500    19918385.368 7  82959393.113 7        45.500  
R13  23602589.784 5 126036508.416 5        30.500    23602590.144 4  98028395.408 4        29.000  
R14  22330167.232 7 119032352.272 7        46.000    22330170.252 7  92580716.548 7        42.000  
R15  23640488.824 7 126327603.426 7        43.000    23640492.524 6  98254802.614 6        36.500  
R22  22388259.472 5 119510056.044 5        33.500    22388261.132 4  92952272.184 4        27.250  
R23  19703192.872 8 105398806.808 8        48.000                                                  
R24  21396305.820 7 114415677.615 7        47.000    21396307.860 7  88989976.919 7        44.000  
> 2021 11 07 01 46  0.0000000  0 19                     
G05  24543929.898 6 128979232.707 6        40.250    24543933.718 5 100503302.179 5        33.000  
G10  22572856.550 7 118621169.322 7        43.000    22572863.250 7  92432082.090 7        44.500  
G13  23689891.182 6 124491227.434 6        41.000    23689892.622 3  97006154.764 3        21.000  
G15  22242913.072 7 116887308.432 7        44.500    22242915.032 6  91081022.436 6        39.000  
G16  22417295.512 7 117803684.888 7        43.500    22417297.352 4  91795078.484 4        29.000  
G18  20369183.986 7 107040806.623 7        46.000    20369186.906 8  83408424.258 8        50.750  
G23  20513676.804 7 107800118.432 7        46.000    20513680.444 8  84000096.267 8        50.250  
G26  22338123.312 7 117387630.884 7        44.000    22338129.772 7  91470879.439 7        43.000  
G27  23664090.924 6 124355642.573 6        41.250    23664096.204 6  96900502.508 6        39.250  
G29  22743271.110 7 119516698.998 7        43.750    22743273.610 6  93129899.690 6        39.750  
R01  21653654.876 6 115751206.914 6        41.750    21653657.916 6  90028718.873 6        36.500  
R07  21532631.860 7 115265881.540 7        47.000    21532633.960 7  89651244.710 7        43.000  
R08  19905395.248 8 106592505.276 8        48.250    19905394.428 7  82905286.040 7        46.500  
R13  23645803.504 4 126267280.644 4        29.750    23645806.784 5  98207884.921 5        31.500  
R14  22346214.032 7 119117888.901 7        44.500    22346216.732 7  92647245.007 7        42.000  
R15  23620390.844 7 126220206.340 7        43.000    23620394.264 5  98171271.517 5        35.000  
R22  22418411.312 5 119671012.259 5        35.000    22418413.512 4  93077460.330 4        26.500  
R23  19697390.492 8 105367772.542 8        48.500                                                  
R24  21366487.180 7 114256223.722 7        47.000    21366489.220 7  88865957.228 7        44.000  
> 2021 11 07 01 47  0.0000000  0 19                     
G05  24585334.576 6 129196817.048 6        39.000    24585338.156 5 100672848.431 5        31.500  
G10  22538733.850 7 118441851.968 7        45.000    22538740.390 7  92292354.320 7        45.000  
G13  23692054.842 6 124502605.513 6        40.750    23692057.902 3  97015020.798 3        20.000  
G15  22235416.352 7 116847909.773 7        43.750    22235419.872 7  91050322.209 7        42.000  
G16  22411052.972 7 117770879.864 7        44.000    22411054.192 4  91769516.132 4        29.250  
G18  20375599.066 7 107074519.367 7        47.000    20375602.206 8  83434693.933 8        50.000  
G23  20498246.464 7 107719029.751 7        46.250    20498249.864 8  83936910.304 8        50.500  
G26  22359912.292 7 117502132.255 7        44.000    22359918.292 7  91560101.289 7        42.500  
G27  23626267.284 6 124156877.515 6        41.500    23626271.784 6  96745620.681 6        39.500  
G29  22777473.390 7 119696435.373 7        42.500    22777476.950 6  93269953.986 6        39.250  
R01  21607835.636 7 115506277.231 7        42.000    21607838.776 5  89838218.040 5        35.500  
R07  21562613.560 7 115426375.207 7        47.000    21562615.960 7  89776073.105 7        43.500  
R08  19893002.648 8 106526142.582 8        49.750    19893001.968 7  82853670.607 7        47.000  
R13  23689102.324 5 126498475.053 5        31.500    23689102.164 5  98387702.809 5        31.250  
R14  22362769.732 7 119206148.457 7        42.000    22362773.672 6  92715891.237 6        40.750  
R15  23600795.324 6 126115495.265 6        41.500    23600797.784 5  98089829.537 5        33.500  
R22  22448715.632 5 119832779.567 5        33.750    22448718.512 4  93203279.282 4        27.250  
R23  19691838.032 8 105338066.169 8        48.750                                                  
R24  21336760.780 7 114097265.313 7        46.500    21336762.460 7  88742322.933 7        44.000  
> 2021 11 07 01 48  0.0000000  0 19                     
G05  24626805.676 6 129414744.856 6        41.000    24626808.236 3 100842662.298 3        22.000  
G10  22504830.630 7 118263687.560 7        46.500    22504837.090 7  92153524.938 7        45.500  
G13  23694668.442 6 124516337.023 6        40.500    23694671.342 3  97025720.719 3        20.750  
G15  22228385.472 7 116810960.305 7        47.250    22228387.812 6  91021530.456 6        41.000  
G16  22405275.332 7 117740516.860 7        45.500    22405276.192 5  91745856.626 5        30.000  
G18  20382230.766 7 107109368.497 7        46.250    20382234.066 8  83461849.102 8        51.000  
G23  20483202.884 7 107639976.830 7        46.250    20483206.624 8  83875310.659 8        50.250  
G26  22382031.472 7 117618366.714 7        44.000    22382037.392 7  91650673.566 7        43.000  
G27  23588548.124 6 123958658.321 6        41.250    23588552.604 6  96591164.173 6        40.500  
G29  22811886.248 7 119877273.714 7        43.500    22811889.228 6  93410866.897 6        39.500  
R01  21562273.880 7 115262724.167 7        42.250    21562277.660 5  89648787.942 5        35.750  
R07  21593052.296 7 115589314.935 7        47.000    21593054.636 7  89902804.015 7        43.000  
R08  19881209.148 8 106462993.994 8        48.500    19881209.688 7  82804555.045 7        47.000  
R13  23732470.624 5 126730055.908 5        31.000    23732470.704 5  98567821.221 5        32.500  
R14  22379833.932 6 119297108.595 6        40.500    22379838.132 6  92786637.980 6        40.500  
R15  23581705.184 6 126013487.032 6        40.750    23581707.804 5  98010489.804 5        32.000  
R22  22479173.232 5 119995355.975 5        35.000    22479173.992 4  93329727.631 4        27.500  
R23  19686534.452 8 105309697.561 8        49.000                                                  
R24  21307129.460 7 113938812.130 7        46.500    21307131.340 7  88619081.577 7        44.750  
> 2021 11 07 01 49  0.0000000  0 19                     
G05  24668337.696 6 129633001.320 6        40.500    24668340.656 3 101012732.271 3        22.500  
G10  22471149.412 7 118086691.371 7        45.500    22471155.292 7  92015605.879 7        44.750  
G13  23697730.402 6 124532426.499 6        40.000    23697733.042 3  97038258.004 3        21.000  
G15  22221822.072 7 116776470.656 7        46.500    22221825.752 6  90994655.389 6        41.750  
G16  22399962.432 7 117712600.627 7        44.000    22399964.332 4  91724103.705 4        29.500  
G18  20389078.524 7 107145353.380 7        46.250    20389081.864 8  83489889.264 8        51.000  
G23  20468548.644 7 107562966.275 7        46.500    20468551.784 8  83815302.446 8        50.500  
G26  22404476.832 7 117736317.698 7        44.250    22404482.292 7  91742583.399 7        42.250  
G27  23550935.524 6 123761004.384 6        40.000    23550940.124 6  96437148.104 6        40.500  
G29  22846506.588 7 120059205.475 7        44.250    22846508.968 6  93552631.881 6        39.500  
R01  21516976.940 7 115020583.334 7        44.500    21516980.600 6  89460456.237 6        37.000  
R07  21623942.636 7 115754674.984 7        46.500    21623944.716 7  90031417.393 7        43.500  
R08  19870019.348 8 106403072.309 8        48.500    19870020.428 7  82757949.307 7        47.500  
R13  23775902.044 5 126961990.906 5        31.000    23775904.104 5  98748215.134 5        31.000  
R14  22397401.092 6 119390749.903 6        41.000    22397404.252 6  92859470.000 6        40.500  
R15  23563126.724 6 125914201.669 6        41.500    23563127.084 5  97933267.859 5        32.000  
R22  22509781.032 5 120158743.715 5        34.500    22509782.512 4  93456806.985 4        27.000  
R23  19681482.312 8 105282678.989 8        48.250                                                  
R24  21277593.820 7 113780877.202 7        46.000    21277596.420 7  88496243.320 7        44.500  
> 2021 11 07 01 50  0.0000000  0 19                     
G05  24709929.516 6 129851565.539 6        40.250    24709932.696 3 101183042.048 3        23.000  
G10  22437692.432 7 117910873.870 7        46.500    22437698.072 7  91878605.257 7        45.000  
G13  23701240.582 6 124550873.124 6        41.250    23701243.402 3  97052632.051 3        20.500  
G15  22215728.912 7 116744448.619 7        46.250    22215730.732 6  90969703.150 6        41.000  
G16  22395116.492 7 117687132.450 7        45.000    22395118.092 5  91704258.374 5        30.250  
G18  20396141.304 7 107182468.808 7        46.500    20396144.704 8  83518810.376 8        50.500  
G23  20454283.084 7 107487999.791 7        46.500    20454286.104 8  83756887.026 8        50.000  
G26  22427244.472 7 117855963.673 7        45.000    22427250.832 7  91835814.019 7        43.750  
G27  23513433.384 6 123563930.449 6        41.000    23513437.984 6  96283584.019 6        39.750  
G29  22881333.408 7 120242219.421 7        43.750    22881335.448 6  93695240.179 6        38.500  
R01  21471949.420 7 114779885.049 7        42.500    21471952.040 6  89273246.487 6        36.500  
R07  21655280.276 7 115922424.088 7        47.500    21655281.776 7  90161888.920 7        43.500  
R08  19859434.628 8 106346385.260 8        49.500    19859434.288 7  82713859.401 7        47.750  
R13  23819397.264 5 127194242.846 5        30.500    23819397.604 5  98928855.552 5        30.500  
R14  22415466.912 6 119487046.884 6        41.500    22415470.012 6  92934367.621 6        40.000  
R15  23545058.084 6 125817653.265 6        41.750    23545061.204 5  97858174.685 5        34.000  
R22  22540540.332 5 120322938.232 5        34.000    22540541.992 4  93584513.792 4        27.000  
R23  19676686.312 8 105257018.142 8        48.500                                                  
R24  21248159.040 7 113623469.194 7        47.500    21248160.240 7  88373814.899 7        44.500  
> 2021 11 07 01 51  0.0000000  0 19                     
G05  24751576.536 6 130070421.105 6        39.500    24751578.696 3 101353578.804 3        20.250  
G10  22404462.492 7 117736248.166 7        46.000    22404468.032 7  91742533.311 7        46.250  
G13  23705199.842 6 124571678.327 6        41.500    23705203.342 3  97068843.856 3        20.250  
G15  22210105.892 7 116714903.475 7        43.750    22210108.952 6  90946680.970 6        41.000  
G16  22390736.192 7 117664114.961 7        44.500    22390738.072 5  91686322.652 5        30.250  
G18  20403418.504 7 107220712.236 7        46.500    20403422.164 8  83548610.461 8        51.000  
G23  20440406.764 7 107415081.515 7        47.000    20440410.104 8  83700067.579 8        51.000  
G26  22450331.292 7 117977285.731 7        44.500    22450337.872 7  91930350.671 7        43.500  
G27  23476045.344 6 123367454.129 6        40.500    23476049.724 6  96130485.623 6        39.500  
G29  22916363.468 6 120426305.807 6        41.000    22916367.028 6  93838684.098 6        38.000  
R01  21427196.700 6 114540662.148 6        41.500    21427200.800 6  89087184.284 6        37.500  
R07  21687058.096 7 116092533.423 7        47.500    21687059.696 7  90294196.183 7        44.000  
R08  19849453.328 8 106292942.433 8        48.500    19849454.448 8  82672292.785 8        48.500  
R13  23862942.944 5 127426777.570 5        30.000    23862943.584 5  99109715.876 5        30.000  
R14  22434026.21217 119585979.68117        44.0001   22434028.872 6  93011312.956 6        41.000  
R15  23527506.004 6 125723858.139 6        39.500    23527509.424 5  97785222.920 5        34.000  
R22  22571452.252 5 120487938.663 5        35.250    22571451.812 4  93712847.420 4        27.250  
R23  19672145.112 8 105232725.413 8        48.500                                                  
R24  21218823.940 8 113466599.077 8        48.000    21218824.840 7  88251804.820 7        45.500  
> 2021 11 07 01 52  0.0000000  0 18                     
G05  24793275.076 6 130289550.561 6        40.500    24793277.196 3 101524329.054 3        18.500  
G10  22371460.992 7 117562826.685 7        45.500    22371466.972 7  91607399.749 7        45.750  
G13  23709608.642 6 124594842.203 6        41.000    23709611.022 3  97086893.621 3        19.500  
G15  22204957.012 7 116687844.038 7        46.250    22204959.632 6  90925595.720 6        41.000  
G16  22386822.732 7 117643549.632 7        43.250    22386825.072 5  91670297.694 5        30.500  
G18  20410910.284 7 107260080.608 7        45.750    20410913.704 8  83579287.106 8        50.500  
G23  20426921.284 7 107344214.700 7        47.500    20426924.744 8  83644846.700 8        50.750  
G26  22473732.992 7 118100264.200 7        44.500    22473739.792 7  92026178.008 7        43.500  
G27  23438774.204 6 123171592.669 6        41.000    23438778.404 6  95977866.318 6        41.000  
G29  22951595.368 6 120611454.351 6        41.250    22951600.248 6  93982955.590 6        39.500  
R01  21382727.740 6 114302946.728 6        41.500    21382731.420 6  88902294.590 6        38.000  
R07  21719270.316 7 116264973.839 7        46.250    21719272.136 7  90428316.486 7        43.000  
R08  19840080.408 8 106242752.085 8        48.500    19840081.268 7  82633255.870 7        47.500  
R14  22453074.332 7 119687518.500 7        45.250    22453077.672 6  93090287.555 6        41.750  
R15  23510470.204 6 125632831.844 6        38.250    23510474.144 5  97714424.666 5        33.250  
R22  22602511.372 5 120653743.633 5        33.000    22602512.772 4  93841806.795 4        26.500  
R23  19667862.272 8 105209810.809 8        48.750                                                  
R24  21189589.300 8 113310277.735 8        49.500    21189591.740 7  88130221.602 7        45.750  
> 2021 11 07 01 53  0.0000000  0 18                     
G05  24835022.216 6 130508936.355 6        39.500    24835024.336 3 101695279.076 3        20.250  
G10  22338691.212 7 117390621.603 7        46.500    22338697.252 7  91473213.987 7        45.500  
G13  23714465.682 7 124620365.279 7        42.500    23714468.202 3  97106781.747 3        21.000  
G15  22200282.352 7 116663278.054 7        46.000    22200285.692 7  90906453.418 7        42.000  
G16  22383375.672 7 117625437.671 7        42.750    22383378.752 4  91656184.459 4        29.250  
G18  20418614.984 7 107300570.837 7        45.500    20418618.704 8  83610837.928 8        50.250  
G23  20413826.704 7 107275402.281 7        47.000    20413830.224 8  83591226.662 8        51.250  
G26  22497446.830 7 118224879.034 7        44.500    22497452.730 7  92123280.431 7        42.500  
G27  23401623.024 6 122976363.288 6        41.250    23401627.444 6  95825739.564 6        40.500  
G29  22987028.928 7 120797654.315 7        44.500    22987032.968 6  94128046.441 6        41.000  
R01  21338546.320 7 114066772.003 7        42.500    21338550.320 6  88718603.190 6        38.000  
R07  21751913.956 7 116439715.833 7        47.000    21751915.416 7  90564226.919 7        43.000  
R08  19831317.308 8 106195821.748 8        49.250    19831317.848 7  82596754.511 7        47.500  
R14  22472608.212 7 119791641.906 7        44.500    22472611.492 7  93171272.302 7        42.500  
R15  23493957.884 6 125544588.923 6        38.000    23493960.104 5  97645791.271 5        31.500  
R22  22633723.592 5 120820351.520 5        33.500    22633723.692 4  93971390.690 4        25.000  
R23  19663837.272 7 105188284.122 7        47.500                                                  
R24  21160462.680 8 113154517.050 8        49.000    21160463.720 7  88009074.440 7        45.500  
> 2021 11 07 01 54  0.0000000  0 18                     
G05  24876815.616 6 130728562.903 6        38.500    24876817.556 3 101866416.661 3        19.500  
G10  22306156.112 7 117219646.287 7        47.000    22306161.532 7  91339986.542 7        46.000  
G13  23719771.902 7 124648248.411 7        43.250    23719774.702 3  97128508.877 3        21.500  
G15  22196083.452 7 116641214.548 7        45.500    22196086.512 6  90889261.089 6        41.500  
G16  22380395.892 6 117609781.271 6        41.000    22380398.372 4  91643984.644 4        28.250  
G18  20426533.404 7 107342181.243 7        45.000    20426536.604 8  83643261.637 8        49.500  
G23  20401123.924 7 107208648.293 7        47.000    20401127.004 8  83539210.580 8        51.500  
G26  22521467.670 7 118351111.460 7        44.000    22521474.410 7  92221643.359 7        43.000  
G27  23364595.426 7 122781784.683 7        42.000    23364600.426 6  95674119.853 6        41.250  
G29  23022659.728 7 120984896.549 7        43.000    23022662.568 6  94273949.495 6        38.500  
R01  21294658.640 7 113832171.128 7        44.000    21294662.980 6  88536135.861 6        37.500  
R07  21784981.456 7 116616730.387 7        46.250    21784983.416 7  90701904.899 7        43.000  
R08  19823164.448 8 106152159.775 8        49.500    19823163.908 7  82562795.215 7        47.500  
R14  22492622.192 7 119898326.394 7        45.000    22492624.792 7  93254249.073 7        42.500  
R15  23477967.504 6 125459145.194 6        36.000    23477970.964 5  97579335.081 5        32.500  
R22  22665084.552 5 120987761.499 5        34.500    22665085.352 4  94101598.435 4        26.500  
R23  19660074.032 8 105168156.513 8        48.250                                                  
R24  21131441.520 8 112999328.828 8        49.000    21131442.560 7  87888372.494 7        44.500  
> 2021 11 07 01 55  0.0000000  0 18                     
G05  24918651.874 6 130948410.176 6        38.500    24918656.234 3 102037726.248 3        21.000  
G10  22273856.672 7 117049910.443 7        47.500    22273861.972 7  91207724.862 7        45.500  
G13  23725525.002 7 124678487.911 7        42.500    23725528.242 3  97152072.130 3        19.000  
G15  22192362.352 7 116621658.367 7        46.750    22192364.452 6  90874022.557 6        41.000  
G16  22377883.392 7 117596577.797 7        43.000    22377885.732 4  91633696.209 4        29.500  
G18  20434663.904 7 107384906.437 7        45.500    20434666.784 8  83676554.002 8        50.000  
G23  20388812.804 7 107143952.674 7        47.500    20388816.024 8  83488798.427 8        51.000  
G26  22545792.330 7 118478938.845 7        45.000    22545799.010 7  92321249.105 7        42.000  
G27  23327695.506 7 122587872.008 7        43.250    23327700.226 6  95523019.082 6        41.250  
G29  23058486.048 6 121173168.232 6        40.500    23058489.848 6  94420654.686 6        37.500  
R01  21251072.200 7 113599173.657 7        42.500    21251075.940 6  88354915.629 6        38.500  
R07  21818467.676 7 116795985.047 7        46.000    21818470.136 7  90841325.174 7        43.000  
R08  19815621.028 8 106111769.735 8        48.000    19815621.428 7  82531380.744 7        47.500  
R14  22513110.352 7 120007544.051 7        45.000    22513113.092 6  93339196.075 6        41.000  
R15  23462503.964 6 125376511.877 6        39.000    23462507.244 5  97515064.723 5        32.750  
R22  22696595.31215 121155969.58415        33.5001   22696596.612 4  94232426.950 4        26.500  
R23  19656574.632 7 105149435.633 7        47.500                                                  
R24  21102529.140 8 112844722.368 8        49.500    21102530.540 7  87768123.065 7        44.500  
> 2021 11 07 01 56  0.0000000  0 18                     
G05  24960526.434 6 131168463.310 6        37.500    24960530.634 3 102209196.192 3        21.000  
G10  22241795.152 8 116881427.209 8        48.500    22241800.652 7  91076439.257 7        46.000  
G13  23731727.662 7 124711084.273 7        42.000    23731729.762 3  97177471.940 3        19.500  
G15  22189118.912 7 116604617.462 7        46.000    22189121.272 6  90860743.920 6        40.000  
G16  22375838.372 7 117585830.346 7        43.500    22375841.392 5  91625321.557 5        30.000  
G18  20443006.264 7 107428744.923 7        46.250    20443009.004 8  83710713.851 8        50.500  
G23  20376894.186 7 107081318.929 7        47.500    20376896.766 8  83439992.926 8        51.000  
G26  22570417.130 7 118608342.067 7        44.000    22570423.310 6  92422082.801 6        41.500  
G27  23290926.006 7 122394644.220 7        42.500    23290929.926 7  95372452.013 7        42.250  
G29  23094507.286 7 121362459.854 7        42.500    23094510.686 6  94568154.608 6        37.750  
R01  21207790.720 7 113367813.231 7        43.000    21207794.720 6  88174968.703 6        38.000  
R07  21852368.116 7 116977451.165 7        47.000    21852369.176 7  90982465.513 7        43.000  
R08  19808690.808 8 106074659.171 8        48.000    19808691.148 7  82502516.977 7        47.750  
R14  22534070.332 7 120119270.652 7        44.000    22534072.872 6  93426094.509 6        41.000  
R15  23447569.824 6 125296703.624 6        40.750    23447571.604 5  97452991.617 5        33.000  
R22  22728256.712 5 121324975.582 5        34.500    22728257.672 4  94363875.982 4        27.500  
R23  19653340.952 8 105132132.606 8        48.250                                                  
R24  21073727.600 8 112690710.793 8        50.000    21073729.440 7  87648336.297 7        44.500  
> 2021 11 07 01 57  0.0000000  0 18                     
G05  25002437.234 6 131388703.612 6        39.500    25002441.274 3 102380811.977 3        21.500  
G10  22209974.492 8 116714207.014 8        49.000    22209980.032 7  90946137.850 7        45.000  
G13  23738378.322 7 124746035.172 7        42.000    23738379.762 3  97204706.403 3        18.500  
G15  22186355.832 7 116590096.259 7        45.500    22186358.892 6  90849428.731 6        41.000  
G16  22374260.172 7 117577535.761 7        43.500    22374262.592 4  91618858.246 4        29.000  
G18  20451559.444 7 107473692.392 7        46.000    20451562.224 8  83745737.859 8        50.000  
G23  20365367.886 7 107020747.632 7        47.500    20365370.666 8  83392794.535 8        51.500  
G26  22595337.250 7 118739299.296 7        43.750    22595344.390 7  92524127.364 7        42.250  
G27  23254289.166 7 122202117.869 7        42.250    23254293.626 7  95222431.513 7        43.500  
G29  23130720.326 7 121552759.132 7        43.250    23130723.866 6  94716439.774 6        38.750  
R01  21164822.940 7 113138120.658 7        44.000    21164826.380 6  87996318.955 6        39.250  
R07  21886675.156 7 117161096.875 7        45.750    21886675.256 7  91125301.055 7        42.000  
R08  19802374.628 8 106040830.986 8        49.500    19802374.188 7  82476206.206 7        47.500  
R14  22555494.732 7 120233478.699 7        43.000    22555498.332 6  93514922.961 6        41.000  
R15  23433165.104 6 125219731.925 6        38.500    23433166.584 5  97393124.715 5        34.000  
R22  22760066.232 5 121494775.489 5        34.500    22760066.472 4  94495942.592 4        24.500  
R23  19650372.552 7 105116256.208 7        47.750                                                  
R24  21045040.500 8 112537304.951 8        49.500    21045042.040 7  87529020.662 7        44.250  
> 2021 11 07 01 58  0.0000000  0 18                     
G05  25044380.074 6 131609117.251 6        39.000    25044384.554 3 102552562.853 3        20.500  
G10  22178396.434 8 116548263.817 8        48.250    22178401.534 7  90816831.489 7        44.500  
G13  23745477.462 7 124783340.154 7        42.250    23745479.782 3  97233775.203 3        19.750  
G15  22184074.074 7 116578103.540 7        45.750    22184076.194 6  90840083.776 6        40.500  
G16  22373149.012 7 117571696.321 7        43.500    22373151.092 5  91614308.017 5        30.500  
G18  20460323.064 7 107519748.356 7        46.000    20460326.584 8  83781625.619 8        49.500  
G23  20354234.626 7 106962242.610 7        47.250    20354237.526 8  83347206.206 8        50.750  
G26  22620549.570 7 118871791.951 7        43.500    22620556.590 7  92627368.357 7        42.750  
G27  23217789.946 7 122010313.000 7        42.250    23217794.426 7  95072973.202 7        43.500  
G29  23167122.826 6 121744057.363 6        41.500    23167125.966 6  94865503.304 6        37.250  
R01  21122172.220 7 112910129.934 7        44.000    21122176.280 6  87818992.886 6        39.750  
R07  21921383.516 7 117346893.955 7        45.250    21921383.396 6  91269809.874 6        41.250  
R08  19796670.188 8 106010292.146 8        48.750    19796670.788 7  82452453.789 7        47.000  
R14  22577381.932 7 120350144.152 7        43.500    22577385.352 6  93605662.735 6        41.750  
R15  23419296.144 6 125145611.535 6        39.500    23419296.864 5  97335475.506 5        33.500  
R22  22792022.608 5 121665370.358 5        33.500    22792025.568 4  94628627.485 4        28.500  
R23  19647673.652 7 105101818.964 7        47.500                                                  
R24  21016468.240 8 112384519.097 8        49.000    21016469.980 7  87410187.250 7        44.500  
> 2021 11 07 01 59  0.0000000  0 18                     
G05  25086352.094 6 131829685.912 6        36.500    25086357.554 3 102724434.579 3        19.000  
G10  22147062.974 8 116383606.114 8        49.000    22147067.934 7  90688526.818 7        45.000  
G13  23753023.522 7 124822994.024 7        42.000    23753026.122 3  97264674.345 3        20.250  
G15  22182273.674 7 116568641.523 7        45.500    22182276.734 6  90832710.778 6        41.500  
G16  22372504.592 7 117568307.837 7        45.000    22372506.252 5  91611667.630 5        30.500  
G18  20469297.344 7 107566907.099 7        45.750    20469300.364 8  83818372.706 8        49.500  
G23  20343494.566 7 106905802.344 7        46.000    20343497.366 8  83303226.789 8        51.000  
G26  22646050.410 7 119005796.383 7        45.500    22646056.590 7  92731787.360 7        43.000  
G27  23181430.426 7 121819244.855 7        42.250    23181435.586 7  94924088.935 7        43.500  
G29  23203713.006 6 121936340.632 6        41.500    23203716.966 6  95015334.411 6        37.000  
R01  21079846.140 7 112683870.010 7        44.000    21079849.440 6  87643012.981 6        39.250  
R07  21956486.836 7 117534808.994 7        45.000    21956488.276 6  91415966.031 6        41.500  
R08  19791581.748 8 105983042.817 8        48.000    19791582.248 7  82431259.879 7        47.250  
R14  22599723.232 7 120469237.170 7        43.500    22599726.592 6  93698290.557 6        41.000  
R15  23405959.164 6 125074350.837 6        39.000    23405960.924 5  97280050.529 5        33.750  
R22  22824129.568 5 121836755.263 5        32.500    22824132.248 4  94761926.748 4        28.500  
R23  19645244.932 7 105088827.709 7        47.750                                                  
R24  20988014.840 8 112232362.109 8        50.500    20988016.000 7  87291842.965 7        44.000  
> 2021 11 07 02 00  0.0000000  0 18                     
G05  25128353.074 6 132050394.043 6        39.250    25128355.254 3 102896414.888 3        18.500  
G10  22115976.334 8 116220247.701 8        48.500    22115981.614 7  90561234.595 7        45.250  
G13  23761015.602 6 124864997.178 6        40.000    23761018.822 3  97297404.057 3        21.000  
G15  22180956.294 7 116561717.323 7        44.000    22180957.354 6  90827315.344 6        39.750  
G16  22372326.172 7 117567371.124 7        43.000    22372328.432 5  91610937.713 5        31.000  
G18  20478480.964 7 107615168.289 7        45.000    20478484.444 8  83855978.814 8        50.000  
G23  20333147.406 7 106851430.234 7        45.750    20333150.606 8  83260858.927 8        51.000  
G26  22671834.950 7 119141293.839 7        46.000    22671840.890 7  92837369.769 7        43.500  
G27  23145215.906 7 121628933.937 7        42.000    23145220.966 7  94775794.740 7        43.250  
G29  23240489.986 7 122129601.073 7        42.500    23240493.826 6  95165926.906 6        39.000  
R01  21037849.040 7 112459374.855 7        43.500    21037852.320 6  87468405.663 6        38.500  
R07  21991982.316 7 117724812.720 7        44.500    21991981.976 6  91563746.679 6        40.500  
R08  19787108.168 8 105959088.831 8        48.000    19787109.208 7  82412629.038 7        47.500  
R14  22622515.872 7 120590732.704 7        43.500    22622518.972 6  93792787.011 6        40.500  
R15  23393161.424 6 125005963.520 6        39.500    23393162.064 5  97226860.395 5        34.000  
R22  22856383.768 5 122008930.063 5        33.000    22856384.848 4  94895840.504 4        24.500  
R23  19643088.652 8 105077295.092 8        48.000                                                  
R24  20959681.664 8 112080849.777 8        51.500    20959682.104 7  87174000.048 7        44.000  
> 2021 11 07 02 01  0.0000000  0 18                     
G05  25170375.654 6 132271225.327 6        39.000    25170378.154 3 103068491.189 3        18.000  
G10  22085139.554 8 116058197.928 8        48.750    22085144.954 7  90434962.084 7        45.500  
G13  23769455.862 7 124909343.721 7        42.500    23769456.482 3  97331959.799 3        19.500  
G15  22180121.414 7 116557334.045 7        45.500    22180123.434 6  90823899.795 6        40.000  
G16  22372614.252 7 117568882.425 7        44.750    22372615.772 5  91612115.342 5        30.500  
G18  20487873.804 7 107664527.263 7        46.000    20487877.044 8  83894440.362 8        49.500  
G23  20323194.626 7 106799125.184 7        46.250    20323197.546 8  83220101.746 8        51.000  
G26  22697899.170 7 119278261.327 7        45.500    22697905.150 7  92944097.680 7        43.500  
G27  23109147.686 7 121439396.613 7        42.000    23109152.626 7  94628103.356 7        43.500  
G29  23277449.686 7 122323824.057 7        43.000    23277453.186 6  95317269.467 6        39.500  
R01  20996188.420 7 112236674.468 7        44.750    20996192.320 6  87295194.280 6        39.000  
R07  22027859.996 7 117916873.044 7        45.000    22027860.956 6  91713126.909 6        40.500  
R08  19783250.992 8 105938430.093 8        48.500    19783251.372 8  82396561.133 8        48.000  
R14  22645753.112 7 120714601.479 7        43.500    22645755.292 6  93889129.333 6        39.500  
R15  23380903.908 6 124940458.213 6        39.750    23380904.288 5  97175911.805 5        34.000  
R22  22888785.388 5 122181890.590 5        33.500    22888786.408 4  95030365.315 4        24.500  
R23  19641207.052 8 105067228.854 8        48.000                                                  
R24  20931469.824 8 111929991.909 8        50.500    20931471.104 7  87056666.159 7        44.000  
> 2021 11 07 02 02  0.0000000  0 17                     
G10  22054553.834 8 115897468.671 8        49.750    22054559.274 7  90309718.569 7        46.500  
G13  23778339.722 6 124956031.251 6        41.250    23778340.662 3  97368339.700 3        19.000  
G15  22179771.314 7 116555496.288 7        44.500    22179774.154 6  90822467.809 6        41.000  
G16  22373367.052 7 117572840.092 7        44.500    22373369.052 5  91615199.232 5        31.250  
G18  20497475.464 7 107714982.259 7        46.500    20497478.384 8  83933755.929 8        49.500  
G23  20313634.706 7 106748888.467 7        46.500    20313637.346 8  83180956.284 8        50.000  
G26  22724238.230 7 119416678.355 7        45.000    22724245.070 7  93051955.092 7        42.500  
G27  23073230.988 7 121250652.048 7        43.000    23073235.468 7  94481029.704 7        43.250  
G29  23314589.506 6 122519000.601 6        40.250    23314594.086 5  95469355.084 5        35.000  
R01  20954869.364 7 112015800.514 7        43.500    20954873.244 6  87123403.481 6        39.000  
R07  22064116.016 7 118110959.130 7        44.500    22064118.356 6  91864082.791 6        41.000  
R08  19780007.572 8 105921069.196 8        48.000    19780009.772 8  82383058.241 8        48.250  
R14  22669430.032 7 120840816.107 7        43.500    22669432.992 6  93987296.198 6        39.500  
R15  23369185.788 6 124877845.207 6        40.250    23369189.348 5  97127212.789 5        35.500  
R22  22921335.16815 122355636.66715        34.5001   22921335.488 4  95165500.303 4        26.000  
R23  19639601.832 8 105058640.164 8        48.500                                                  
R24  20903383.584 8 111779801.977 8        50.500    20903385.264 7  86939851.780 7        43.500  
> 2021 11 07 02 03  0.0000000  0 17                     
G10  22024221.194 8 115738070.269 8        49.000    22024226.634 7  90185512.054 7        46.000  
G13  23787669.082 6 125005055.298 6        41.500    23787670.142 3  97406540.295 3        20.000  
G15  22179906.794 7 116556207.297 7        45.500    22179910.274 6  90823021.824 6        41.500  
G16  22374584.772 7 117579240.536 7        44.000    22374587.192 5  91620186.555 5        31.750  
G18  20507284.224 7 107766529.966 7        45.500    20507287.524 8  83973922.984 8        49.500  
G23  20304468.206 8 106700719.706 8        48.000    20304471.126 8  83143422.184 8        50.500  
G26  22750850.030 7 119556522.878 7        42.500    22750856.570 7  93160924.805 7        42.500  
G27  23037468.248 6 121062718.023 6        41.500    23037472.828 7  94334587.630 7        42.500  
G29  23351909.606 6 122715118.309 6        41.000    23351914.226 6  95622174.048 6        37.500  
R01  20913897.324 7 111796783.954 7        45.250    20913901.184 6  86953057.322 6        39.500  
R07  22100746.436 7 118307039.278 7        43.500    22100748.776 7  92016589.536 7        42.000  
R08  19777380.852 8 105907005.873 8        48.500    19777383.492 8  82372120.113 8        48.250  
R14  22693542.572 7 120969347.723 7        43.500    22693545.592 6  94087265.147 6        40.750  
R15  23358011.628 6 124818134.065 6        40.500    23358014.948 5  97080770.774 5        35.000  
R22  22954028.228 5 122530163.294 5        35.500    22954029.348 3  95301243.207 3        22.000  
R23  19638273.912 8 105051538.244 8        49.000                                                  
R24  20875424.504 8 111630292.848 8        49.500    20875426.204 7  86823566.910 7        43.500  
> 2021 11 07 02 04  0.0000000  0 17                     
G10  21994143.334 8 115580012.996 8        48.750    21994149.094 7  90062350.561 7        45.500  
G13  23797441.462 7 125056411.060 7        42.250    23797444.242 3  97446557.762 3        21.500  
G15  22180528.254 7 116559469.308 7        45.500    22180531.114 6  90825563.706 6        41.000  
G16  22376266.932 7 117588080.003 7        43.000    22376269.632 5  91627074.452 5        31.000  
G18  20517301.064 7 107819167.315 7        45.000    20517304.264 8  84014939.102 8        50.000  
G23  20295695.326 7 106654618.351 7        47.000    20295698.646 8  83107499.066 8        51.250  
G26  22777729.070 7 119697772.816 7        43.250    22777735.470 7  93270989.692 7        43.000  
G27  23001863.248 7 120875612.645 7        42.500    23001867.628 7  94188791.279 7        42.000  
G29  23389407.084 7 122912164.606 7        43.750    23389411.244 6  95775716.599 6        40.000  
R01  20873279.024 7 111579655.135 7        44.500    20873282.644 6  86784179.381 6        39.250  
R07  22137743.576 7 118505081.494 7        45.000    22137744.156 7  92170622.359 7        42.250  
R08  19775372.172 8 105896240.299 8        49.500    19775373.152 8  82363746.924 8        48.000  
R14  22718084.792 7 121100167.005 7        44.750    22718087.292 6  94189013.429 6        41.000  
R15  23347382.208 6 124761332.583 6        41.500    23347383.948 5  97036591.812 5        35.000  
R22  22986868.528 5 122705468.615 5        32.500    22986870.168 4  95437591.746 4        26.000  
R23  19637226.712 8 105045933.122 8        48.500                                                  
R24  20847594.764 8 111481477.277 8        49.000    20847596.564 7  86707821.494 7        43.000  
> 2021 11 07 02 05  0.0000000  0 17                     
G10  21964324.234 8 115423308.915 8        49.000    21964328.994 7  89940243.516 7        45.500  
G13  23807657.562 6 125110095.009 6        41.000    23807659.622 3  97488389.432 3        21.500  
G15  22181634.914 7 116565286.908 7        44.000    22181636.794 6  90830096.931 6        40.000  
G16  22378412.712 7 117599357.327 7        42.500    22378415.012 5  91635861.962 5        30.000  
G18  20527524.344 7 107872893.169 7        44.500    20527528.164 8  84056803.400 8        49.500  
G23  20287316.666 7 106610585.484 7        47.500    20287319.746 8  83073187.765 8        52.000  
G26  22804871.168 7 119840407.890 7        42.500    22804878.308 7  93382133.876 7        43.000  
G27  22966419.588 7 120689355.998 7        43.500    22966424.108 7  94043656.254 7        43.500  
G29  23427078.984 6 123110129.704 6        41.500    23427082.964 6  95929975.106 6        37.000  
R01  20833020.064 7 111364446.291 7        45.000    20833023.704 6  86616794.774 6        39.500  
R07  22175099.536 7 118705055.865 7        45.000    22175100.456 6  92326157.990 6        40.000  
R08  19773977.212 8 105888772.582 8        48.500    19773978.392 8  82357938.685 8        48.000  
R14  22743050.672 7 121233246.175 7        42.750    22743052.712 6  94292519.399 6        40.750  
R15  23337297.928 6 124707450.573 6        41.000    23337301.268 6  96994683.568 6        37.000  
R22  23019855.528 5 122881551.557 5        34.000    23019857.548 4  95574545.097 4        27.000  
R23  19636460.452 7 105041835.779 7        47.750                                                  
R24  20819898.604 8 111333370.348 8        50.000    20819899.604 7  86592627.228 7        43.500  
> 2021 11 07 02 06  0.0000000  0 17                     
G10  21934763.454 8 115267967.242 8        49.000    21934768.794 7  89819198.104 7        45.500  
G13  23818314.802 6 125166101.919 6        41.000    23818317.902 3  97532031.175 3        20.000  
G15  22183227.814 7 116573660.862 7        44.500    22183230.614 6  90836622.103 6        40.500  
G16  22381020.792 6 117613065.986 6        41.500    22381023.992 4  91646544.009 4        29.250  
G18  20537954.724 7 107927703.756 7        45.000    20537957.944 8  84099512.948 8        49.250  
G23  20279330.546 8 106568619.262 8        48.500    20279333.306 8  83040486.821 8        51.500  
G26  22832273.828 7 119984405.040 7        43.000    22832279.668 7  93494339.462 7        43.000  
G27  22931141.168 7 120503965.491 7        43.500    22931145.688 7  93899196.131 7        42.250  
G29  23464921.964 6 123309000.341 6        41.250    23464926.664 6  96084939.180 6        37.250  
R01  20793124.644 7 111151186.964 7        44.500    20793128.724 6  86450926.450 6        38.750  
R07  22212811.272 7 118906929.473 7        46.500    22212812.492 6  92483170.807 6        40.500  
R08  19773197.012 8 105884600.440 8        48.250    19773199.172 8  82354693.717 8        48.000  
R14  22768433.372 6 121368554.644 6        41.500    22768436.292 6  94397759.227 6        40.500  
R15  23327763.248 7 124656494.387 7        42.000    23327766.328 6  96955050.955 6        37.000  
R22  23052986.148 5 123058408.643 5        34.000    23052988.108 4  95712100.574 4        24.250  
R23  19635978.012 8 105039254.917 8        48.000                                                  
R24  20792336.044 8 111185983.563 8        50.000    20792337.864 7  86477993.057 7        42.500  
> 2021 11 07 02 07  0.0000000  0 17                     
G10  21905464.154 8 115113997.267 8        49.000    21905468.834 7  89699221.541 7        45.250  
G13  23829412.622 6 125224423.175 6        41.000    23829416.402 3  97577476.271 3        19.750  
G15  22185308.472 7 116584592.439 7        45.500    22185311.772 6  90845140.215 6        41.500  
G16  22384091.652 6 117629201.246 6        41.000    22384094.232 4  91659116.937 4        28.500  
G18  20548590.484 7 107983595.531 7        46.000    20548594.184 8  84143064.970 8        49.250  
G23  20271737.586 7 106528717.660 7        47.000    20271740.606 8  83009394.678 8        51.000  
G26  22859930.188 6 120129741.317 6        41.500    22859937.008 7  93607588.497 7        44.000  
G27  22896030.208 7 120319458.983 7        43.000    22896034.988 6  93755424.855 6        41.500  
G29  23502935.644 6 123508764.713 6        41.250    23502939.764 6  96240599.705 6        36.000  
R01  20753601.204 7 110939906.718 7        45.250    20753604.204 6  86286597.397 6        38.750  
R07  22250871.712 7 119110669.653 7        46.000    22250872.852 6  92641635.394 6        41.500  
R08  19773034.592 8 105883721.339 8        48.500    19773034.932 7  82354009.980 7        47.500  
R14  22794228.608 7 121506061.643 7        43.750    22794231.788 6  94504709.071 6        40.250  
R15  23318775.528 6 124608470.319 6        41.000    23318778.968 6  96917698.872 6        37.500  
R22  23086262.168 5 123236035.477 5        33.500    23086263.608 3  95850254.732 3        22.500  
R23  19635781.772 8 105038199.535 8        48.750                                                  
R24  20764910.744 8 111039329.923 8        49.000    20764913.224 7  86363929.132 7        43.750  
> 2021 11 07 02 08  0.0000000  0 17                     
G10  21876427.496 8 114961409.727 8        48.500    21876432.796 7  89580322.189 7        45.500  
G13  23840950.942 6 125285054.897 6        39.750    23840953.762 3  97624721.739 3        19.500  
G15  22187875.392 7 116598082.142 7        46.000    22187879.152 7  90855651.667 7        42.000  
G16  22387622.812 7 117647758.274 7        42.500    22387625.792 4  91673576.971 4        29.500  
G18  20559432.064 7 108040566.503 7        46.000    20559435.344 8  84187457.939 8        49.500  
G23  20264537.446 7 106490880.080 7        47.000    20264540.326 8  82979910.880 8        51.500  
G26  22887837.668 7 120276395.166 7        42.000    22887844.088 7  93721864.172 7        43.000  
G27  22861092.408 7 120135855.866 7        43.500    22861096.648 6  93612357.511 6        41.250  
G29  23541117.684 6 123709410.433 6        41.000    23541121.104 6  96396946.997 6        36.250  
R01  20714452.124 7 110730636.284 7        45.000    20714455.764 6  86123831.539 6        39.500  
R07  22289274.772 7 119316245.180 7        44.000    22289276.232 6  92801527.445 6        41.000  
R08  19773484.412 8 105886132.777 8        49.000    19773485.232 7  82355885.559 7        47.500  
R14  22820432.908 7 121645737.799 7        45.000    22820435.628 6  94613346.011 6        41.000  
R15  23310339.248 6 124563384.793 6        40.750    23310342.128 6  96882632.335 6        36.000  
R22  23119681.608 5 123414430.092 5        33.750    23119682.708 4  95989006.064 4        25.000  
R23  19635871.312 8 105038679.995 8        49.000                                                  
R24  20737625.964 8 110893424.101 8        49.500    20737627.444 7  86250446.840 7        43.000  
> 2021 11 07 02 09  0.0000000  0 17                     
G10  21847656.316 8 114810214.921 8        48.500    21847661.336 7  89462508.098 7        45.000  
G13  23852926.882 6 125347990.631 6        38.750    23852929.502 3  97673762.604 3        19.750  
G15  22190930.092 7 116614132.778 7        46.500    22190933.232 6  90868158.646 6        41.500  
G16  22391614.492 7 117668732.117 7        43.500    22391616.952 4  91689920.223 4        29.000  
G18  20570478.484 7 108098614.573 7        45.500    20570481.244 8  84232690.196 8        49.750  
G23  20257729.706 7 106455105.388 7        47.500    20257732.606 8  82952034.509 8        52.250  
G26  22915991.208 7 120424344.769 7        42.500    22915997.928 7  93837149.561 7        43.000  
G27  22826329.088 7 119953175.459 7        43.250    22826333.788 6  93470009.169 6        41.000  
G29  23579465.404 7 123910926.300 7        42.500    23579468.944 6  96553972.335 6        38.250  
R01  20675685.584 7 110523405.964 7        46.000    20675689.404 6  85962652.445 6        40.000  
R07  22328015.392 7 119523624.493 7        46.250    22328015.992 6  92962822.452 6        41.500  
R08  19774549.132 8 105891831.675 8        49.500    19774549.432 7  82360318.033 7        47.500  
R14  22847037.028 7 121787553.084 7        43.000    22847040.328 6  94723646.712 6        41.500  
R15  23302453.228 6 124521244.189 6        40.000    23302455.208 6  96849856.282 6        36.500  
R22  23153244.108 5 123593589.979 5        30.500    23153245.668 3  96128352.564 3        23.000  
R23  19636249.432 8 105040706.437 8        48.500                                                  
R24  20710483.184 8 110748280.429 8        48.500    20710484.644 7  86137557.313 7        42.500  
> 2021 11 07 02 10  0.0000000  0 17                     
G10  21819151.296 7 114660422.124 7        47.500    21819156.896 7  89345786.487 7        45.500  
G13  23865340.222 6 125413223.627 6        39.500    23865343.142 3  97724593.527 3        18.000  
G15  22194470.912 7 116632743.541 7        45.000    22194475.012 7  90882660.562 7        42.000  
G16  22396064.392 7 117692117.487 7        42.500    22396066.732 4  91708142.565 4        29.500  
G18  20581728.864 7 108157736.857 7        47.250    20581731.684 8  84278759.516 8        48.500  
G23  20251314.086 7 106421391.398 7        47.500    20251317.326 8  82925763.849 8        52.500  
G26  22944387.768 6 120573567.363 6        41.000    22944394.048 7  93953426.891 7        42.500  
G27  22791745.468 7 119771436.261 7        44.750    22791749.868 6  93328394.238 6        41.000  
G29  23617975.864 6 124113299.718 6        41.500    23617979.864 6  96711665.873 6        38.000  
R01  20637305.624 7 110318245.512 7        45.250    20637310.284 6  85803083.225 6        40.500  
R07  22367086.052 7 119732775.445 7        46.000    22367087.392 6  93125495.402 6        41.000  
R08  19776226.372 8 105900813.063 8        49.000    19776226.272 7  82367303.579 7        46.500  
R14  22874035.008 7 121931476.270 7        43.000    22874040.048 6  94835586.899 6        41.250  
R15  23295118.248 6 124482053.313 6        40.500    23295120.708 6  96819374.519 6        36.250  
R22  23186949.608 5 123773511.533 5        34.000    23186951.268 4  96268291.420 4        24.500  
R23  19636919.612 8 105044288.410 8        48.500                                                  
R24  20683485.904 8 110603912.677 8        49.250    20683487.984 7  86025271.305 7        43.500  
> 2021 11 07 02 11  0.0000000  0 17                     
G10  21790915.436 8 114512041.478 8        48.000    21790920.956 7  89230165.264 7        45.750  
G13  23878188.962 6 125480746.511 6        39.000    23878192.282 3  97777208.722 3        19.500  
G15  22198499.692 7 116653914.957 7        45.000    22198503.572 6  90899157.815 6        41.250  
G16  22400971.892 7 117717907.157 7        44.000    22400974.292 4  91728238.397 4        29.000  
G18  20593183.884 7 108217931.328 7        47.000    20593185.924 8  84325664.288 8        48.000  
G23  20245290.406 8 106389736.384 8        48.000    20245293.446 8  82901097.622 8        52.000  
G26  22973021.968 6 120724040.969 6        41.000    22973028.188 7  94070679.034 7        42.500  
G27  22757344.530 7 119590657.875 7        45.000    22757348.830 6  93187527.921 6        41.500  
G29  23656646.544 6 124316518.516 6        40.250    23656649.904 5  96870018.144 5        35.000  
R01  20599318.824 7 110115184.205 7        44.500    20599323.264 6  85645146.705 6        40.500  
R07  22406482.672 7 119943666.524 7        45.500    22406483.692 6  93289521.764 6        41.000  
R08  19778515.572 8 105913072.999 8        49.500    19778516.232 7  82376839.107 7        47.500  
R14  22901425.288 7 122077476.876 7        42.000    22901428.568 6  94949142.870 6        39.750  
R15  23288338.508 6 124445817.403 6        41.250    23288339.528 5  96791191.009 5        34.750  
R22  23220798.788 5 123954192.483 5        32.500    23220799.08813  96408818.01713        21.7501 
R23  19637881.252 8 105049435.724 8        48.000                                                  
R24  20656636.124 8 110460335.064 8        48.750    20656637.844 7  85913599.833 7        43.000  
> 2021 11 07 02 12  0.0000000  0 17                     
G10  21762949.736 7 114365081.216 7        47.500    21762954.816 7  89115650.809 7        46.000  
G13  23891473.302 6 125550551.191 6        40.500    23891476.702 3  97831601.975 3        20.750  
G15  22203015.932 7 116677645.226 7        45.000    22203018.712 7  90917648.980 7        42.000  
G16  22406336.392 7 117746094.825 7        42.750    22406337.912 4  91750202.796 4        29.500  
G18  20604841.564 7 108279194.397 7        47.000    20604843.944 8  84373401.759 8        48.000  
G23  20239657.406 7 106360136.868 7        46.750    20239660.746 8  82878033.079 8        52.500  
G26  23001888.908 6 120875741.845 6        39.750    23001896.068 7  94188887.498 7        42.500  
G27  22723129.590 7 119410858.190 7        45.500    22723134.350 6  93047424.292 6        41.000  
G29  23695476.262 6 124520569.959 6        40.000    23695478.582 5  97029019.275 5        32.500  
R01  20561730.804 7 109914250.679 7        47.000    20561734.444 6  85488865.124 6        40.500  
R07  22446196.532 7 120156264.417 7        46.000    22446198.592 6  93454875.703 6        40.250  
R08  19781416.312 8 105928604.705 8        49.250    19781416.232 7  82388919.354 7        47.000  
R14  22929198.248 6 122225522.506 6        41.500    22929201.608 6  95064289.432 6        40.250  
R15  23282110.908 7 124412538.853 7        42.000    23282112.648 6  96765307.721 6        36.250  
R22  23254785.388 5 124135628.105 5        32.000                                                  
R23  19639137.232 7 105056156.940 7        47.000                                                  
R24  20629936.384 8 110317561.277 8        49.500    20629938.344 7  85802553.562 7        44.000  
> 2021 11 07 02 13  0.0000000  0 17                     
G10  21735256.396 8 114219550.474 8        48.250    21735261.516 7  89002250.281 7        45.500  
G13  23905188.942 6 125622629.344 6        39.500    23905192.962 3  97887766.753 3        20.500  
G15  22208018.192 7 116703932.858 7        45.500    22208020.092 6  90938132.853 6        40.000  
G16  22412155.132 7 117776672.616 7        44.000    22412156.832 4  91774029.627 4        29.000  
G18  20616702.384 7 108341523.587 7        47.000    20616704.904 8  84421969.970 8        48.000  
G23  20234415.386 7 106332590.112 7        47.000    20234418.526 8  82856568.088 8        52.750  
G26  23030985.328 6 121028647.221 6        39.000    23030992.788 7  94308034.529 7        42.500  
G27  22689104.790 7 119232056.244 7        45.500    22689109.310 6  92908098.158 6        41.500  
G29  23734461.902 6 124725441.272 6        40.500    23734466.022 5  97188659.248 5        34.500  
R01  20524546.284 7 109715473.520 7        47.000    20524548.924 6  85334260.671 6        41.000  
R07  22486224.912 7 120370536.910 7        45.500    22486226.292 6  93621532.089 6        41.000  
R08  19784927.072 8 105947401.851 8        50.000    19784925.852 7  82403539.352 7        47.000  
R14  22957348.248 7 122375581.480 7        43.000    22957352.608 6  95181001.923 6        39.750  
R15  23276437.388 6 124382220.638 6        41.000    23276440.408 6  96741726.869 6        38.000  
R22  23288916.088 5 124317814.973 5        33.000                                                  
R23  19640689.732 7 105064461.538 7        46.500                                                  
R24  20603391.084 8 110175605.966 8        49.000    20603391.744 7  85692143.869 7        44.000  
> 2021 11 07 02 14  0.0000000  0 17                     
G10  21707836.396 8 114075457.685 8        48.500    21707841.676 7  88889970.211 7        47.000  
G13  23919336.722 6 125696971.593 6        38.500    23919339.542 3  97945695.768 3        19.000  
G15  22213506.672 7 116732776.289 7        45.500    22213509.432 6  90960608.238 6        40.500  
G16  22418427.172 7 117809632.482 7        44.000    22418428.692 4  91799712.619 4        29.500  
G18  20628765.624 7 108404915.800 7        46.500    20628767.624 8  84471366.493 8        48.000  
G23  20229563.926 7 106307092.490 7        47.500    20229566.666 8  82836699.831 8        52.000  
G26  23060307.668 6 121182733.729 6        39.250    23060314.648 7  94428101.919 7        42.750  
G27  22655273.490 7 119054270.640 7        44.500    22655278.030 6  92769563.893 6        41.500  
G29  23773602.102 6 124931119.272 6        41.000    23773604.962 6  97348927.787 6        37.000  
R01  20487767.664 7 109518881.048 7        45.000    20487772.104 6  85181355.446 6        40.500  
R07  22526559.312 7 120586451.067 7        46.000    22526561.292 6  93789465.293 6        41.750  
R08  19789045.688 8 105969456.992 8        49.500    19789044.828 7  82420693.376 7        47.000  
R14  22985871.228 7 122527621.175 7        43.750    22985875.168 6  95299254.929 6        40.500  
R15  23271317.548 6 124354864.919 6        40.750    23271321.348 6  96720450.150 6        38.500  
R22  23323184.248 5 124500748.782 5        31.000    23323187.888 4  96833917.170 4        24.000  
R23  19642539.932 7 105074358.398 7        47.500                                                  
R24  20576999.924 8 110034483.525 8        49.000    20577001.184 7  85582382.000 7        44.250  
> 2021 11 07 02 15  0.0000000  0 17                     
G10  21680692.116 8 113932814.080 8        48.500    21680697.396 7  88778819.387 7        46.500  
G13  23933912.282 6 125773572.442 6        39.000    23933916.702 3  98005384.754 3        18.500  
G15  22219481.752 7 116764175.105 7        44.500    22219484.192 6  90985074.858 6        40.250  
G16  22425151.852 7 117844969.713 7        43.750    22425153.372 4  91827248.120 4        28.500  
G18  20641030.564 7 108469370.957 7        46.000    20641032.924 8  84521591.313 8        48.000  
G23  20225101.526 7 106283643.193 7        47.000    20225104.106 8  82818427.640 8        52.000  
G26  23089850.346 6 121337980.861 6        38.500    23089856.986 7  94549073.709 7        42.000  
G27  22621639.130 7 118877523.017 7        44.500    22621644.050 6  92631838.467 6        41.000  
G29  23812892.082 6 125137593.520 6        41.500    23812895.562 6  97509816.770 6        36.500  
R01  20451404.844 7 109324503.996 7        44.500    20451409.764 6  85030173.342 6        40.000  
R07  22567195.792 7 120803977.330 7        44.750    22567196.732 6  93958652.368 6        41.500  
R08  19793770.588 8 105994764.979 8        49.500    19793771.068 7  82440377.378 7        47.000  
R14  23014759.728 7 122681611.934 7        44.500    23014763.508 6  95419025.482 6        40.000  
R15  23266753.748 6 124330476.471 6        40.000    23266756.548 6  96701481.370 6        37.000  
R22  23357595.52815 124684425.58415        30.5001   23357597.84814  96976776.08014        24.5001 
R23  19644689.652 7 105085859.414 7        47.500                                                  
R24  20550767.784 8 109894210.967 8        49.000    20550769.644 7  85473281.134 7        44.500  
> 2021 11 07 02 16  0.0000000  0 17                     
G10  21653824.896 7 113791625.360 7        47.250    21653830.296 7  88668802.239 7        47.000  
G13  23948915.582 6 125852419.712 6        39.000    23948921.362 3  98066824.164 3        19.000  
G15  22225942.652 7 116798124.489 7        43.000    22225945.552 6  91011528.946 6        41.000  
G16  22432326.352 7 117882672.596 7        42.000    22432328.272 4  91856626.995 4        29.250  
G18  20653497.524 7 108534883.800 7        45.500    20653499.604 7  84572640.279 7        47.750  
G23  20221027.146 7 106262235.723 7        47.500    20221030.566 8  82801746.499 8        52.000  
G26  23119609.406 6 121494362.761 6        39.500    23119615.286 6  94670929.704 6        41.500  
G27  22588205.450 7 118701829.611 7        44.500    22588210.610 6  92494934.527 6        41.250  
G29  23852331.722 6 125344848.603 6        41.500    23852334.562 5  97671314.199 5        35.000  
R01  20415462.504 7 109132367.594 7        45.500    20415466.504 6  84880733.956 6        40.500  
R07  22608125.052 7 121023080.776 7        43.500    22608126.752 6  94129066.167 6        39.750  
R08  19799102.728 8 106023314.175 8        49.750    19799102.788 7  82462582.340 7        47.000  
R14  23044008.088 7 122837518.487 7        44.000    23044010.708 6  95540286.098 6        38.750  
R15  23262744.728 6 124309053.139 6        41.000    23262746.468 6  96684818.778 6        36.500  
R22  23392143.724 5 124868844.866 5        32.750                                                  
R23  19647141.172 7 105098970.774 7        47.000                                                  
R24  20524698.324 8 109754799.884 8        50.000    20524698.624 7  85364850.311 7        44.500  
> 2021 11 07 02 17  0.0000000  0 17                     
G10  21627236.136 8 113651902.331 8        48.000    21627241.496 7  88559927.166 7        47.000  
G13  23964347.602 6 125933505.952 6        39.500    23964350.702 3  98130008.237 3        20.000  
G15  22232887.832 7 116834623.824 7        45.250    22232891.152 6  91039970.035 6        41.500  
G16  22439949.472 7 117922733.951 7        43.750    22439952.012 5  91887843.618 5        30.000  
G18  20666164.664 7 108601454.205 7        45.750    20666167.724 8  84624513.300 8        48.000  
G23  20217341.666 7 106242868.563 7        47.500    20217344.926 8  82786655.236 8        52.000  
G26  23149579.806 6 121651858.657 6        40.250    23149585.326 6  94793653.748 6        41.000  
G27  22554977.230 7 118527212.123 7        43.750    22554982.030 6  92358868.987 6        41.500  
G29  23891917.282 6 125552873.733 6        39.000    23891920.682 5  97833411.662 5        33.250  
R01  20379944.548 7 108942501.989 7        46.500    20379948.468 6  84733060.733 6        41.000  
R07  22649343.772 7 121243731.213 7        44.000    22649346.832 6  94300683.170 6        41.500  
R08  19805037.728 8 106055098.058 8        48.500    19805037.448 7  82487303.163 7        46.000  
R14  23073608.448 7 122995310.657 7        44.000    23073612.988 6  95663013.259 6        38.500  
R15  23259290.528 6 124290598.398 6        39.250    23259291.768 5  96670465.070 5        35.750  
R22  23426830.624 5 125054001.904 5        31.750                                                  
R23  19649895.632 7 105113703.847 7        47.000                                                  
R24  20498791.284 8 109616268.563 8        49.500    20498792.924 7  85257103.753 7        45.750  
> 2021 11 07 02 18  0.0000000  0 17                     
G10  21600928.176 8 113513651.838 8        48.750    21600933.436 7  88452199.542 7        47.000  
G13  23980202.122 6 126016819.944 6        38.500    23980206.002 3  98194928.243 3        19.000  
G15  22240317.592 7 116873668.015 7        45.250    22240320.052 6  91070394.078 6        40.000  
G16  22448019.552 7 117965144.500 7        42.000    22448022.332 4  91920890.796 4        28.000  
G18  20679033.704 7 108669078.290 7        45.500    20679035.924 7  84677207.403 7        47.500  
G23  20214043.426 7 106225536.240 7        46.750    20214046.526 8  82773149.522 8        51.500  
G26  23179757.306 6 121810443.945 6        40.500    23179762.626 6  94917226.675 6        40.000  
G27  22521956.990 7 118353688.414 7        44.750    22521961.530 7  92223655.682 7        42.000  
G29  23931646.422 6 125761654.447 6        41.250    23931650.542 5  97996097.841 5        34.250  
R01  20344857.148 7 108754933.254 7        46.500    20344859.628 6  84587173.962 6        41.000  
R07  22690845.932 7 121465895.450 7        44.500    22690848.932 6  94473477.570 6        41.500  
R08  19811574.748 8 106090106.052 8        48.750    19811574.988 7  82514531.598 7        46.000  
R14  23103557.148 7 123154953.990 7        42.500    23103562.148 6  95787180.198 6        38.500  
R15  23256393.048 6 124275110.695 6        39.750    23256394.788 6  96658419.042 6        36.500  
R22  23461652.524 5 125239891.589 5        32.000    23461656.024 3  97408802.986 3        23.000  
R23  19652954.232 7 105130066.485 7        47.500                                                  
R24  20473052.684 8 109478630.138 8        50.000    20473053.704 7  85150051.654 7        45.500  
> 2021 11 07 02 19  0.0000000  0 17                     
G10  21574901.618 8 113376881.946 8        49.500    21574906.638 7  88345625.645 7        47.000  
G13  23996477.740 6 126102351.855 6        41.000    23996482.060 3  98261576.477 3        21.000  
G15  22248230.832 7 116915253.554 7        43.500    22248233.152 6  91102798.392 6        39.750  
G16  22456535.212 6 118009893.875 6        41.500    22456537.972 4  91955760.429 4        29.250  
G18  20692101.822 7 108737753.777 7        46.000    20692104.622 7  84730720.771 7        47.500  
G23  20211131.786 7 106210234.362 7        47.500    20211134.666 8  82761225.999 8        51.500  
G26  23210138.506 6 121970095.365 6        41.500    23210143.846 6  95041630.377 6        40.500  
G27  22489148.650 7 118181277.865 7        44.750    22489153.230 6  92089309.839 6        41.750  
G29  23971517.622 6 125971178.009 6        40.500    23971521.242 5  98159362.933 5        33.000  
R01  20310202.768 7 108569688.368 7        46.500    20310206.128 6  84443094.633 6        41.500  
R07  22732625.992 7 121689541.055 7        44.500    22732627.992 6  94647424.125 6        41.500  
R08  19818713.008 8 106128327.509 8        48.250    19818712.368 7  82544259.417 7        46.500  
R14  23133848.428 7 123316415.349 7        44.250    23133850.588 6  95912761.178 6        36.500  
R15  23254050.708 6 124262589.233 6        41.000    23254052.028 6  96648680.157 6        37.250  
R22  23496613.164 5 125426509.594 5        31.750    23496615.384 3  97553950.230 3        22.500  
R23  19656318.852 7 105148067.645 7        47.000                                                  
R24  20447483.524 8 109341900.397 8        50.000    20447484.884 7  85043706.310 7        46.000  
> 2021 11 07 02 20  0.0000000  0 17                     
G10  21549159.058 8 113241601.894 8        49.000    21549163.398 7  88240212.624 7        45.750  
G13  24013173.340 6 126190091.727 6        40.250    24013177.340 3  98329945.174 3        19.750  
G15  22256627.012 7 116959376.903 7        43.500    22256628.832 6  91137180.233 6        38.500  
G16  22465493.992 6 118056973.504 6        41.500    22465497.012 5  91992445.842 5        30.500  
G18  20705370.362 7 108807479.568 7        46.500    20705373.322 8  84785052.548 8        48.000  
G23  20208605.906 7 106196959.651 7        47.000    20208608.906 8  82750882.075 8        52.500  
G26  23240717.506 6 122130791.015 6        39.750    23240722.986 6  95166847.711 6        39.500  
G27  22456554.692 7 118010001.230 7        44.000    22456560.272 7  91955847.526 7        42.000  
G29  24011527.360 6 126181432.798 6        39.500    24011531.040 5  98323197.782 5        31.500  
R01  20275988.608 7 108386795.739 7        46.250    20275991.708 6  84300844.869 6        40.000  
R07  22774675.832 7 121914636.895 7        43.500    22774678.112 7  94822498.656 7        42.000  
R08  19826448.128 8 106169752.691 8        48.500    19826448.148 7  82576479.026 7        46.500  
R14  23164471.108 7 123479663.001 7        43.000    23164476.328 6  96039731.500 6        36.000  
R15  23252261.088 6 124253034.513 6        39.000    23252263.848 6  96641248.715 6        37.000  
R22  23531709.124 5 125613852.840 5        33.250    23531711.664 3  97699661.428 3        22.500  
R23  19659991.992 7 105167717.486 7        47.500                                                  
R24  20422087.844 8 109206096.098 8        50.500    20422088.824 7  84938080.760 7        46.000  
> 2021 11 07 02 21  0.0000000  0 17                     
G10  21523699.698 8 113107816.403 8        48.000    21523705.278 7  88135964.224 7        46.500  
G13  24030288.060 6 126280026.062 6        40.000    24030290.820 3  98400023.834 3        21.000  
G15  22265505.172 7 117006030.729 7        45.000    22265508.152 6  91173533.849 6        39.750  
G16  22474894.372 7 118106370.580 7        43.750    22474897.172 5  92030937.049 5        31.000  
G18  20718838.282 7 108878250.345 7        47.250    20718840.702 8  84840198.606 8        48.000  
G23  20206463.846 7 106185704.161 7        47.000    20206466.886 8  82742111.577 8        52.500  
G26  23271490.566 6 122292504.518 6        41.000    23271496.106 6  95292858.188 6        39.750  
G27  22424181.372 7 117839874.801 7        43.500    22424186.312 7  91823281.510 7        43.250  
G29  24051674.000 6 126392402.248 6        40.000    24051677.480 5  98487589.529 5        32.250  
R01  20242218.768 7 108206278.612 7        46.000    20242222.868 6  84160442.692 6        41.250  
R07  22816990.668 7 122141147.759 7        43.750    22816991.688 6  94998673.754 6        41.250  
R08  19834780.008 8 106214367.147 8        49.000    19834779.688 7  82611179.162 7        46.250  
R14  23195425.188 7 123644660.263 7        43.000    23195428.868 6  96168062.660 6        36.000  
R15  23251028.648 6 124246441.305 6        39.000    23251029.948 6  96636120.642 6        37.000  
R22  23566936.884 5 125801914.313 5        31.000                                                  
R23  19663975.072 7 105189022.013 7        47.000                                                  
R24  20396866.244 8 109071229.898 8        49.500    20396868.524 7  84833184.828 7        46.500  
> 2021 11 07 02 22  0.0000000  0 17                     
G10  21498528.058 8 112975534.984 8        49.000    21498532.998 7  88032887.800 7        46.500  
G13  24047818.020 6 126372145.421 6        40.250    24047820.320 3  98471805.168 3        21.000  
G15  22274864.652 7 117055211.747 7        45.500    22274867.372 6  91211856.726 6        40.250  
G16  22484733.490 7 118158076.295 7        43.000    22484736.370 5  92071227.199 5        30.500  
G18  20732504.522 7 108950065.802 7        47.500    20732507.182 8  84896158.700 8        48.000  
G23  20204705.646 7 106176464.784 7        47.000    20204708.726 8  82734912.085 8        51.500  
G26  23302453.486 6 122455214.455 6        40.500    23302459.226 6  95419645.156 6        39.750  
G27  22392030.332 7 117670920.122 7        44.000    22392035.212 7  91691628.546 7        43.000  
G29  24091954.240 6 126604075.008 6        41.500    24091958.200 5  98652529.313 5        35.000  
R01  20208899.288 7 108028165.556 7        46.500    20208902.448 6  84021910.351 6        40.500  
R07  22859562.848 7 122369044.037 7        43.250    22859565.008 6  95175926.411 6        41.500  
R08  19843704.968 8 106262160.952 8        48.500    19843705.148 7  82648352.147 7        46.500  
R14  23226700.248 7 123811375.659 7        42.250    23226705.308 6  96297730.159 6        38.000  
R15  23250347.448 6 124242809.352 6        39.750    23250349.948 6  96633295.787 6        36.750  
R22  23602303.404 5 125990691.791 5        31.000    23602305.844 3  97992765.221 3        22.000  
R23  19668269.452 7 105211991.739 7        47.500                                                  
R24  20371824.368 8 108937319.990 8        49.000    20371826.968 7  84729032.704 7        46.500  
> 2021 11 07 02 23  0.0000000  0 17                     
G10  21473643.058 8 112844765.810 8        48.500    21473648.558 7  87930989.797 7        47.500  
G13  24065761.140 6 126466439.008 6        40.000    24065764.640 3  98545280.640 3        20.500  
G15  22284703.492 7 117106915.147 7        44.000    22284707.412 6  91252145.099 6        41.000  
G16  22495010.570 7 118212080.353 7        43.500    22495012.890 5  92113308.258 5        30.250  
G18  20746368.942 7 109022924.414 7        47.000    20746371.122 8  84952931.634 8        48.000  
G23  20203330.626 7 106169236.895 7        46.500    20203333.286 8  82729279.974 8        52.000  
G26  23333601.466 6 122618898.195 6        40.750    23333606.966 6  95547190.870 6        39.500  
G27  22360105.872 7 117503157.500 7        44.000    22360110.552 7  91560904.441 7        43.000  
G29  24132366.720 6 126816438.882 6        41.000    24132369.940 5  98818007.579 5        34.000  
R01  20176034.068 7 107852482.914 7        46.000    20176036.948 6  83885268.302 6        40.250  
R07  22902389.548 7 122598294.179 7        43.750    22902391.008 6  95354232.072 6        41.000  
R08  19853221.028 7 106313121.699 7        47.500    19853221.888 7  82687988.296 7        46.500  
R14  23258292.468 7 123979776.512 7        42.500    23258295.768 6  96428708.530 6        37.500  
R15  23250221.968 6 124242136.343 6        38.750    23250223.808 6  96632772.300 6        36.750  
R22  23637802.124 5 126180181.087 5        31.500    23637804.10413  98140147.62813        22.0001 
R23  19672875.812 7 105236635.984 7        47.000                                                  
R24  20346965.068 8 108804383.077 8        49.750    20346967.148 7  84625637.336 7        46.000  
> 2021 11 07 02 24  0.0000000  0 17                     
G08  25109701.114 5 131952373.940 5        34.500    25109706.834 5 102820031.277 5        34.500  
G10  21449047.378 8 112715515.632 8        49.000    21449053.118 8  87830275.389 8        48.000  
G13  24084116.140 6 126562894.545 6        40.250    24084119.680 3  98620440.789 3        20.500  
G15  22295020.772 7 117161134.047 7        43.500    22295024.092 6  91294393.594 6        40.500  
G16  22505721.790 7 118268370.456 7        42.500    22505725.010 4  92157170.666 4        29.250  
G18  20760431.062 7 109096823.548 7        46.750    20760434.302 8  85010515.362 8        48.000  
G23  20202336.386 7 106164014.515 7        47.000    20202339.546 8  82725210.591 8        51.500  
G26  23364930.606 7 122783531.782 7        42.750    23364935.806 6  95675476.815 6        39.000  
G27  22328413.112 7 117336605.979 7        45.000    22328416.552 7  91431124.034 7        43.000  
G29  24172907.040 6 127029479.688 6        40.000    24172909.780 5  98984013.314 5        34.000  
R01  20143627.988 7 107679255.657 7        45.250    20143631.668 6  83750536.018 6        40.500  
R07  22945461.888 7 122828865.457 7        42.500    22945463.548 7  95533565.243 7        42.000  
R08  19863325.968 7 106367235.761 7        47.500    19863327.088 7  82730077.003 7        47.250  
R14  23290194.288 7 124149828.041 7        44.500    23290196.828 6  96560970.820 6        36.500  
R15  23250649.568 6 124244417.890 6        41.000    23250651.088 6  96634546.831 6        37.500  
R23  19677796.552 7 105262963.142 7        47.750                                                  
R24  20322290.168 8 108672435.519 8        50.000    20322291.888 7  84523011.460 7        46.500  
> 2021 11 07 02 25  0.0000000  0 18                     
G08  25069803.454 5 131742704.328 5        32.500    25069808.354 6 102656652.330 6        36.000  
G10  21424742.518 8 112587791.995 8        48.500    21424747.758 7  87730750.506 7        47.000  
G13  24102879.500 6 126661500.131 6        39.500    24102883.060 3  98697276.310 3        19.750  
G15  22305815.332 7 117217862.914 7        43.500    22305818.352 6  91338597.935 6        39.000  
G16  22516866.750 7 118326935.304 7        42.000    22516869.290 5  92202805.584 5        30.000  
G18  20774691.042 7 109171761.546 7        46.500    20774694.382 8  85068908.577 8        48.000  
G23  20201723.666 7 106160792.256 7        47.000    20201726.446 8  82722699.752 8        52.000  
G26  23396435.104 7 122949092.334 7        42.000    23396441.164 6  95804484.986 6        40.000  
G27  22296952.232 7 117171285.695 7        45.000    22296957.252 7  91302303.019 7        43.000  
G29  24213573.520 6 127243184.623 6        39.500    24213576.180 5  99150536.546 5        32.500  
R01  20111686.708 7 107508509.868 7        45.500    20111690.688 6  83617733.775 6        41.250  
R07  22988775.648 7 123060727.141 7        43.000    22988777.068 6  95713902.081 6        41.000  
R08  19874017.908 7 106424489.742 7        47.500    19874018.928 7  82774607.868 7        47.500  
R14  23322398.688 7 124321496.737 7        42.500    23322402.368 6  96694490.852 6        37.500  
R15  23251628.788 6 124249650.572 6        41.500    23251629.928 6  96638616.694 6        37.000  
R22  23709193.564 5 126561276.789 5        30.500                                                  
R23  19683034.792 7 105290981.843 7        47.250                                                  
R24  20297803.688 8 108541493.031 8        50.500    20297805.248 7  84421167.313 7        47.000  
> 2021 11 07 02 26  0.0000000  0 18                     
G08  25029951.254 5 131533292.573 5        31.500    25029958.454 6 102493474.282 6        36.500  
G10  21400729.038 8 112461599.715 8        49.000    21400734.478 8  87632418.898 8        48.500  
G13  24122050.240 6 126762241.591 6        38.500    24122053.760 3  98775776.081 3        18.000  
G15  22317085.912 6 117277092.626 6        41.500    22317088.272 6  91384750.955 6        37.750  
G16  22528441.850 7 118387761.909 7        43.250    22528444.690 4  92250202.918 4        29.500  
G18  20789148.002 7 109247734.183 7        46.500    20789150.962 7  85128108.036 7        47.000  
G23  20201489.426 7 106159562.052 7        47.000    20201492.246 8  82721741.158 8        52.000  
G26  23428111.924 7 123115554.230 7        42.500    23428118.444 6  95934195.558 6        40.500  
G27  22265730.952 7 117007214.179 7        45.000    22265735.632 7  91174455.117 7        44.000  
G29  24254363.040 6 127457538.566 6        39.500    24254366.320 5  99317565.500 5        30.500  
R01  20080214.068 7 107340267.852 7        46.000    20080217.388 7  83486878.917 7        42.000  
R07  23032324.428 7 123293845.082 7        43.250    23032325.448 6  95895216.023 6        40.750  
R08  19885294.048 8 106484866.916 8        48.250    19885294.588 8  82821567.876 8        48.000  
R14  23354898.508 7 124494746.576 7        43.000    23354903.788 6  96829240.680 6        36.500  
R15  23253158.328 6 124257827.301 6        40.750    23253159.928 6  96644976.350 6        36.000  
R22  23745086.384 5 126752872.158 5        31.750    23745088.904 3  98585572.495 3        22.500  
R23  19688591.272 8 105320698.508 8        48.250                                                  
R24  20273507.308 8 108411570.989 8        51.000    20273509.168 7  84320116.852 7        47.500  
> 2021 11 07 02 27  0.0000000  0 18                     
G08  24990154.474 5 131324155.633 5        31.500    24990161.474 6 102330510.404 6        36.000  
G10  21377008.438 8 112336946.064 8        49.250    21377013.678 7  87535286.216 7        47.750  
G13  24141625.200 6 126865105.939 6        41.000    24141627.560 3  98855930.077 3        20.750  
G15  22328832.152 7 117338816.305 7        43.000    22328833.172 6  91432847.326 6        37.000  
G16  22540444.390 7 118450837.395 7        42.750    22540447.330 4  92299352.633 4        28.500  
G18  20803802.022 7 109324739.843 7        46.500    20803804.302 7  85188112.427 7        47.500  
G23  20201633.266 7 106160318.133 7        47.500    20201636.486 8  82722330.328 8        52.000  
G26  23459955.204 7 123282894.505 7        43.000    23459961.924 6  96064590.574 6        39.750  
G27  22234750.892 7 116844411.617 7        44.750    22234755.732 7  91047595.992 7        45.000  
G29  24295274.258 6 127672527.905 6        40.500    24295277.798 5  99485089.619 5        31.000  
R01  20049212.648 7 107174554.714 7        45.500    20049216.788 6  83357990.967 6        41.000  
R07  23076101.008 7 123528187.701 7        42.250    23076102.508 6  96077482.481 6        41.000  
R08  19897149.508 8 106548352.808 8        48.000    19897149.828 7  82870945.813 7        46.750  
R14  23387691.884 7 124669543.860 7        42.500    23387695.024 6  96965194.060 6        36.500  
R15  23255238.448 6 124268942.752 6        41.000    23255241.788 6  96653621.709 6        37.000  
R22  23781109.364 5 126945158.898 5        32.000    23781111.544 3  98735128.670 3        23.000  
R23  19694466.072 8 105352122.071 8        48.250                                                  
R24  20249405.448 8 108282685.852 8        51.000    20249406.468 7  84219872.857 7        47.000  
> 2021 11 07 02 28  0.0000000  0 18                     
G08  24950413.294 4 131115310.462 4        29.000                                                  
G10  21353581.618 8 112213837.990 8        49.250    21353586.498 7  87439357.894 7        47.500  
G13  24161600.940 7 126970081.407 7        42.000    24161603.860 3  98937729.154 3        19.000  
G15  22341051.712 7 117403026.869 7        43.000    22341052.252 6  91482881.439 6        37.000  
G16  22552873.210 7 118516149.417 7        42.000    22552875.150 4  92350245.087 4        29.500  
G18  20818651.982 7 109402776.926 7        46.500    20818654.382 7  85248920.547 7        47.000  
G23  20202153.926 7 106163054.462 7        46.500    20202156.926 8  82724462.541 8        52.000  
G26  23491961.684 6 123451090.131 6        41.500    23491968.444 6  96195652.072 6        38.750  
G27  22204015.772 7 116682898.180 7        45.000    22204020.772 7  90921741.372 7        45.750  
G29  24336304.818 6 127888139.527 6        40.750    24336307.878 5  99653098.606 5        32.500  
R01  20018690.668 7 107011395.143 7        46.000    20018694.248 6  83231089.095 6        41.500  
R07  23120101.328 7 123763724.109 7        43.000    23120103.008 6  96260677.453 6        40.500  
R08  19909582.168 8 106614931.767 8        49.000    19909582.888 7  82922729.456 7        47.000  
R14  23420767.504 7 124845854.647 7        42.250    23420770.204 6  97102324.652 6        36.500  
R15  23257868.248 6 124282991.526 6        41.250    23257871.368 6  96664548.543 6        38.000  
R22  23817257.664 5 127138133.098 5        31.500    23817261.46413  98885221.49613        22.5001 
R23  19700660.952 8 105385260.903 8        48.500                                                  
R24  20225500.008 8 108154855.135 8        50.500    20225501.148 7  84120448.983 7        47.000  
> 2021 11 07 02 29  0.0000000  0 19                     
G08  24910728.694 4 130906772.670 4        29.750                                                  
G10  21330450.298 8 112092280.467 8        49.500    21330455.338 8  87344637.761 8        48.000  
G13  24181976.120 6 127077152.497 6        41.750    24181978.160 3  99021161.187 3        19.000  
G15  22353742.912 7 117469715.040 7        45.250    22353744.952 6  91534846.232 6        38.750  
G16  22565724.090 7 118583683.691 7        43.000    22565726.050 4  92402869.188 4        29.000  
G18  20833697.662 7 109481842.027 7        47.000    20833700.322 8  85310529.711 8        48.000  
G23  20203050.146 7 106167762.955 7        46.500    20203052.766 8  82728131.507 8        51.500  
G26  23524126.944 7 123620116.153 7        42.250    23524132.684 6  96327360.681 6        38.750  
G27  22173529.714 7 116522692.092 7        45.500    22173534.334 7  90796905.500 7        45.250  
G29  24377448.758 6 128104358.860 6        40.000    24377453.278 5  99821581.097 5        33.000  
R01  19988650.448 7 106850810.973 7        47.000    19988653.928 7  83106190.304 7        42.000  
R07  23164318.348 7 124000421.469 7        42.500    23164319.908 6  96444775.377 6        41.000  
R08  19922590.468 8 106684586.039 8        49.500    19922589.848 7  82976905.015 7        46.250  
R14  23454118.864 7 125023642.835 7        42.000    23454123.484 5  97240604.312 5        35.750  
R15  23261044.228 6 124299965.562 6        40.500    23261046.848 6  96677750.545 6        36.500  
R17  24015461.440 6 128511584.938 6        40.000    24015463.720 6  99953455.443 6        38.000  
R22  23853537.464 5 127331787.579 5        31.500    23853540.18413  99035854.46713        22.5001 
R23  19707176.192 7 105420121.758 7        47.500                                                  
R24  20201794.828 8 108028094.735 8        51.250    20201796.388 7  84021857.577 7        46.750  
> 2021 11 07 02 30  0.0000000  0 19                     
G08  24871109.396 5 130698560.334 5        31.500                                                  
G10  21307615.198 8 111972281.491 8        50.000    21307620.118 8  87251132.105 8        48.250  
G13  24202747.380 6 127186307.527 6        40.500    24202750.720 3  99106217.050 3        18.000  
G15  22366902.972 7 117538873.882 7        46.250    22366906.132 6  91588736.248 6        40.500  
G16  22578995.610 7 118653428.740 7        43.250    22578997.970 5  92457215.949 5        30.500  
G18  20848938.202 7 109561934.879 7        46.750    20848941.622 8  85372939.703 8        48.000  
G23  20204319.966 7 106174438.400 7        46.250    20204322.986 8  82733333.169 8        51.500  
G26  23556445.004 6 123789950.796 6        41.000    23556451.944 6  96459699.352 6        39.500  
G27  22143296.294 7 116363814.849 7        46.000    22143300.894 7  90673105.064 7        45.250  
G29  24418707.898 6 128321173.631 6        38.500    24418711.578 5  99990527.536 5        30.500  
R01  19959096.048 7 106692827.850 7        46.750    19959100.228 7  82983314.565 7        42.500  
R07  23208746.408 7 124238250.460 7        43.000    23208748.248 6  96629753.470 6        39.500  
R08  19936168.848 8 106757301.508 8        48.250    19936169.008 7  83033461.491 7        46.500  
R14  23487743.984 7 125202875.610 7        44.000    23487746.524 6  97380007.577 6        36.000  
R15  23264766.548 6 124319859.293 6        40.250    23264769.488 6  96693223.442 6        36.500  
R17  23975949.044 6 128300144.197 6        37.500    23975950.264 6  99789001.575 6        38.000  
R22  23889943.604 5 127526119.742 5        32.750                                                  
R23  19714016.472 7 105456714.261 7        47.000                                                  
R24  20178293.828 8 107902423.195 8        51.000    20178295.048 7  83924113.082 7        46.000  
