     3.02           OBSERVATION DATA    G                   RINEX VERSION / TYPE
HIVE                geosystems.aero     18-JAN-22 05:38     PGM / RUN BY / DATE 
SRGU                                                        MARKER NAME         
774                                                         MARKER NUMBER       
                                                            MARKER TYPE         
geosystems.aero     Industrial Geodetic Systems             OBSERVER / AGENCY   
201130018           ASHTECH PF500       S765G124            REC # / TYPE / VERS 
                    JNSMARANT_GGD   NONE                    ANT # / TYPE        
   877238.6370  2946245.4312  5569758.2290                  APPROX POSITION XYZ 
        0.0000        0.0000        0.0000                  ANTENNA: DELTA H/E/N
G  6   C1C L1C S1C C2D L2D S2D                              SYS / # / OBS TYPES 
    60.000                                                  INTERVAL            
  2021    11    07    00    00   00.0000000     GPS         TIME OF FIRST OBS   
  2021    11    07    23    59   00.0000000     GPS         TIME OF LAST OBS    
 C1C    0.000 C1P    0.000 C2C    0.000 C2P    0.000        GLONASS COD/PHS/BIS 
    18                                                      LEAP SECONDS        
    29                                                      # OF SATELLITES     
   G01   259   259   259   259   259   259                  PRN / # OF OBS      
   G02   203   203   203   203   203   203                  PRN / # OF OBS      
   G04   248   248   248   248   248   248                  PRN / # OF OBS      
   G05   183   183   183   183   183   183                  PRN / # OF OBS      
   G06   181   181   181   181   181   181                  PRN / # OF OBS      
   G07   206   206   206   206   206   206                  PRN / # OF OBS      
   G08   223   223   223   223   223   223                  PRN / # OF OBS      
   G09   178   178   178   178   178   178                  PRN / # OF OBS      
   G10   335   335   335   335   335   335                  PRN / # OF OBS      
   G12   183   183   183   183   183   183                  PRN / # OF OBS      
   G13   248   248   248   247   247   247                  PRN / # OF OBS      
   G14   112   112   112   107   107   107                  PRN / # OF OBS      
   G15   274   274   274   274   274   274                  PRN / # OF OBS      
   G16   328   328   328   328   328   328                  PRN / # OF OBS      
   G17   159   159   159   159   159   159                  PRN / # OF OBS      
   G18   292   292   292   292   292   292                  PRN / # OF OBS      
   G19   125   125   125   125   125   125                  PRN / # OF OBS      
   G20   161   161   161   161   161   161                  PRN / # OF OBS      
   G21   288   288   288   286   286   286                  PRN / # OF OBS      
   G22   316   316   316   316   316   316                  PRN / # OF OBS      
   G23   355   355   355   354   354   354                  PRN / # OF OBS      
   G24   237   237   237   237   237   237                  PRN / # OF OBS      
   G25   209   209   209   209   209   209                  PRN / # OF OBS      
   G26   333   333   333   333   333   333                  PRN / # OF OBS      
   G27   284   284   284   284   284   284                  PRN / # OF OBS      
   G29   297   297   297   297   297   297                  PRN / # OF OBS      
   G30   143   143   143   143   143   143                  PRN / # OF OBS      
   G31   317   317   317   317   317   317                  PRN / # OF OBS      
   G32   351   351   351   351   351   351                  PRN / # OF OBS      
                                                            END OF HEADER       
> 2021 11 07 00 00  0.0000000  0 10                     
G02  23470382.284 7 123337696.332 7        44.750    23470378.804 5  96107297.745 5        33.500  
G05  20540920.124 8 107943309.945 8        48.250    20540918.604 8  84111664.266 8        52.500  
G09  24750257.996 6 130063483.192 6        40.500    24750258.856 4 101348167.871 4        28.000  
G13  24756283.076 6 130095147.836 6        40.250    24756282.156 3 101372845.336 3        21.750  
G16  24436973.598 7 128417176.597 7        44.000    24436972.338 4 100065334.340 4        26.750  
G18  22655259.950 7 119054204.787 7        46.250    22655259.130 5  92769507.468 5        34.250  
G20  21195206.100 8 111381577.547 8        48.250    21195204.440 6  86790843.152 6        39.250  
G25  24554239.898 6 129033413.032 6        41.500    24554242.558 6 100545516.282 6        41.000  
G26  22682374.510 7 119196698.484 7        43.500    22682376.630 7  92880549.148 7        43.250  
G29  20520053.004 8 107833619.364 8        49.250    20520051.784 9  84026201.150 9        54.000  
> 2021 11 07 00 01  0.0000000  0 10                     
G02  23502337.884 7 123505624.175 7        44.750    23502334.72415  96238143.58115        32.5001 
G05  20534180.124 8 107907891.279 8        48.500    20534178.58418  84084033.31318        52.5001 
G09  24779252.316 6 130215849.732 6        38.000    24779253.71613 101466895.24613        19.2501 
G13  24714441.436 6 129875268.563 6        41.000    24714440.03614 101201507.87114        24.0001 
G16  24402951.578 7 128238389.869 7        42.250    24402950.09813  99926009.94813        23.5001 
G18  22619192.230 7 118864667.749 7        44.250    22619191.67015  92621815.32815        32.7501 
G20  21214346.300 8 111482159.609 8        48.500    21214344.86016  86869200.78216        39.5001 
G25  24598392.136 6 129265434.206 6        41.750    24598394.71616 100726304.93216        41.5001 
G26  22676816.370 6 119167490.275 6        41.250    22676817.89016  92857768.49616        41.2501 
G29  20527770.624 8 107874175.600 8        49.500    20527769.12419  84057788.41219        54.2501 
> 2021 11 07 00 02  0.0000000  0 10                     
G02  23534421.304 7 123674223.659 7        44.500    23534417.924 5  96369519.759 5        32.500  
G05  20527911.944 8 107874951.911 8        48.500    20527910.444 8  84058366.281 8        52.500  
G09  24808568.476 7 130369907.628 7        42.000    24808569.796 4 101586940.215 4        29.250  
G13  24672687.796 6 129655851.759 6        41.500    24672686.656 4 101030533.742 4        25.750  
G16  24369231.898 6 128061191.708 6        39.750    24369230.938 3  99787933.679 3        23.500  
G18  22583294.850 7 118676026.152 7        44.000    22583294.390 5  92474821.928 5        33.000  
G20  21233857.820 8 111584693.354 8        48.500    21233856.460 6  86949097.205 6        39.250  
G25  24642599.016 6 129497742.629 6        40.500    24642601.676 6 100907324.419 6        39.750  
G26  22671721.210 6 119140715.251 6        41.250    22671722.850 7  92836904.823 7        42.250  
G29  20535920.924 8 107917005.773 8        49.500    20535919.504 9  84091162.573 9        54.500  
> 2021 11 07 00 03  0.0000000  0 10                     
G02  23566631.464 7 123843488.919 7        46.750    23566628.044 5  96501414.744 5        34.250  
G05  20522116.364 8 107844495.982 8        48.500    20522114.884 8  84034634.390 8        52.750  
G09  24838203.196 6 130525639.070 6        38.000    24838204.596 3 101708289.415 3        21.500  
G13  24631027.196 6 129436923.920 6        41.250    24631026.196 4 100859940.649 4        25.750  
G16  24335818.958 6 127885605.914 6        41.250    24335817.798 4  99651113.736 4        25.500  
G18  22547570.590 7 118488294.079 7        46.500    22547570.070 5  92328537.242 5        34.750  
G20  21253738.500 8 111689167.101 8        48.000    21253737.160 6  87030505.321 6        38.750  
G25  24686856.696 5 129730318.055 5        35.500    24686859.376 5 101088551.938 5        33.500  
G26  22667090.130 7 119116378.754 7        43.750    22667092.090 7  92817941.333 7        44.750  
G29  20544504.004 8 107962110.216 8        49.500    20544502.644 9  84126308.881 9        54.500  
> 2021 11 07 00 04  0.0000000  0  9                     
G02  23598965.304 7 124013404.269 7        43.750    23598961.904 5  96633816.263 5        32.750  
G05  20516792.344 8 107816518.018 8        49.250    20516790.884 8  84012833.377 8        53.000  
G09  24868151.136 6 130683016.518 6        38.000    24868152.416 4 101830921.200 4        25.500  
G13  24589463.256 6 129218504.109 6        40.750    24589462.396 4 100689743.478 4        24.750  
G16  24302715.898 6 127711648.622 6        41.750    24302714.678 4  99515562.722 4        26.000  
G18  22512020.430 7 118301476.838 7        47.000    22512019.890 5  92182965.406 5        35.750  
G20  21273984.460 8 111795560.342 8        48.000    21273983.120 6  87113409.131 6        38.500  
G26  22662922.390 7 119094477.027 7        45.000    22662924.330 7  92800875.089 7        45.250  
G29  20553518.204 8 108009480.038 8        50.000    20553516.844 9  84163220.427 9        54.500  
> 2021 11 07 00 05  0.0000000  0 10                     
G02  23631423.344 7 124183972.155 7        45.750    23631419.924 5  96766726.257 5        32.750  
G05  20511941.944 8 107791028.818 8        49.750    20511940.444 8  83992971.651 8        53.250  
G09  24898410.394 6 130842029.915 6        40.500    24898411.674 3 101954827.629 3        23.250  
G13  24548002.778 6 129000628.014 6        38.750    24548002.018 4 100519969.991 4        24.000  
G16  24269928.920 7 127539352.226 7        42.000    24269927.540 4  99381305.848 4        24.250  
G18  22476648.592 7 118115596.601 7        47.750    22476648.012 6  92038123.673 6        36.000  
G20  21294594.878 8 111903868.940 8        48.000    21294593.558 6  87197805.439 6        38.500  
G25  24775506.016 6 130196171.400 6        38.250    24775508.656 5 101451554.178 5        30.500  
G26  22659220.410 7 119075022.807 7        45.250    22659222.350 7  92785715.973 7        45.500  
G29  20562965.064 8 108059123.591 8        49.250    20562963.724 9  84201903.717 9        54.500  
> 2021 11 07 00 06  0.0000000  0 10                     
G02  23664003.084 7 124355179.610 7        45.000    23663999.564 5  96900134.626 5        32.500  
G05  20507564.464 8 107768024.837 8        50.000    20507562.944 8  83975046.461 8        53.750  
G09  24928976.114 6 131002653.774 6        38.000    24928977.354 3 102079988.858 3        22.500  
G13  24506649.578 6 128783315.759 6        38.000    24506648.798 3 100350635.927 3        21.250  
G16  24237461.360 6 127368734.638 6        41.250    24237459.980 3  99248357.227 3        23.000  
G18  22441456.452 7 117930660.557 7        47.500    22441455.752 5  91894017.672 5        35.000  
G20  21315566.278 8 112014074.352 8        48.250    21315564.918 6  87283679.786 6        38.250  
G25  24819890.036 7 130429410.282 7        42.250    24819891.996 5 101633298.872 5        32.250  
G26  22655983.610 7 119058013.390 7        44.000    22655985.650 7  92772461.873 7        44.500  
G29  20572843.124 8 108111033.157 8        49.000    20572841.804 9  84242352.730 9        54.250  
> 2021 11 07 00 07  0.0000000  0 10                     
G02  23696703.002 7 124527018.453 7        46.000    23696699.462 5  97034035.032 5        33.000  
G05  20503659.724 8 107747505.148 8        49.750    20503658.204 8  83959057.101 8        53.750  
G09  24959844.454 6 131164867.746 6        39.000    24959845.734 3 102206389.436 3        23.250  
G13  24465408.458 6 128566592.574 6        39.000    24465407.698 3 100181760.826 3        21.250  
G16  24205317.460 7 127199817.816 7        42.500    24205316.020 4  99116733.940 4        25.750  
G18  22406446.192 7 117746680.465 7        46.750    22406445.432 5  91750656.583 5        34.000  
G20  21336895.798 8 112126161.686 8        48.250    21336894.378 6  87371020.560 6        38.000  
G25  24864307.596 7 130662826.151 7        44.250    24864309.056 5 101815181.447 5        34.750  
G26  22653212.310 7 119043450.349 7        43.500    22653214.410 7  92761114.049 7        43.750  
G29  20583151.804 8 108165205.644 8        49.250    20583150.524 9  84284565.061 9        54.500  
> 2021 11 07 00 08  0.0000000  0 10                     
G02  23729521.502 7 124699480.755 7        44.000    23729518.022 5  97168421.151 5        32.250  
G05  20500227.984 8 107729471.117 8        49.750    20500226.444 8  83945004.605 8        53.750  
G09  24991011.414 6 131328650.961 6        40.500    24991012.634 4 102334012.649 4        25.250  
G13  24424284.378 6 128350484.521 6        41.250    24424283.578 3 100013365.043 3        18.500  
G16  24173501.600 7 127032624.903 7        42.000    24173500.100 4  98986453.824 4        26.750  
G18  22371620.232 7 117563669.023 7        44.000    22371619.472 5  91608050.316 5        33.250  
G20  21358580.878 8 112240117.422 8        48.250    21358579.378 6  87459817.231 6        38.000  
G25  24908754.654 7 130896397.790 7        43.250    24908756.114 6 101997185.370 6        37.750  
G26  22650906.930 7 119031335.719 7        44.000    22650909.070 7  92751674.094 7        44.500  
G29  20593890.724 8 108221639.013 8        49.250    20593889.464 9  84328539.107 9        54.750  
> 2021 11 07 00 09  0.0000000  0 10                     
G02  23762456.082 7 124872552.921 7        43.500    23762452.642 5  97303282.558 5        32.000  
G05  20497267.984 8 107713916.120 8        49.500    20497266.424 8  83932883.822 8        53.750  
G09  25022471.914 6 131493976.786 6        39.000    25022473.194 3 102462837.942 3        22.000  
G13  24383281.118 7 128135011.185 7        42.500    24383280.098 2  99845463.697 2        13.250  
G16  24142016.780 6 126867171.535 6        41.250    24142015.260 4  98857529.136 4        25.500  
G18  22336979.732 7 117381632.245 7        44.750    22336979.012 5  91466203.498 5        33.250  
G20  21380617.578 8 112355920.962 8        48.500    21380615.998 6  87550053.745 6        37.750  
G25  24953226.194 6 131130097.410 6        41.000    24953227.974 6 102179288.925 6        39.000  
G26  22649066.550 7 119021664.428 7        44.250    22649068.690 7  92744138.046 7        45.250  
G29  20605058.004 8 108280323.468 8        49.000    20605056.784 9  84374267.239 9        54.500  
> 2021 11 07 00 10  0.0000000  0 10                     
G02  23795506.942 7 125046236.142 7        44.250    23795503.522 5  97438620.104 5        31.500  
G05  20494781.484 8 107700849.398 8        49.000    20494779.944 8  83922701.955 8        53.500  
G09  25054223.794 6 131660833.774 6        38.500    25054225.094 3 102592856.200 3        23.750  
G13  24342405.438 7 127920208.226 7        42.250    24342404.158 2  99678084.654 2        15.500  
G16  24110868.960 6 126703489.065 6        41.000    24110867.360 4  98729984.338 4        24.500  
G18  22302528.932 7 117200592.290 7        45.500    22302528.212 5  91325133.447 5        34.000  
G20  21403005.058 8 112473567.735 8        48.250    21403003.398 6  87641726.566 6        37.750  
G25  24997719.834 6 131363913.394 6        37.000    24997721.874 6 102361483.107 6        36.750  
G26  22647693.150 7 119014447.209 7        44.000    22647695.310 7  92738514.255 7        45.000  
G29  20616654.864 8 108341265.444 8        49.000    20616653.684 9  84421754.485 9        54.500  
> 2021 11 07 00 11  0.0000000  0  9                     
G02  23828671.642 7 125220517.717 7        43.000    23828668.242 5  97574423.896 5        31.250  
G05  20492767.424 8 107690265.481 8        48.250    20492765.884 8  83914454.750 8        52.750  
G09  25086262.214 6 131829196.542 6        40.500    25086263.554 4 102724047.765 4        24.250  
G13  24301661.438 6 127706097.045 6        40.750    24301660.158 3  99511244.799 3        21.250  
G16  24080061.580 7 126541595.435 7        42.250    24080059.960 4  98603833.633 4        24.750  
G18  22268269.272 7 117020556.590 7        46.500    22268268.532 5  91184845.913 5        35.250  
G20  21425739.558 8 112593038.284 8        48.000    21425737.878 6  87734820.498 6        37.500  
G26  22646785.910 7 119009679.689 7        44.500    22646788.130 7  92734799.302 7        45.000  
G29  20628679.784 8 108404456.854 8        49.250    20628678.644 9  84470994.524 9        54.750  
> 2021 11 07 00 12  0.0000000  0  9                     
G02  23861948.762 7 125395390.007 7        43.000    23861945.382 5  97710687.999 5        31.250  
G05  20491225.384 7 107682162.222 7        47.250    20491223.884 8  83908140.522 8        52.250  
G09  25118583.074 6 131999043.337 6        38.250    25118584.474 3 102856395.524 3        23.250  
G13  24261053.860 6 127492702.751 6        39.250    24261052.700 3  99344963.598 3        22.500  
G16  24049598.620 6 126381511.896 6        41.750    24049596.980 4  98479093.201 4        26.250  
G18  22234202.952 7 116841537.002 7        46.750    22234202.212 5  91045350.158 5        35.750  
G20  21448818.178 7 112714317.219 7        47.750    21448816.478 6  87829323.582 6        37.250  
G26  22646344.750 7 119007361.435 7        45.500    22646347.030 7  92732992.887 7        45.750  
G29  20641131.904 8 108469893.003 8        50.500    20641130.764 9  84521983.733 9        55.000  
> 2021 11 07 00 13  0.0000000  0 10                     
G02  23895336.602 7 125570844.209 7        44.250    23895333.262 5  97847405.493 5        31.250  
G05  20490154.944 8 107676537.042 8        49.000    20490153.444 8  83903757.247 8        53.000  
G09  25151182.214 6 132170352.223 6        40.000    25151183.694 3 102989882.693 3        22.250  
G13  24220587.340 5 127280049.790 5        33.250    24220586.240 3  99179260.095 3        18.750  
G16  24019484.040 6 126223259.017 6        41.500    24019482.420 4  98355779.364 4        25.000  
G18  22200332.132 7 116663544.597 7        46.750    22200331.392 6  90906654.782 6        36.000  
G20  21472237.978 7 112837389.014 7        47.750    21472236.218 6  87925223.658 6        37.000  
G25  25131287.454 6 132065792.228 6        40.750    25131290.154 6 102908443.394 6        37.500  
G26  22646369.410 7 119007490.924 7        46.000    22646371.690 7  92733093.813 7        46.250  
G29  20654010.084 8 108537568.195 8        50.000    20654008.924 9  84574717.654 9        54.750  
> 2021 11 07 00 14  0.0000000  0  9                     
G02  23928832.562 7 125746866.441 7        42.750    23928829.222 5  97984565.653 5        30.750  
G05  20489554.524 8 107673381.916 8        48.250    20489553.044 8  83901298.714 8        52.500  
G09  25184054.632 6 132343096.902 6        38.750    25184056.192 3 103124488.701 3        23.500  
G16  23989720.840 7 126066852.614 7        42.750    23989719.220 4  98233904.279 4        26.000  
G18  22166658.094 7 116486586.419 7        46.000    22166657.354 5  90768765.301 5        35.250  
G20  21495994.998 7 112962232.939 7        47.250    21495993.198 6  88022504.624 6        36.750  
G25  25175823.654 7 132299832.032 7        42.000    25175826.694 6 103090812.073 6        36.750  
G26  22646858.710 7 119010062.205 7        44.750    22646860.990 7  92735097.441 7        45.000  
G29  20667312.484 8 108607472.656 8        49.750    20667311.324 9  84629188.649 9        54.750  
> 2021 11 07 00 15  0.0000000  0 10                     
G02  23962437.402 7 125923460.973 7        43.750    23962434.082 4  98122171.767 4        29.750  
G05  20489426.224 8 107672707.593 8        50.500    20489424.704 9  83900773.244 9        54.000  
G09  25217198.512 6 132517268.058 6        37.750    25217200.192 3 103260206.399 3        22.000  
G13  24140096.620 6 126857068.656 6        39.250    24140095.540 4  98849664.756 4        26.250  
G16  23960315.502 7 125912326.646 7        42.500    23960313.842 4  98113494.481 4        25.250  
G18  22133185.474 7 116310686.785 7        45.250    22133184.734 5  90631700.661 5        34.000  
G20  21520088.638 7 113088845.951 7        47.500    21520086.838 6  88121164.124 6        36.500  
G25  25220361.972 7 132533882.384 7        42.750    25220365.052 6 103273188.964 6        38.000  
G26  22647814.710 7 119015086.214 7        43.250    22647817.010 7  92739012.246 7        43.250  
G29  20681040.544 8 108679614.093 8        49.000    20681039.404 9  84685402.754 9        54.250  
> 2021 11 07 00 16  0.0000000  0 11                     
G02  23996148.260 6 126100612.651 6        40.500    23996144.960 4  98260212.008 4        28.000  
G05  20489768.024 8 107674503.543 8        50.000    20489766.464 8  83902172.668 8        53.500  
G07  25574692.330 6 134395915.542 6        39.500    25574690.950 3 104724095.667 3        22.250  
G09  25250608.152 6 132692836.026 6        38.750    25250609.952 3 103397012.395 3        21.750  
G13  24100083.140 7 126646796.749 7        44.500    24100082.060 5  98685816.580 5        30.250  
G16  23931270.402 7 125759693.951 7        42.500    23931268.742 4  97994559.965 4        25.000  
G18  22099915.154 7 116135850.126 7        45.750    22099914.434 5  90495464.344 5        34.500  
G20  21544514.558 7 113217205.016 7        47.500    21544512.758 6  88221184.171 6        36.500  
G25  25264896.832 6 132767914.479 6        41.250    25264899.912 6 103455551.665 6        38.000  
G26  22649235.670 7 119022553.564 7        42.250    22649237.970 7  92744830.938 7        43.000  
G29  20695191.702 8 108753978.904 8        49.250    20695190.582 9  84743349.354 9        54.000  
> 2021 11 07 00 17  0.0000000  0 11                     
G02  24029963.780 7 126278314.250 7        43.500    24029960.500 4  98398680.749 4        29.250  
G05  20490579.364 7 107678767.245 7        47.250    20490577.844 8  83905495.047 8        52.000  
G07  25549428.790 6 134263154.898 6        41.250    25549427.450 4 104620645.888 4        24.000  
G09  25284279.732 6 132869780.591 6        38.000    25284281.632 3 103534891.223 3        22.000  
G13  24060230.520 7 126437369.949 7        45.500    24060229.320 5  98522626.898 5        30.500  
G16  23902589.882 7 125608976.988 7        42.750    23902588.162 4  97877118.304 4        24.750  
G18  22066849.594 7 115962089.498 7        46.500    22066848.874 5  90360066.467 5        34.750  
G20  21569270.038 7 113347295.994 7        47.000    21569268.258 6  88322553.738 6        36.500  
G25  25309424.332 5 133001908.171 5        35.750    25309427.452 5 103637884.354 5        35.250  
G26  22651121.350 7 119032463.024 7        43.000    22651123.670 7  92752552.620 7        43.500  
G29  20709765.002 8 108830562.183 8        49.000    20709763.902 8  84803024.636 8        53.500  
> 2021 11 07 00 18  0.0000000  0  9                     
G02  24063882.380 7 126456557.578 7        43.500    24063879.100 4  98537571.621 4        28.500  
G05  20491859.464 8 107685494.497 8        48.250    20491858.024 8  83910737.093 8        52.500  
G07  25524429.210 6 134131781.326 6        39.500    25524427.890 3 104518276.877 3        22.500  
G13  24020543.660 7 126228814.260 7        46.000    24020542.340 4  98360116.003 4        29.000  
G16  23874277.622 7 125460195.362 7        42.000    23874275.882 4  97761184.652 4        24.250  
G18  22033991.054 7 115789416.787 7        46.250    22033990.294 5  90225516.308 5        35.000  
G20  21594352.076 7 113479102.917 7        47.500    21594350.276 6  88425260.421 6        36.500  
G26  22653471.250 7 119044811.981 7        42.500    22653473.590 7  92762175.197 7        43.250  
G29  20724759.402 8 108909358.444 8        48.500    20724758.322 8  84864424.312 8        53.000  
> 2021 11 07 00 19  0.0000000  0  9                     
G02  24097901.560 6 126635329.494 6        41.750    24097898.300 4  98676874.413 4        27.250  
G05  20493606.784 8 107694676.584 8        49.500    20493605.324 8  83917891.955 8        53.750  
G07  25499696.350 6 134001809.198 6        39.500    25499695.010 4 104416999.864 4        24.750  
G13  23981026.502 7 126021150.175 7        44.250    23981025.002 4  98198299.847 4        25.000  
G16  23846336.602 6 125313364.511 6        41.000    23846334.842 4  97646771.051 4        24.500  
G18  22001340.874 7 115617838.891 7        47.000    22001340.074 5  90091819.263 5        35.750  
G20  21619756.616 7 113612604.516 7        47.000    21619754.796 6  88529287.624 6        36.500  
G26  22656283.850 7 119059592.307 7        43.000    22656286.170 7  92773692.338 7        43.000  
G29  20740172.782 8 108990356.340 8        48.250    20740171.682 8  84927539.543 8        52.750  
> 2021 11 07 00 20  0.0000000  0  9                     
G02  24132021.740 7 126814632.080 7        42.750    24132018.480 4  98816590.679 4        28.750  
G05  20495822.344 8 107706319.173 8        49.500    20495820.844 8  83926964.082 8        53.750  
G07  25475235.452 6 133873266.346 6        41.000    25475234.152 3 104316836.560 3        23.750  
G13  23941685.722 6 125814413.175 6        41.750    23941684.162 3  98037206.064 3        19.250  
G16  23818772.562 6 125168514.768 6        41.250    23818770.742 4  97533901.199 4        24.250  
G18  21968903.254 7 115447377.952 7        47.000    21968902.434 6  89958992.550 6        36.250  
G20  21645482.616 7 113747795.506 7        46.750    21645480.816 6  88634631.244 6        36.250  
G26  22659560.410 7 119076810.807 7        43.500    22659562.730 7  92787109.361 7        43.000  
G29  20756005.742 8 109073559.224 8        48.000    20756004.662 8  84992372.952 8        52.500  
> 2021 11 07 00 21  0.0000000  0  9                     
G02  24166240.460 6 126994452.554 6        36.000    24166237.200 3  98956710.430 3        23.000  
G05  20498504.284 7 107720412.771 7        44.250    20498502.764 8  83937946.110 8        50.500  
G07  25451049.112 6 133746166.214 6        36.500    25451047.812 3 104217797.459 3        20.500  
G13  23902525.402 5 125608624.307 5        33.250                                                  
G16  23791588.462 6 125025661.742 6        37.500    23791586.642 3  97422587.266 3        21.000  
G18  21936679.554 7 115278041.108 7        42.000    21936678.694 5  89827041.772 5        32.000  
G20  21671526.096 6 113884654.862 6        41.750    21671524.296 5  88741274.900 5        32.750  
G26  22663299.310 6 119096458.953 6        38.250    22663301.610 6  92802419.621 6        39.250  
G29  20772256.102 7 109158955.356 7        43.750    20772255.002 8  85058915.377 8        50.500  
> 2021 11 07 00 22  0.0000000  0  8                     
G02  24200556.080 6 127174782.225 6        37.000    24200552.840 4  99097227.078 4        24.000  
G05  20501651.684 7 107736952.538 7        44.000    20501650.204 8  83950834.263 8        50.250  
G07  25427140.692 6 133620526.561 6        37.000    25427139.432 3 104119896.373 3        20.500  
G16  23764787.902 6 124884824.159 6        38.250    23764786.022 3  97312843.741 3        21.750  
G18  21904671.934 7 115109840.025 7        42.000    21904671.074 5  89695976.009 5        32.000  
G20  21697883.816 7 114023165.644 7        43.000    21697882.036 5  88849205.368 5        33.250  
G26  22667499.710 6 119118532.259 6        38.500    22667502.010 6  92819619.608 6        39.750  
G29  20788922.502 7 109246537.790 7        45.000    20788921.402 8  85127161.409 8        51.000  
> 2021 11 07 00 23  0.0000000  0  9                     
G02  24234967.200 6 127355613.742 6        39.000    24234963.980 4  99238134.702 4        25.250  
G05  20505263.324 7 107755931.858 7        46.000    20505261.844 8  83965623.347 8        51.000  
G07  25403513.512 6 133496364.800 6        37.250    25403512.252 3 104023147.041 3        20.500  
G13  23824765.302 6 125200027.603 6        36.250    23824764.162 3  97558435.757 3        19.750  
G16  23738374.582 6 124746021.551 6        39.250    23738372.682 3  97204685.802 3        22.750  
G18  21872882.676 7 114942786.407 7        42.750    21872881.816 5  89565804.373 5        33.000  
G20  21724552.796 7 114163311.975 7        43.750    21724551.016 5  88958410.280 5        33.500  
G26  22672160.690 6 119143025.880 6        41.000    22672162.990 6  92838705.544 6        41.500  
G29  20806003.342 7 109336298.139 7        46.000    20806002.262 8  85197104.514 8        51.500  
> 2021 11 07 00 24  0.0000000  0  9                     
G02  24269471.420 6 127536934.474 6        41.500    24269468.220 4  99379423.537 4        27.000  
G05  20509337.564 8 107777342.068 8        50.000    20509336.084 8  83982306.620 8        53.500  
G07  25380170.172 6 133373694.649 6        40.750    25380168.932 4 103927559.901 4        24.250  
G13  23786175.042 7 124997233.128 7        42.500    23786173.862 4  97400414.143 4        27.250  
G16  23712351.342 6 124609268.647 6        41.500    23712349.422 4  97098125.148 4        25.250  
G18  21841313.316 7 114776888.324 7        47.000    21841312.476 6  89436533.138 6        36.500  
G20  21751529.116 7 114305073.514 7        47.250    21751527.336 6  89068873.828 6        36.250  
G26  22677280.550 7 119169930.981 7        43.000    22677282.830 7  92859670.576 7        43.500  
G29  20823496.502 8 109428225.220 8        49.250    20823495.422 8  85268735.994 8        53.750  
> 2021 11 07 00 25  0.0000000  0  9                     
G02  24304068.958 6 127718745.611 6        40.500    24304065.758 4  99521094.510 4        26.000  
G05  20513874.904 8 107801185.761 8        50.750    20513873.364 9  84000886.103 9        54.000  
G07  25357115.612 6 133252542.127 6        41.750    25357114.372 3 103833155.370 3        22.750  
G13  23747785.482 7 124795494.318 7        44.500    23747784.142 4  97243215.112 4        28.750  
G16  23686723.782 7 124474595.120 7        42.250    23686721.862 4  96993184.777 4        25.250  
G18  21809967.836 7 114612166.707 7        47.000    21809967.016 6  89308178.637 6        36.500  
G20  21778811.496 7 114448443.386 7        45.750    21778809.736 6  89180590.583 6        36.250  
G26  22682859.990 7 119199251.291 7        43.500    22682862.270 7  92882517.557 7        43.750  
G29  20841402.222 8 109522320.243 8        49.750    20841401.122 9  85342056.775 9        54.000  
> 2021 11 07 00 26  0.0000000  0  9                     
G02  24338757.578 7 127901035.358 7        42.500    24338754.398 4  99663138.465 4        27.750  
G05  20518873.424 8 107827452.877 8        50.750    20518871.844 9  84021353.965 9        54.000  
G07  25334352.732 6 133132922.479 6        39.500    25334351.472 4 103739945.294 4        24.750  
G13  23709600.922 7 124594833.361 7        43.750    23709599.582 4  97086855.955 4        29.250  
G16  23661494.504 7 124342014.580 7        42.750    23661492.604 4  96889875.402 4        26.750  
G18  21778847.756 7 114448629.646 7        47.500    21778846.956 6  89180747.161 6        36.500  
G20  21806396.036 7 114593401.130 7        47.500    21806394.276 6  89293544.669 6        36.500  
G26  22688897.250 7 119230977.262 7        45.000    22688899.530 7  92907239.095 7        44.500  
G29  20859718.242 8 109618571.331 8        49.500    20859717.122 8  85417057.622 8        53.750  
> 2021 11 07 00 27  0.0000000  0 10                     
G02  24373535.378 7 128083793.836 7        42.000    24373532.218 4  99805547.611 4        26.500  
G05  20524331.284 8 107856133.910 8        50.750    20524329.664 8  84043702.805 8        53.500  
G07  25311884.152 6 133014849.363 6        40.750    25311882.872 4 103647940.230 4        24.000  
G13  23671626.004 7 124395273.938 7        44.000    23671624.464 4  96931355.161 4        28.500  
G15  24316161.518 6 127782285.601 6        40.500    24316160.498 6  99570612.201 6        39.000  
G16  23636666.784 7 124211544.141 7        43.000    23636664.844 4  96788210.270 4        26.500  
G18  21747955.036 8 114286287.262 8        48.250    21747954.196 6  89054246.579 6        36.750  
G20  21834279.196 7 114739928.135 7        46.500    21834277.456 6  89407721.544 6        36.250  
G26  22695390.810 7 119265100.866 7        44.750    22695393.010 7  92933828.933 7        44.000  
G29  20878442.562 8 109716968.189 8        48.750    20878441.442 8  85493730.468 8        53.000  
> 2021 11 07 00 28  0.0000000  0 11                     
G02  24408401.538 6 128267016.541 6        39.000    24408398.378 4  99948318.484 4        25.000  
G05  20530248.044 8 107887226.570 8        50.500    20530246.404 8  84067930.846 8        53.250  
G07  25289713.692 6 132898342.843 6        41.500    25289712.392 3 103557155.935 3        23.500  
G13  23633866.144 7 124196844.648 7        42.750    23633864.484 4  96776734.974 4        26.750  
G15  24271460.940 7 127547384.398 7        42.250    24271460.220 6  99387572.373 6        41.000  
G16  23612244.664 7 124083205.425 7        42.750    23612242.724 4  96688206.111 4        27.000  
G18  21717292.536 8 114125154.666 8        48.500    21717291.676 6  88928688.696 6        37.000  
G20  21862458.416 7 114888010.902 7        47.250    21862456.676 6  89523110.706 6        36.500  
G23  25162057.394 6 132227507.413 6        41.500    25162058.254 4 103034421.201 4        25.500  
G26  22702339.970 7 119301619.067 7        43.750    22702342.170 7  92962284.679 7        43.250  
G29  20897574.002 8 109817504.627 8        48.750    20897572.902 8  85572070.529 8        52.750  
> 2021 11 07 00 29  0.0000000  0 11                     
G02  24443352.978 7 128450687.359 7        42.250    24443349.818 4 100091438.637 4        26.750  
G05  20536620.804 8 107920715.608 8        49.000    20536619.164 8  84094026.198 8        52.750  
G07  25267843.232 7 132783412.766 7        42.000    25267841.932 4 103467600.012 4        26.250  
G13  23596324.784 6 123999563.785 6        41.500    23596323.104 4  96623009.677 4        24.750  
G15  24226849.260 7 127312949.741 7        43.750    24226848.620 6  99204896.031 6        41.500  
G16  23588230.124 6 123957008.581 6        41.750    23588228.164 4  96589870.955 4        26.500  
G18  21686861.056 8 113965236.009 8        48.000    21686860.176 6  88804076.743 6        36.750  
G20  21890929.154 7 115037625.558 7        47.250    21890927.414 6  89639693.515 6        36.500  
G23  25117459.614 6 131993144.513 6        41.250    25117460.214 4 102851800.882 4        26.000  
G26  22709742.030 7 119340517.194 7        44.500    22709744.210 7  92992594.906 7        43.250  
G29  20917109.582 8 109920164.777 8        48.750    20917108.482 8  85652065.436 8        52.750  
> 2021 11 07 00 30  0.0000000  0 11                     
G02  24478390.338 7 128634809.787 7        42.000    24478387.198 4 100234910.593 4        27.250  
G05  20543450.004 8 107956603.409 8        48.750    20543448.384 8  84121990.720 8        52.250  
G07  25246277.972 7 132670086.484 7        42.750    25246276.672 4 103379293.841 4        25.500  
G13  23559008.864 6 123803467.761 6        41.000    23559007.204 4  96470207.618 4        24.250  
G15  24182333.220 7 127079016.385 7        44.750    24182332.420 6  99022610.297 6        41.000  
G16  23564628.704 7 123832982.560 7        43.250    23564626.744 4  96493227.357 4        27.000  
G18  21656664.896 7 113806554.149 7        47.750    21656664.016 6  88680428.545 6        36.500  
G20  21919690.294 7 115188766.272 7        47.000    21919688.574 6  89757465.505 6        36.750  
G23  25072898.754 5 131758975.166 5        35.000    25072898.974 3 102669331.394 3        21.500  
G26  22717597.690 7 119381799.034 7        42.750    22717599.850 7  93024762.584 7        42.500  
G29  20937049.462 8 110024949.509 8        48.750    20937048.382 8  85733715.863 8        53.000  
> 2021 11 07 00 31  0.0000000  0 11                     
G02  24513511.258 6 128819371.356 6        40.500    24513508.118 4 100378724.758 4        25.500  
G05  20550733.464 8 107994878.462 8        49.000    20550731.884 8  84151815.431 8        52.500  
G07  25225020.232 6 132558376.435 6        41.750    25225018.952 4 103292247.135 4        26.000  
G13  23521922.484 7 123608577.942 7        42.250    23521920.864 4  96318345.470 4        25.750  
G15  24137916.420 7 126845603.974 7        43.250    24137915.440 6  98840730.439 6        39.500  
G16  23541442.884 7 123711140.664 7        42.000    23541440.924 4  96398285.655 4        26.500  
G18  21626705.536 7 113649116.678 7        47.500    21626704.676 6  88557749.998 6        36.750  
G20  21948737.894 7 115341412.238 7        47.000    21948736.154 6  89876410.404 6        36.250  
G23  25028376.474 6 131525009.626 6        37.750    25028376.634 4 102487020.858 4        24.000  
G26  22725904.690 7 119425452.708 7        43.750    22725906.850 7  93058778.451 7        42.500  
G29  20957391.042 8 110131845.244 8        48.750    20957389.982 8  85817011.226 8        53.000  
> 2021 11 07 00 32  0.0000000  0 11                     
G02  24548713.958 6 129004362.683 6        40.750    24548710.838 4 100522873.791 4        27.000  
G05  20558469.364 8 108035530.928 8        49.000    20558467.804 8  84183492.681 8        53.000  
G07  25204072.812 6 132448297.005 6        40.750    25204071.492 3 103206470.882 3        23.000  
G13  23485070.064 7 123414917.439 7        43.750    23485068.444 4  96167441.206 4        27.750  
G15  24093603.200 6 126612736.313 6        38.250    24093602.180 5  98659275.127 5        35.250  
G16  23518675.664 7 123591498.452 7        42.750    23518673.724 4  96305057.985 4        26.750  
G18  21596984.916 7 113492933.826 7        47.750    21596984.056 6  88436049.093 6        37.500  
G20  21978068.334 7 115495544.612 7        47.500    21978066.574 6  89996513.550 6        36.250  
G23  24983895.494 6 131291261.215 6        41.250    24983895.534 4 102304879.360 4        27.000  
G26  22734661.210 7 119471468.597 7        42.250    22734663.370 7  93094635.000 7        42.250  
G29  20978132.302 8 110240841.332 8        48.750    20978131.262 8  85901943.227 8        53.000  
> 2021 11 07 00 33  0.0000000  0 11                     
G02  24583997.236 7 129189777.458 7        42.000    24583994.156 4 100667352.738 4        28.000  
G05  20566656.304 8 108078553.585 8        49.500    20566654.764 8  84217016.836 8        53.500  
G07  25183439.072 6 132339865.949 6        41.750    25183437.772 4 103121979.125 4        24.000  
G13  23448456.904 7 123222514.126 7        44.500    23448455.284 4  96017516.568 4        28.250  
G15  24049398.520 6 126380439.362 6        36.250    24049397.560 5  98478264.687 5        35.000  
G16  23496330.604 7 123474074.582 7        42.250    23496328.684 4  96213558.882 4        27.000  
G18  21567505.618 8 113338018.986 8        48.500    21567504.738 6  88315336.216 6        38.250  
G20  22007678.854 7 115651148.855 7        46.500    22007677.094 5  90117763.585 5        35.750  
G23  24939458.894 7 131057745.966 7        43.250    24939458.694 4 102122919.497 4        27.250  
G26  22743865.950 7 119519839.985 7        42.750    22743868.130 7  93132326.984 7        42.500  
G29  20999271.500 8 110351928.436 8        48.750    20999270.440 8  85988504.602 8        52.750  
> 2021 11 07 00 34  0.0000000  0 11                     
G02  24619358.496 6 129375601.879 6        41.500    24619355.456 4 100812150.916 4        27.000  
G05  20575291.644 8 108123932.530 8        49.750    20575290.104 8  84252377.046 8        53.500  
G07  25163120.954 7 132233093.376 7        42.750    25163119.614 4 103038779.735 4        27.000  
G13  23412086.644 7 123031387.130 7        44.250    23412084.984 4  95868586.455 4        28.000  
G15  24005306.120 7 126148732.322 7        42.250    24005305.160 6  98297713.817 6        41.500  
G16  23474409.784 7 123358880.026 7        42.500    23474407.864 4  96123796.914 4        27.000  
G18  21538268.758 8 113184378.137 8        48.500    21538267.858 6  88195616.074 6        38.250  
G20  22037565.054 7 115808201.830 7        47.500    22037563.294 5  90240142.519 5        35.500  
G23  24895068.474 7 130824472.747 7        45.000    24895068.074 4 101941148.224 4        25.000  
G26  22753516.170 7 119570552.388 7        42.500    22753518.370 7  93171843.161 7        42.500  
G29  21020805.720 8 110465091.579 8        48.250    21020804.680 8  86076683.646 8        52.500  
> 2021 11 07 00 35  0.0000000  0 11                     
G02  24654798.336 6 129561839.082 6        41.500    24654795.276 4 100957270.815 4        26.500  
G05  20584375.484 8 108171668.413 8        49.500    20584373.944 8  84289573.828 8        53.250  
G07  25143123.434 6 132128005.802 6        40.750    25143122.154 3 102956893.419 3        23.000  
G13  23375966.166 7 122841572.958 7        43.250    23375964.506 4  95720679.329 4        26.750  
G15  23961332.662 7 125917650.217 7        45.250    23961331.642 7  98117649.860 7        44.000  
G16  23452918.424 7 123245942.188 7        43.500    23452916.484 4  96035793.432 4        27.500  
G18  21509278.598 8 113032033.831 8        48.250    21509277.718 6  88076906.233 6        38.500  
G20  22067725.734 7 115966697.226 7        46.500    22067723.974 5  90363645.423 5        35.000  
G23  24850728.876 6 130591466.924 6        41.750    24850728.356 2 101759585.257 2        16.500  
G26  22763612.190 7 119623607.492 7        43.250    22763614.410 7  93213184.814 7        43.250  
G29  21042734.920 8 110580330.368 8        48.250    21042733.900 8  86166480.085 8        52.500  
> 2021 11 07 00 36  0.0000000  0 11                     
G02  24690314.216 6 129748475.968 6        41.500    24690311.176 4 101102702.063 4        26.750  
G05  20593905.124 8 108221747.077 8        49.500    20593903.604 8  84328596.160 8        53.500  
G07  25123448.494 6 132024613.270 6        41.250    25123447.194 4 102876327.803 4        24.500  
G13  23340099.366 7 122653091.712 7        42.500    23340097.666 4  95573810.836 4        26.250  
G15  23917482.002 7 125687213.147 7        46.000    23917480.842 7  97938088.529 7        44.750  
G16  23431858.484 7 123135271.620 7        43.250    23431856.544 4  95949556.640 4        26.750  
G18  21480536.438 8 112880992.750 8        48.750    21480535.558 6  87959211.868 6        38.750  
G20  22098156.754 7 116126613.187 7        47.000    22098154.994 5  90488255.219 5        35.000  
G23  24806442.016 6 130358738.224 6        37.000    24806441.496 2 101578238.083 2        16.750  
G26  22774151.230 7 119678990.571 7        43.000    22774153.450 7  93256340.464 7        42.750  
G29  21065056.100 8 110697628.840 8        48.750    21065055.080 8  86257881.479 8        52.750  
> 2021 11 07 00 37  0.0000000  0 10                     
G02  24725904.476 6 129935503.853 6        40.750    24725901.456 4 101248437.974 4        25.500  
G05  20603878.564 8 108274157.787 8        49.500    20603877.044 8  84369435.684 8        53.250  
G07  25104099.054 6 131922931.290 6        41.750    25104097.714 3 102797095.062 3        23.250  
G13  23304490.846 7 122465967.882 7        43.250    23304489.166 4  95428000.093 4        27.500  
G15  23873758.682 7 125457445.507 7        45.000    23873757.442 7  97759048.845 7        43.750  
G16  23411233.064 7 123026884.471 7        43.000    23411231.124 4  95865099.159 4        26.750  
G18  21452044.458 8 112731266.363 8        48.500    21452043.598 6  87842541.942 6        38.500  
G20  22128854.914 7 116287932.978 7        47.000    22128853.154 5  90613958.932 5        34.750  
G26  22785131.428 7 119736692.035 7        43.000    22785133.628 7  93301302.677 7        43.000  
G29  21087767.120 8 110816975.916 8        48.750    21087766.100 8  86350879.199 8        53.000  
> 2021 11 07 00 38  0.0000000  0 11                     
G02  24761567.876 6 130122915.961 6        41.000    24761564.876 4 101394473.326 4        26.250  
G05  20614294.244 8 108328892.550 8        48.500    20614292.724 8  84412086.145 8        52.250  
G07  25085077.994 7 131822975.203 7        42.000    25085076.674 4 102719207.316 4        25.500  
G13  23269145.626 7 122280227.581 7        43.250    23269143.926 4  95283267.437 4        28.250  
G15  23830167.442 7 125228372.229 7        44.000    23830166.202 6  97580550.217 6        41.750  
G16  23391045.244 7 122920796.761 7        42.750    23391043.284 4  95782433.404 4        27.000  
G18  21423804.978 7 112582866.850 7        47.750    21423804.098 6  87726905.939 6        37.750  
G20  22159817.054 7 116450640.017 7        45.250    22159815.294 5  90740743.623 5        33.750  
G23  24718037.636 6 129894170.374 6        40.500    24718037.376 4 101216237.482 4        28.500  
G26  22796550.928 7 119796701.967 7        42.500    22796553.128 7  93348063.682 7        43.000  
G29  21110865.960 8 110938361.048 8        48.250    21110864.940 8  86445464.987 8        52.000  
> 2021 11 07 00 39  0.0000000  0 11                     
G02  24797301.936 6 130310699.467 6        40.750    24797298.976 4 101540798.037 4        26.250  
G05  20625149.104 7 108385935.434 7        47.500    20625147.604 8  84456535.141 8        51.500  
G07  25066387.254 6 131724754.751 6        39.000    25066385.894 3 102642671.877 3        22.250  
G13  23234067.426 7 122095890.556 7        43.250    23234065.726 4  95139628.209 4        29.250  
G15  23786712.182 6 125000013.606 6        41.750    23786710.962 6  97402608.423 6        37.750  
G16  23371296.846 7 122817018.334 7        42.500    23371294.886 4  95701567.135 4        26.500  
G18  21395819.238 7 112435800.849 7        46.750    21395818.378 6  87612309.065 6        37.000  
G20  22191038.872 7 116614711.738 7        45.000    22191037.132 5  90868591.706 5        33.250  
G23  24673924.876 7 129662356.389 7        42.500    24673924.876 5 101035603.305 5        31.750  
G26  22808406.748 7 119859004.877 7        42.750    22808408.968 7  93396611.404 7        42.500  
G29  21134349.360 7 111061767.132 7        47.500    21134348.360 8  86541625.555 8        51.500  
> 2021 11 07 00 40  0.0000000  0 11                     
G02  24833107.056 6 130498856.335 6        38.250    24833104.156 3 101687413.629 3        23.500  
G05  20636443.184 7 108445286.346 7        46.500    20636441.704 8  84502782.599 8        51.000  
G07  25048031.474 6 131628294.628 6        39.250    25048030.114 3 102567508.202 3        22.500  
G13  23199262.966 6 121912991.966 6        41.750    23199261.266 4  94997109.829 4        28.000  
G15  23743399.662 6 124772404.909 6        37.750    23743398.442 5  97225250.969 5        33.750  
G16  23351992.726 6 122715574.512 6        41.000    23351990.746 4  95622520.045 4        25.500  
G18  21368091.438 7 112290090.258 7        46.000    21368090.598 6  87498768.335 6        36.500  
G20  22222519.172 7 116780141.726 7        42.750    22222517.432 5  90997498.190 5        31.750  
G23  24629877.116 7 129430883.937 7        42.500    24629877.196 5 100855235.191 5        32.500  
G26  22820698.828 6 119923600.207 6        41.500    22820701.028 6  93446945.445 6        41.750  
G29  21158217.140 7 111187193.097 7        45.750    21158216.140 8  86639360.051 8        50.500  
> 2021 11 07 00 41  0.0000000  0 10                     
G02  24868980.896 5 130687374.266 5        34.250    24868977.996 3 101834310.669 3        20.250  
G05  20648173.364 7 108506928.903 7        42.000    20648171.904 8  84550815.768 8        48.250  
G07  25030012.594 6 131533604.869 6        36.250    25030011.214 3 102493723.993 3        21.500  
G13  23164735.966 6 121731551.424 6        37.250    23164734.266 3  94855727.634 3        23.750  
G16  23333134.646 6 122616474.809 6        37.750    23333132.666 3  95545299.522 3        22.500  
G18  21340622.818 7 112145741.641 7        42.000    21340621.978 5  87386288.916 5        34.000  
G20  22254253.772 6 116946908.141 6        39.750    22254252.032 4  91127446.020 4        28.250  
G23  24585896.136 6 129199762.551 6        36.750    24585896.216 4 100675140.727 4        26.750  
G26  22833424.028 6 119990471.592 6        37.500    22833426.208 6  93499053.028 6        38.750  
G29  21182466.100 7 111314622.168 7        42.250    21182465.120 7  86738655.413 7        47.750  
> 2021 11 07 00 42  0.0000000  0 11                     
G02  24904921.914 6 130876245.286 6        41.250    24904919.054 4 101981482.765 4        26.500  
G05  20660337.604 8 108570852.500 8        48.250    20660336.184 8  84600626.359 8        52.250  
G07  25012333.234 6 131440699.397 6        41.000    25012331.854 3 102421330.186 3        22.500  
G13  23130491.206 7 121551594.120 7        42.750    23130489.506 4  94715501.203 4        28.250  
G15  23657217.484 6 124319496.713 6        39.250    23657218.704 6  96872338.113 6        39.250  
G16  23314725.426 7 122519733.726 7        42.750    23314723.406 4  95469916.905 4        27.750  
G18  21313415.618 8 112002766.795 8        48.250    21313414.758 6  87274879.945 6        38.750  
G20  22286239.352 7 117114993.438 7        45.250    22286237.612 5  91258421.568 5        32.750  
G23  24541984.818 6 128969007.304 6        38.000    24541984.858 4 100495331.507 4        26.250  
G26  22846580.228 7 120059607.868 7        42.500    22846582.388 7  93552925.464 7        42.250  
G29  21207094.020 8 111444042.598 8        48.250    21207093.040 8  86839502.470 8        51.750  
> 2021 11 07 00 43  0.0000000  0 11                     
G02  24940928.634 6 131065461.443 6        41.250    24940925.794 4 102128923.878 4        25.500  
G05  20672933.744 8 108637045.699 8        48.750    20672932.344 8  84652205.482 8        52.250  
G07  24994996.114 6 131349592.427 6        41.500    24994994.714 4 102350337.770 4        25.250  
G13  23096533.386 7 121373144.721 7        43.500    23096531.686 4  94576449.753 4        29.250  
G15  23614359.124 7 124094272.990 7        42.500    23614359.924 7  96696839.145 7        43.750  
G16  23296767.706 7 122425365.431 7        43.500    23296765.686 4  95396383.224 4        28.000  
G18  21286472.038 8 111861177.179 8        49.000    21286471.158 6  87164550.360 6        39.250  
G20  22318472.712 7 117284380.901 7        45.750    22318470.992 5  91390411.779 5        33.000  
G23  24498145.918 6 128738632.742 6        37.750    24498145.958 3 100315818.976 3        19.750  
G26  22860165.128 7 120130997.057 7        42.250    22860167.268 6  93608553.420 6        41.500  
G29  21232098.480 8 111575441.851 8        48.500    21232097.520 8  86941891.466 8        52.000  
> 2021 11 07 00 44  0.0000000  0 11                     
G02  24976998.674 6 131255010.515 6        40.500    24976995.874 4 102276624.383 4        24.000  
G05  20685958.722 8 108705492.573 8        48.250    20685957.322 8  84705540.696 8        51.750  
G07  24978002.954 6 131260292.871 6        41.750    24978001.534 4 102280753.701 4        25.500  
G13  23062866.408 7 121196223.775 7        44.250    23062864.728 5  94438589.308 5        30.500  
G15  23571660.984 7 123869890.149 7        45.500    23571661.224 7  96521995.403 7        46.000  
G16  23279263.146 7 122333378.615 7        43.750    23279261.146 4  95324705.194 4        28.000  
G18  21259793.400 8 111720979.946 8        48.500    21259792.500 6  87055305.752 6        39.000  
G20  22350949.752 7 117455048.953 7        44.500    22350948.072 5  91523399.859 5        32.500  
G23  24454381.438 6 128508649.286 6        41.000                                                  
G26  22874175.588 6 120204622.640 6        41.500    22874177.728 6  93665923.989 6        40.750  
G29  21257476.160 8 111708802.255 8        48.500    21257475.180 8  87045808.643 8        52.000  
> 2021 11 07 00 45  0.0000000  0 11                     
G02  25013132.434 6 131444894.526 6        40.750    25013129.674 4 102424585.861 4        25.500  
G05  20699412.182 8 108776191.077 8        48.500    20699410.802 8  84760630.439 8        52.500  
G07  24961358.114 6 131172823.854 6        41.250    24961356.694 4 102212596.035 4        26.500  
G13  23029496.568 7 121020864.232 7        44.250    23029494.908 5  94301945.517 5        30.750  
G15  23529129.124 7 123646382.801 7        46.000    23529129.124 7  96347833.840 7        45.000  
G16  23262216.206 7 122243796.498 7        43.500    23262214.186 4  95254900.978 4        28.500  
G18  21233383.740 8 111582196.177 8        48.250    21233382.840 6  86947162.556 6        38.500  
G20  22383669.112 7 117626990.387 7        45.000    22383667.452 5  91657380.183 5        32.500  
G23  24410696.098 7 128279081.535 7        43.500    24410694.798 3  99957727.038 3        21.250  
G26  22888611.048 6 120280481.657 6        41.500    22888613.208 6  93725034.903 6        41.000  
G29  21283226.460 8 111844120.750 8        48.500    21283225.480 8  87151251.610 8        52.000  
> 2021 11 07 00 46  0.0000000  0 11                     
G02  25049327.494 6 131635100.580 6        38.250    25049324.774 3 102572798.225 3        23.750  
G05  20713290.962 8 108849124.597 8        49.000    20713289.642 8  84817461.750 8        52.500  
G07  24945063.394 6 131087194.633 6        40.750    24945062.014 4 102145872.020 4        25.500  
G13  22996427.668 7 120847086.197 7        43.750    22996426.028 4  94166534.079 4        29.500  
G15  23486767.664 7 123423771.735 7        45.250    23486767.604 7  96174370.683 7        45.000  
G16  23245628.426 7 122156627.247 7        43.250    23245626.426 4  95186976.910 4        28.500  
G18  21207244.320 7 111444832.627 7        47.750    21207243.420 6  86840126.030 6        38.500  
G20  22416626.532 7 117800182.864 7        44.500    22416624.892 5  91792335.352 5        32.250  
G23  24367091.838 7 128049939.508 7        45.000    24367091.438 4  99779174.858 4        29.250  
G26  22903468.188 6 120358556.544 6        41.500    22903470.368 6  93785872.474 6        40.750  
G29  21309345.998 8 111981379.644 8        48.500    21309344.998 8  87258206.568 8        52.000  
> 2021 11 07 00 47  0.0000000  0 11                     
G02  25085582.474 6 131825621.341 6        41.000    25085579.794 4 102721255.883 4        25.750  
G05  20727592.662 8 108924280.533 8        48.750    20727591.302 8  84876024.796 8        52.250  
G07  24929121.154 6 131003417.880 6        40.500    24929119.794 4 102080591.448 4        26.500  
G13  22963664.448 7 120674914.525 7        43.000    22963662.808 4  94032374.365 4        28.500  
G15  23444581.484 7 123202082.096 7        43.250    23444581.444 7  96001625.557 7        44.500  
G16  23229502.206 7 122071883.544 7        42.750    23229500.206 4  95120942.833 4        28.250  
G18  21181377.360 7 111308900.898 7        47.750    21181376.480 6  86734205.206 6        38.500  
G20  22449818.812 7 117974609.578 7        44.750    22449817.212 5  91928252.261 5        32.000  
G23  24323571.478 7 127821238.186 7        45.500    24323571.258 5  99600966.096 5        32.000  
G26  22918744.568 7 120438834.402 7        42.750    22918746.728 7  93848426.643 7        42.250  
G29  21335832.358 8 112120566.266 8        48.500    21335831.358 8  87366663.655 8        51.750  
> 2021 11 07 00 48  0.0000000  0 11                     
G02  25121895.834 6 132016448.897 6        41.000    25121893.194 3 102869952.535 3        23.000  
G05  20742314.922 8 109001646.434 8        49.250    20742313.522 8  84936309.905 8        52.500  
G07  24913533.834 6 130921506.139 6        41.750    24913532.514 4 102016764.158 4        26.500  
G13  22931211.368 7 120504372.688 7        42.750    22931209.748 4  93899484.630 4        28.500  
G15  23402575.404 6 122981338.940 6        41.250    23402575.384 7  95829617.960 7        42.000  
G16  23213839.966 7 121989577.996 7        43.250    23213838.006 4  95056808.642 4        28.500  
G18  21155785.000 7 111174412.201 7        47.750    21155784.120 6  86629408.819 6        38.500  
G20  22483242.812 7 118150253.912 7        45.250    22483241.232 5  92065117.938 5        31.750  
G23  24280137.720 7 127592992.134 7        44.250    24280137.420 5  99423112.107 5        31.000  
G26  22934437.548 7 120521301.551 7        43.750    22934439.708 7  93912686.766 7        43.000  
G29  21362682.958 8 112261666.940 8        48.500    21362681.978 8  87476612.200 8        51.750  
> 2021 11 07 00 49  0.0000000  0 11                     
G02  25158265.194 6 132207570.559 6        40.000    25158262.554 4 103018878.466 4        24.750  
G05  20757454.322 8 109081204.395 8        49.750    20757452.922 8  84998303.111 8        53.250  
G07  24898302.854 6 130841466.870 6        40.750    24898301.514 4 101954395.852 4        26.000  
G13  22899072.108 7 120335479.826 7        44.750    22899070.508 5  93767879.831 5        30.750  
G15  23360753.266 6 122761562.510 6        40.500    23360753.246 6  95658363.659 6        39.500  
G16  23198642.946 7 121909717.227 7        43.750    23198641.006 4  94994579.523 4        28.750  
G18  21130468.460 7 111041372.978 7        47.750    21130467.600 6  86525741.900 6        38.750  
G20  22516894.210 7 118327093.171 7        44.250    22516892.650 5  92202914.760 5        31.750  
G23  24236792.440 6 127365211.247 6        41.750    24236792.060 4  99245620.591 4        29.250  
G26  22950543.628 7 120605939.341 7        44.000    22950545.748 7  93978638.318 7        43.250  
G29  21389894.238 8 112404662.927 8        48.250    21389893.258 8  87588037.617 8        51.750  
> 2021 11 07 00 50  0.0000000  0 11                     
G02  25194691.012 7 132398989.010 7        42.250    25194688.432 4 103168035.506 4        27.250  
G05  20773010.462 8 109162952.349 8        50.250    20773009.122 8  85062002.826 8        53.500  
G07  24883432.654 6 130763323.394 6        40.500    24883431.294 4 101893504.768 4        26.000  
G13  22867253.188 7 120168270.370 7        45.250    22867251.608 5  93637586.763 5        32.000  
G15  23319122.106 7 122542789.472 7        43.000    23319122.026 7  95487891.190 7        42.000  
G16  23183915.326 7 121832323.109 7        43.000    23183913.406 4  94934272.414 4        28.750  
G18  21105431.920 8 110909805.167 8        48.500    21105431.080 6  86423221.531 6        39.000  
G20  22550771.850 7 118505121.300 7        45.000    22550770.310 5  92341637.926 5        31.750  
G23  24193540.500 6 127137921.008 6        38.250    24193540.100 4  99068511.438 4        25.250  
G26  22967062.068 7 120692744.400 7        43.500    22967064.188 7  94046278.644 7        43.250  
G29  21417465.658 8 112549551.557 8        48.500    21417464.698 8  87700937.816 8        51.750  
> 2021 11 07 00 51  0.0000000  0 11                     
G02  25231170.812 6 132590691.101 6        39.750    25231168.272 3 103317413.546 3        22.250  
G05  20788979.862 8 109246871.886 8        50.000    20788978.502 8  85127394.676 8        52.750  
G07  24868924.536 6 130687082.706 6        40.000    24868923.196 4 101834096.465 4        24.000  
G13  22835758.048 7 120002762.400 7        45.000    22835756.488 5  93508619.538 5        32.000  
G15  23277685.546 7 122325038.887 7        44.250    23277685.366 7  95318215.445 7        44.750  
G16  23169658.186 7 121757401.540 7        44.000    23169656.286 4  94875892.026 4        29.000  
G18  21080676.500 8 110779714.370 8        48.500    21080675.620 6  86321852.073 6        39.750  
G20  22584871.470 7 118684315.970 7        43.500    22584869.950 5  92481270.109 5        31.750  
G23  24150383.640 6 126911130.546 6        40.500    24150383.240 4  98891791.743 4        26.250  
G26  22983989.128 7 120781696.556 7        43.750    22983991.208 7  94115592.052 7        43.250  
G29  21445393.418 8 112696312.808 8        48.000    21445392.478 8  87815297.208 8        51.500  
> 2021 11 07 00 52  0.0000000  0 11                     
G02  25267703.272 6 132782669.880 6        41.000    25267700.792 4 103467007.316 4        24.000  
G05  20805359.882 8 109332949.391 8        50.250    20805358.482 8  85194468.052 8        52.000  
G07  24854780.676 6 130612756.107 6        40.750    24854779.356 4 101776179.575 4        26.250  
G13  22804591.248 7 119838979.897 7        43.750    22804589.708 5  93380996.833 5        30.750  
G15  23236448.486 7 122108336.669 7        45.500    23236448.226 7  95149356.594 7        45.000  
G16  23155873.726 7 121684963.809 7        43.750    23155871.846 4  94819447.048 4        28.500  
G18  21056204.380 8 110651112.464 8        48.250    21056203.480 6  86221642.798 6        39.500  
G20  22619189.930 7 118864660.566 7        44.750    22619188.410 5  92621798.347 5        31.500  
G23  24107324.860 7 126684855.542 7        44.000    24107324.440 4  98715473.620 4        29.750  
G26  23001322.088 7 120872781.947 7        43.000    23001324.168 7  94186567.689 7        42.000  
G29  21473674.878 8 112844932.733 8        48.000    21473673.958 8  87931104.913 8        51.500  
> 2021 11 07 00 53  0.0000000  0 11                     
G02  25304286.812 6 132974916.995 6        40.750    25304284.372 4 103616810.086 4        24.500  
G05  20822148.142 8 109421172.130 8        49.750    20822146.662 8  85263213.035 8        51.500  
G07  24841003.496 6 130540356.491 6        41.250    24841002.196 4 101719764.381 4        25.500  
G13  22773757.190 7 119676946.167 7        42.750    22773755.690 5  93254736.834 5        30.000  
G15  23195415.726 7 121892708.075 7        46.250    23195415.386 7  94981334.332 7        44.500  
G16  23142563.886 7 121615020.277 7        43.250    23142562.026 4  94764945.618 4        28.750  
G18  21032017.720 8 110524010.739 8        48.000    21032016.840 6  86122602.511 6        39.000  
G20  22653724.050 7 119046138.494 7        44.000    22653722.550 5  92763209.701 5        31.500  
G23  24064367.020 7 126459110.837 7        46.500    24064366.540 5  98539568.694 5        31.500  
G26  23019058.148 7 120965985.679 7        42.000    23019060.228 6  94259193.994 6        41.500  
G29  21502307.358 7 112995397.347 7        47.500    21502306.458 8  88048350.034 8        51.000  
> 2021 11 07 00 54  0.0000000  0 11                     
G02  25340920.092 6 133167425.558 6        38.250    25340917.732 3 103766816.535 3        21.500  
G05  20839341.802 8 109511525.426 8        49.500    20839340.242 8  85333618.182 8        51.000  
G07  24827594.896 6 130469893.851 6        41.250    24827593.596 4 101664858.455 4        25.750  
G13  22743260.530 7 119516685.295 7        44.000    22743259.030 5  93129858.273 5        30.250  
G15  23154592.166 7 121678178.617 7        44.750    23154591.706 7  94814168.522 7        42.000  
G16  23129730.666 7 121547581.356 7        44.000    23129728.806 4  94712395.832 4        28.750  
G18  21008118.640 7 110398420.295 7        47.750    21008117.760 6  86024739.821 6        39.000  
G20  22688470.530 7 119228732.421 7        44.750    22688469.030 5  92905490.667 5        31.500  
G23  24021512.940 7 126233911.190 7        47.000    24021512.400 5  98364088.470 5        32.000  
G26  23037194.388 6 121061292.487 6        41.500    23037196.488 6  94333459.035 6        41.250  
G29  21531288.158 8 113147692.261 8        48.000    21531287.238 8  88167021.373 8        50.500  
> 2021 11 07 00 55  0.0000000  0 11                     
G02  25377600.572 6 133360182.032 6        38.750    25377598.272 3 103917016.201 3        22.250  
G05  20856937.322 8 109603990.344 8        50.000    20856935.642 8  85405668.752 8        51.000  
G07  24814555.956 7 130401373.774 7        42.500    24814554.616 4 101611466.146 4        26.500  
G13  22713104.430 7 119358214.057 7        45.250    22713102.910 5  93006374.183 5        31.000  
G15  23113981.466 7 121464768.001 7        42.000    23113980.966 6  94647874.540 6        38.500  
G16  23117374.806 7 121482651.023 7        44.250    23117372.946 4  94661800.769 4        28.750  
G18  20984508.202 8 110274346.669 8        48.000    20984507.322 6  85928059.057 6        39.000  
G20  22723425.090 7 119412419.829 7        44.250    22723423.610 5  93048623.695 5        31.250  
G23  23978764.342 7 126009265.888 7        45.750    23978763.742 5  98189040.211 5        31.000  
G26  23055726.828 7 121158681.258 7        42.000    23055728.948 6  94409346.404 6        41.250  
G29  21560613.298 8 113301796.615 8        48.250    21560612.298 8  88287102.680 8        50.500  
> 2021 11 07 00 56  0.0000000  0 12                     
G02  25414328.832 6 133553189.598 6        38.750    25414326.632 3 104067411.529 3        20.750  
G05  20874933.982 8 109698563.310 8        50.500    20874932.222 8  85479361.951 8        51.500  
G07  24801891.036 6 130334819.260 6        40.250    24801889.716 4 101559605.521 4        25.000  
G13  22683295.310 7 119201566.124 7        46.500    22683293.770 5  92884310.852 5        32.250  
G15  23073590.588 6 121252512.728 6        40.750    23073590.068 6  94482480.851 6        37.250  
G16  23105500.106 7 121420249.230 7        44.500    23105498.266 4  94613176.079 4        29.250  
G18  20961190.582 8 110151811.764 8        48.250    20961189.702 6  85832577.316 6        39.500  
G20  22758586.670 7 119597194.945 7        45.250    22758585.170 5  93192604.291 5        31.750  
G23  23936126.142 7 125785200.685 7        43.750    23936125.462 4  98014443.949 4        29.750  
G26  23074654.528 6 121258147.090 6        41.500    23074656.648 6  94486852.277 6        41.500  
G29  21590282.136 7 113457707.177 7        47.750    21590281.096 8  88408591.427 8        50.250  
G30  25531451.290 6 134168678.814 6        41.000    25531452.890 3 104547022.915 3        23.000  
> 2021 11 07 00 57  0.0000000  0 12                     
G02  25451102.452 6 133746435.442 6        38.250    25451100.332 3 104217992.442 3        20.750  
G05  20893328.202 8 109795225.321 8        50.250    20893326.382 8  85554682.978 8        52.000  
G07  24789600.956 6 130270234.496 6        41.750    24789599.596 4 101509279.761 4        25.250  
G13  22653836.570 7 119046759.384 7        46.000    22653835.030 5  92763682.228 5        32.750  
G15  23033423.268 7 121041432.152 7        42.750    23033422.728 6  94318002.544 6        40.750  
G16  23094107.306 7 121360379.817 7        43.500    23094105.466 4  94566524.594 4        29.000  
G18  20938166.862 8 110030821.241 8        48.250    20938165.962 6  85738298.992 6        39.250  
G20  22793951.008 7 119783035.651 7        44.250    22793949.508 5  93337415.225 5        31.500  
G23  23893600.102 6 125561725.036 6        41.000    23893599.422 4  97840307.160 4        28.250  
G26  23093973.426 7 121359668.676 7        42.500    23093975.546 6  94565960.019 6        41.250  
G29  21620290.636 7 113615402.875 7        47.750    21620289.576 8  88531471.161 8        50.000  
G30  25504109.370 6 134024996.414 6        39.000    25504110.990 3 104435062.733 3        23.750  
> 2021 11 07 00 58  0.0000000  0 12                     
G02  25487919.990 6 133939912.062 6        37.500    25487917.970 3 104368753.221 3        19.500  
G05  20912117.022 8 109893961.139 8        49.500    20912115.182 8  85631619.973 8        52.000  
G07  24777687.636 6 130207629.703 6        40.500    24777686.296 4 101460496.762 4        26.500  
G13  22624732.450 7 118893816.296 7        43.500    22624730.930 5  92644505.816 5        31.250  
G15  22993484.448 7 120831552.292 7        44.750    22993483.848 7  94154459.840 7        44.500  
G16  23083198.068 7 121303051.568 7        44.500    23083196.208 4  94521853.256 4        29.750  
G18  20915439.182 8 109911386.435 8        48.000    20915438.282 6  85645232.915 6        39.000  
G20  22829515.048 7 119969925.877 7        44.750    22829513.548 5  93483043.970 5        31.750  
G23  23851189.162 6 125338854.234 6        39.000    23851188.482 4  97666641.714 4        27.750  
G26  23113680.466 7 121463230.075 7        42.500    23113682.606 6  94646657.193 6        41.250  
G29  21650636.096 7 113774869.196 7        47.500    21650634.996 8  88655730.620 8        50.000  
G30  25477026.432 6 133882674.381 6        38.750    25477028.012 3 104324162.408 3        22.000  
> 2021 11 07 00 59  0.0000000  0 12                     
G02  25524780.110 6 134133612.322 6        37.750    25524778.170 3 104519688.207 3        21.000  
G05  20931297.962 8 109994757.541 8        49.500    20931296.122 8  85710162.622 8        52.000  
G07  24766153.116 6 130147015.449 6        39.750    24766151.796 4 101413264.880 4        26.000  
G13  22595987.250 7 118742759.427 7        42.250    22595985.770 5  92526799.247 5        30.500  
G15  22953779.088 7 120622899.012 7        46.750    22953778.428 7  93991872.918 7        47.250  
G16  23072774.088 7 121248273.062 7        43.250    23072772.208 4  94479168.743 4        28.750  
G18  20893009.682 7 109793518.690 7        47.750    20893008.782 6  85553387.930 6        39.000  
G20  22865275.608 7 120157848.767 7        44.000    22865274.088 5  93629477.369 5        31.000  
G23  23808896.202 7 125116603.594 7        42.750    23808895.522 4  97493459.506 4        29.000  
G26  23133772.606 7 121568815.042 7        42.750    23133774.746 6  94728931.213 6        41.500  
G29  21681315.496 8 113936090.463 8        48.000    21681314.396 8  88781357.557 8        50.750  
G30  25450206.252 6 133741733.620 6        40.000    25450207.852 3 104214338.471 3        23.750  
> 2021 11 07 01 00  0.0000000  0 12                     
G02  25561680.170 6 134327522.524 6        38.750    25561678.350 3 104670786.822 3        20.750  
G05  20950866.802 8 110097592.400 8        49.750    20950864.982 8  85790293.677 8        52.250  
G07  24754998.176 6 130088395.864 6        40.500    24754996.876 4 101367587.260 4        27.000  
G13  22567604.150 7 118593605.306 7        45.750    22567602.670 5  92410575.295 5        32.500  
G15  22914310.628 7 120415490.718 7        46.750    22914309.908 7  93830256.105 7        47.500  
G16  23062835.468 7 121196045.493 7        45.000    23062833.588 4  94438471.957 4        29.250  
G18  20870879.202 8 109677222.304 8        48.250    20870878.322 6  85462767.367 6        39.500  
G20  22901228.248 7 120346781.126 7        44.000    22901226.748 5  93776697.358 5        30.500  
G23  23766722.862 7 124894981.559 7        43.500    23766722.142 5  97320767.018 5        30.250  
G26  23154245.406 7 121676400.371 7        42.250    23154247.546 6  94812763.933 6        41.250  
G29  21712324.836 7 114099045.579 7        47.750    21712323.756 8  88908335.546 8        51.000  
G30  25423651.592 6 133602188.058 6        40.750    25423653.152 3 104105601.594 3        21.750  
> 2021 11 07 01 01  0.0000000  0 11                     
G05  20970823.002 8 110202462.873 8        49.750    20970821.222 8  85872010.922 8        52.500  
G07  24744226.656 6 130031791.224 6        40.750    24744225.396 4 101323479.780 4        26.250  
G13  22539589.510 7 118446387.274 7        46.500    22539587.970 5  92295859.954 5        33.500  
G15  22875086.108 7 120209364.611 7        45.750    22875085.368 7  93669638.412 7        46.000  
G16  23053385.928 7 121146387.817 7        43.750    23053384.028 4  94399777.668 4        29.500  
G18  20849052.102 8 109562520.040 8        48.500    20849051.182 6  85373388.971 6        39.750  
G20  22937372.088 7 120536718.272 7        42.500    22937370.588 5  93924700.318 5        30.000  
G23  23724674.222 7 124674014.835 7        45.250    23724673.482 5  97148585.161 5        31.750  
G26  23175097.886 7 121785980.862 7        42.500    23175100.006 7  94898151.337 7        42.000  
G29  21743663.316 7 114263730.455 7        47.250    21743662.296 8  89036661.404 8        50.500  
G30  25397368.652 6 133464070.279 6        38.750    25397370.232 3 103997977.412 3        22.000  
> 2021 11 07 01 02  0.0000000  0 11                     
G05  20991162.540 8 110309347.798 8        49.500    20991160.800 8  85955297.865 8        52.500  
G07  24733839.236 7 129977204.834 7        42.750    24733837.956 4 101280944.868 4        27.500  
G13  22511946.270 7 118301121.143 7        46.000    22511944.710 5  92182665.577 5        32.500  
G15  22836109.248 7 120004539.950 7        45.250    22836108.448 7  93510034.813 7        44.500  
G16  23044425.728 7 121099301.906 7        43.750    23044423.868 4  94363087.396 4        29.750  
G18  20827529.262 8 109449416.700 8        48.500    20827528.342 6  85285256.505 6        40.500  
G20  22973702.828 7 120727637.531 7        44.000    22973701.328 5  94073468.551 5        30.500  
G23  23682752.024 7 124453712.426 7        45.500    23682751.284 5  96976920.948 5        32.750  
G26  23196325.626 7 121897533.312 7        43.250    23196327.706 6  94985075.342 6        41.750  
G29  21775326.736 7 114430122.769 7        46.750    21775325.716 8  89166317.752 8        48.750  
G30  25371360.152 6 133327394.634 6        39.000    25371361.652 3 103891476.973 3        21.250  
> 2021 11 07 01 03  0.0000000  0 11                     
G05  21011882.280 8 110418230.769 8        49.250    21011880.580 8  86040141.732 8        52.250  
G07  24723837.496 7 129924645.113 7        42.500    24723836.196 4 101239989.228 4        27.250  
G13  22484678.390 7 118157827.509 7        45.750    22484676.810 5  92071008.199 5        31.500  
G15  22797384.728 7 119801041.373 7        44.500    22797383.848 7  93351464.516 7        42.750  
G16  23035955.908 7 121054792.649 7        42.500    23035953.988 5  94328404.846 5        30.500  
G18  20806312.502 8 109337921.842 8        48.500    20806311.582 6  85198377.401 6        40.750  
G20  23010217.228 7 120919521.974 7        43.500    23010215.748 5  94222988.860 5        30.250  
G23  23640958.844 7 124234087.970 7        43.250    23640958.124 5  96805785.071 5        32.750  
G26  23217925.046 7 122011039.064 7        42.750    23217927.106 6  95073521.383 6        41.250  
G29  21807311.936 7 114598206.235 7        46.000    21807310.956 8  89297291.844 8        48.500  
G30  25345629.632 6 133192179.844 6        39.250    25345631.112 3 103786114.868 3        21.000  
> 2021 11 07 01 04  0.0000000  0 11                     
G05  21032979.780 8 110529098.833 8        49.000    21032978.120 8  86126532.427 8        52.250  
G07  24714223.436 7 129874122.744 7        42.500    24714222.136 4 101200621.120 4        27.250  
G13  22457790.332 7 118016529.921 7        44.500    22457788.752 5  91960906.209 5        31.250  
G15  22758917.550 7 119598895.188 7        43.250    22758916.630 6  93193948.027 6        40.750  
G16  23027977.888 6 121012867.939 6        41.750    23027975.988 4  94295736.215 4        29.000  
G18  20785404.262 8 109228048.229 8        48.500    20785403.322 6  85112761.604 6        41.000  
G20  23046912.488 7 121112356.772 7        42.750    23046911.008 4  94373249.746 4        28.750  
G23  23599297.904 7 124015158.520 7        42.000    23599297.244 5  96635190.753 5        32.000  
G26  23239893.206 6 122126482.553 6        41.250    23239895.246 6  95163477.342 6        40.500  
G29  21839616.256 7 114767966.553 7        46.250    21839615.296 8  89429572.579 8        48.500  
G30  25320181.292 6 133058448.188 6        40.500    25320182.752 4 103681908.408 4        24.250  
> 2021 11 07 01 05  0.0000000  0 11                     
G05  21054450.680 8 110641929.205 8        49.250    21054449.060 8  86214452.185 8        52.250  
G07  24704997.176 6 129825638.224 6        41.250    24704995.876 4 101162840.983 4        24.500  
G13  22431284.812 7 117877242.602 7        45.250    22431283.252 5  91852370.679 5        32.250  
G15  22720711.290 7 119398120.126 7        42.250    22720710.330 6  93037499.947 6        40.000  
G16  23020491.648 7 120973527.309 7        42.250    23020489.748 4  94265081.199 4        28.750  
G18  20764805.202 8 109119799.509 8        48.500    20764804.282 6  85028411.952 6        40.750  
G20  23083784.148 7 121306118.554 7        43.500    23083782.668 4  94524232.899 4        29.250  
G23  23557770.744 6 123796932.124 6        41.750    23557770.144 5  96465144.288 5        31.500  
G26  23262225.366 6 122243838.870 6        41.500    23262227.406 6  95254923.843 6        40.000  
G29  21872235.096 7 114939379.593 7        47.250    21872234.136 8  89563141.165 8        48.750  
G30  25295017.672 6 132926212.693 6        38.250    25295019.132 3 103578867.899 3        21.250  
> 2021 11 07 01 06  0.0000000  0 11                     
G05  21076294.080 8 110756717.073 8        49.750    21076292.520 8  86303897.273 8        52.250  
G07  24696162.436 7 129779211.239 7        42.000    24696161.116 4 101126664.064 4        25.000  
G13  22405167.932 7 117739997.579 7        44.750    22405166.372 5  91745426.517 5        32.250  
G15  22682772.890 7 119198752.593 7        43.750    22682771.890 6  92882148.641 6        41.500  
G16  23013500.308 7 120936787.328 7        44.750    23013498.368 5  94236452.652 5        30.250  
G18  20744519.462 8 109013197.346 8        48.250    20744518.562 6  84945345.336 6        40.750  
G20  23120831.226 7 121500802.226 7        42.750    23120829.786 4  94675934.402 4        29.000  
G23  23516382.304 7 123579434.790 7        43.750    23516381.744 5  96295665.921 5        32.500  
G26  23284920.186 6 122363100.980 6        40.750    23284922.226 6  95347855.350 6        39.000  
G29  21905167.714 8 115112441.509 8        48.000    21905166.734 8  89697994.600 8        49.500  
G30  25270144.612 6 132795504.198 6        40.500    25270146.052 4 103477017.165 4        24.000  
> 2021 11 07 01 07  0.0000000  0 11                     
G05  21098505.960 8 110873441.343 8        49.250    21098504.440 8  86394851.246 8        52.000  
G07  24687719.596 6 129734843.626 6        39.000    24687718.256 3 101092091.949 3        22.500  
G13  22379442.552 7 117604809.905 7        45.000    22379441.012 5  91640085.493 5        32.250  
G15  22645105.870 7 119000811.133 7        44.250    22645104.830 7  92727908.567 7        42.250  
G16  23007003.568 7 120902646.734 7        45.000    23007001.588 4  94209849.604 4        29.000  
G18  20724547.942 8 108908246.387 8        48.250    20724547.062 6  84863565.370 6        41.000  
G20  23158049.646 7 121696386.007 7        43.000    23158048.166 4  94828337.313 4        28.500  
G23  23475134.344 7 123362675.631 7        43.750    23475133.764 5  96126762.713 5        32.250  
G26  23307973.046 6 122484244.659 6        41.250    23307975.106 6  95442253.009 6        39.250  
G29  21938409.694 8 115287129.117 8        48.250    21938408.694 8  89834114.816 8        50.250  
G30  25245564.752 6 132666336.535 6        39.000    25245566.172 3 103376367.106 3        21.500  
> 2021 11 07 01 08  0.0000000  0 11                     
G05  21121083.300 8 110992086.047 8        49.250    21121081.800 8  86487301.654 8        51.750  
G07  24679669.976 6 129692542.779 6        40.250    24679668.676 3 101059130.181 3        22.750  
G13  22354112.512 7 117471699.822 7        45.250    22354110.972 5  91536363.373 5        31.750  
G15  22607715.030 7 118804321.145 7        45.500    22607713.990 7  92574799.495 7        44.000  
G16  23001002.288 7 120871109.763 7        46.250    23001000.328 5  94185275.413 5        31.000  
G18  20704892.622 8 108804957.044 8        48.500    20704891.742 6  84783080.176 6        41.250  
G20  23195436.226 7 121892853.566 7        44.000    23195434.746 4  94981428.912 4        29.000  
G23  23434029.684 7 123146669.558 7        43.500    23434029.104 5  95958446.303 5        31.750  
G26  23331380.426 6 122607251.365 6        40.750    23331382.506 6  95538102.380 6        39.750  
G29  21971957.854 7 115463425.788 7        47.000    21971956.834 8  89971488.841 8        49.250  
G30  25221281.812 6 132538729.168 6        41.000    25221283.212 4 103276932.882 4        24.750  
> 2021 11 07 01 09  0.0000000  0 11                     
G05  21144022.820 8 111112634.183 8        48.750    21144021.360 8  86581235.262 8        51.500  
G07  24672015.036 6 129652316.000 6        39.000    24672013.776 3 101027784.649 3        21.250  
G13  22329181.672 7 117340687.473 7        45.000    22329180.132 5  91434275.839 5        31.750  
G15  22570605.170 7 118609307.580 7        46.000    22570604.110 7  92422840.902 7        46.250  
G16  22995497.268 7 120842180.806 7        45.250    22995495.308 5  94162733.364 5        31.750  
G18  20685555.484 8 108703339.666 8        48.750    20685554.604 6  84703897.795 6        41.250  
G20  23232987.866 7 122090188.551 7        42.250    23232986.386 4  95135196.386 4        28.750  
G23  23393071.164 7 122931431.400 7        44.750    23393070.584 5  95790728.283 5        31.500  
G26  23355138.746 6 122732102.127 6        41.750    23355140.826 6  95635388.672 6        39.500  
G29  22005809.034 7 115641315.060 7        45.250    22005808.054 8  90110103.834 8        48.000  
G30  25197299.492 6 132412701.492 6        41.000    25197300.832 4 103178729.520 4        24.500  
> 2021 11 07 01 10  0.0000000  0 12                     
G05  21167320.820 8 111235066.107 8        49.000    21167319.400 8  86676636.751 8        51.750  
G07  24664755.316 6 129614165.888 6        41.500    24664754.056 4 100998057.285 4        25.250  
G13  22304652.972 7 117211788.256 7        46.500    22304651.412 5  91333834.903 5        33.500  
G15  22533780.070 7 118415790.297 7        47.000    22533778.990 7  92272048.208 7        47.250  
G16  22990488.488 7 120815859.421 7        43.750    22990486.528 5  94142223.188 5        31.250  
G18  20666537.544 8 108603399.811 8        48.250    20666536.664 6  84626022.598 6        41.000  
G20  23270700.646 7 122288370.432 7        43.500    23270699.186 4  95289623.799 4        29.000  
G23  23352260.726 7 122716971.358 7        43.750    23352260.126 5  95623616.580 5        31.500  
G26  23379243.486 7 122858773.469 7        42.250    23379245.586 6  95734093.596 6        40.500  
G27  25018055.194 6 131470768.303 6        41.500    25018056.914 4 102444755.099 4        28.500  
G29  22039959.114 7 115820775.220 7        44.000    22039958.194 7  90249942.869 7        47.750  
G30  25173620.514 6 132288267.974 6        40.750    25173621.874 3 103081768.379 3        23.750  
> 2021 11 07 01 11  0.0000000  0 12                     
G05  21190975.880 8 111359374.155 8        49.500    21190974.460 8  86773500.159 8        51.750  
G07  24657893.596 6 129578107.311 6        41.250    24657892.356 4 100969959.631 4        26.000  
G13  22280532.112 7 117085032.058 7        47.500    22280530.512 5  91235063.860 5        34.500  
G15  22497246.270 7 118223803.759 7        46.000    22497245.170 7  92122448.345 7        46.250  
G16  22985978.208 7 120792157.663 7        44.000    22985976.308 5  94123754.304 5        31.000  
G18  20647842.564 8 108505157.105 8        49.000    20647841.704 6  84549469.827 6        41.500  
G20  23308573.246 7 122487392.199 7        42.500    23308571.826 4  95444705.633 4        28.250  
G23  23311603.006 7 122503313.755 7        44.000    23311602.406 5  95457130.159 5        31.750  
G26  23403692.824 6 122987255.511 6        41.500    23403694.924 6  95834209.455 6        40.500  
G27  24975157.094 6 131245337.910 6        41.000    24975158.794 4 102269095.263 4        27.000  
G29  22074406.714 7 116001798.499 7        46.500    22074405.814 8  90390999.924 8        49.000  
G30  25150250.354 6 132165457.094 6        41.500    25150251.694 4 102986071.599 4        25.500  
> 2021 11 07 01 12  0.0000000  0 12                     
G05  21214983.940 8 111485537.336 8        48.750    21214982.520 8  86871809.125 8        51.750  
G07  24651430.356 7 129544142.517 7        42.000    24651429.096 4 100943493.515 4        29.000  
G13  22256821.692 7 116960432.786 7        46.500    22256820.052 5  91137973.531 5        33.500  
G15  22461007.472 7 118033367.724 7        45.000    22461006.392 7  91974056.656 7        44.750  
G16  22981966.048 7 120771073.568 7        44.250    22981964.108 5  94107325.127 5        30.500  
G18  20629471.544 8 108408616.617 8        48.750    20629470.644 6  84474243.471 6        41.250  
G20  23346601.746 7 122687233.178 7        42.250    23346600.346 4  95600425.855 4        27.750  
G23  23271099.846 7 122290468.473 7        43.750    23271099.286 5  95291276.733 5        33.000  
G26  23428482.084 6 123117523.914 6        41.750    23428484.184 6  95935717.280 6        40.750  
G27  24932376.974 6 131020527.650 6        40.750    24932378.634 4 102093918.589 4        25.000  
G29  22109147.634 8 116184362.890 8        48.000    22109146.714 8  90533257.864 8        50.500  
G30  25127191.654 6 132044282.826 6        41.000    25127192.974 4 102891650.071 4        26.000  
> 2021 11 07 01 13  0.0000000  0 12                     
G05  21239341.840 8 111613538.869 8        48.750    21239340.440 8  86971550.574 8        51.750  
G07  24645366.696 7 129512277.082 7        43.750    24645365.416 5 100918663.228 5        30.750  
G13  22233525.272 7 116838009.320 7        44.750    22233523.612 5  91042578.653 5        31.500  
G15  22425068.332 7 117844506.345 7        44.000    22425067.252 7  91826891.957 7        43.000  
G16  22978452.388 7 120752609.338 7        44.750    22978450.468 4  94092937.459 4        28.750  
G18  20611426.284 8 108313788.269 8        48.500    20611425.404 6  84400351.255 6        41.500  
G20  23384783.204 7 122887877.850 7        43.000    23384781.824 4  95756772.283 4        28.500  
G23  23230754.106 7 122078450.273 7        44.250    23230753.566 5  95126067.803 5        34.500  
G26  23453607.524 7 123249558.953 7        42.000    23453609.644 6  96038601.712 6        40.500  
G27  24889718.734 6 130796357.611 6        41.250    24889720.354 4 101919240.749 4        28.750  
G29  22144178.554 8 116368451.230 8        48.000    22144177.614 8  90676703.304 8        50.250  
G30  25104447.874 6 131924763.645 6        40.750    25104449.214 4 102798518.287 4        24.250  
> 2021 11 07 01 14  0.0000000  0 12                     
G05  21264046.320 8 111743361.720 8        49.000    21264044.920 8  87072711.234 8        51.500  
G07  24639703.556 7 129482515.849 7        44.750    24639702.136 5 100895472.593 5        31.250  
G13  22210646.352 7 116717779.889 7        45.750    22210644.692 5  90948893.421 5        31.750  
G15  22389433.412 7 117657243.732 7        44.500    22389432.312 7  91680973.068 7        43.000  
G16  22975437.568 7 120736766.539 7        43.750    22975435.668 5  94080592.447 5        30.250  
G18  20593708.664 8 108220681.327 8        49.250    20593707.764 6  84327800.389 6        41.750  
G20  23423114.404 6 123089309.458 6        41.500    23423113.044 4  95913731.901 4        28.000  
G23  23190568.446 7 121867273.304 7        46.000    23190567.946 6  94961514.362 6        36.000  
G26  23479065.284 6 123383340.296 6        39.750    23479067.424 6  96142846.887 6        39.500  
G27  24847185.956 6 130572847.290 6        40.750    24847187.676 4 101745076.983 4        26.000  
G29  22179495.934 7 116554045.060 7        47.750    22179494.974 8  90821321.858 8        48.750  
G30  25082022.494 6 131806917.496 6        41.000    25082023.854 4 102706690.151 4        25.500  
> 2021 11 07 01 15  0.0000000  0 12                     
G05  21289093.278 8 111874984.320 8        48.750    21289091.898 8  87175274.283 8        51.500  
G07  24634440.876 7 129454859.411 7        44.500    24634439.396 5 100873922.102 5        31.500  
G13  22188187.692 7 116599758.800 7        46.500    22188185.972 5  90856928.962 5        32.750  
G15  22354106.392 7 117471599.104 7        45.000    22354105.272 7  91536314.899 7        43.500  
G16  22972921.028 7 120723541.856 7        43.500    22972919.088 5  94070287.499 5        30.500  
G18  20576319.484 7 108129300.798 7        47.750    20576318.604 6  84256594.786 6        41.250  
G20  23461591.424 7 123291507.334 7        42.250    23461590.084 4  96071288.641 4        27.250  
G23  23150544.786 7 121656947.588 7        45.500    23150544.286 5  94797624.222 5        35.000  
G26  23504850.624 6 123518843.140 6        41.750    23504852.784 6  96248433.497 6        40.000  
G27  24804781.816 6 130350012.571 6        40.750    24804783.496 4 101571439.616 4        26.500  
G29  22215095.632 7 116741122.625 7        46.000    22215094.652 7  90967096.578 7        46.750  
G30  25059918.054 6 131690757.935 6        40.750    25059919.434 4 102616176.212 4        25.500  
> 2021 11 07 01 16  0.0000000  0 12                     
G05  21314481.478 8 112008400.219 8        48.750    21314480.118 8  87279234.720 8        51.500  
G07  24629581.676 7 129429323.294 7        45.000    24629580.156 5 100854023.761 5        31.750  
G13  22166154.734 7 116483974.895 7        47.000    22166152.974 5  90766707.758 5        33.250  
G15  22319093.912 7 117287607.248 7        44.500    22319092.752 7  91392944.634 7        44.250  
G16  22970904.888 7 120712946.858 7        45.000    22970902.928 5  94062031.636 5        31.250  
G18  20559262.664 8 108039666.791 8        48.750    20559261.824 6  84186750.115 6        41.500  
G20  23500213.264 7 123494466.295 7        43.000    23500211.944 4  96229438.407 4        28.000  
G23  23110687.846 7 121447498.215 7        43.000    23110687.346 5  94634416.972 5        32.000  
G26  23530961.704 7 123656057.687 7        42.000    23530963.864 6  96355353.896 6        39.250  
G27  24762512.136 7 130127884.271 7        42.000    24762513.816 5 101398352.789 5        30.000  
G29  22250976.212 7 116929676.422 7        45.000    22250975.232 7  91114021.598 7        46.250  
G30  25038139.974 6 131576313.373 6        41.000    25038141.334 4 102526998.658 4        26.000  
> 2021 11 07 01 17  0.0000000  0 12                     
G05  21340206.498 8 112143586.122 8        48.500    21340205.158 8  87384574.374 8        51.250  
G07  24625125.516 7 129405905.219 7        43.750    24625123.956 5 100835775.884 5        31.000  
G13  22144549.714 7 116370439.717 7        47.250    22144547.894 5  90678238.791 5        33.000  
G15  22284399.292 7 117105286.060 7        45.000    22284398.152 7  91250876.212 7        44.750  
G16  22969388.048 7 120704975.795 7        44.750    22969386.068 5  94055820.393 5        31.250  
G18  20542538.924 8 107951782.797 8        49.750    20542538.044 7  84118269.070 7        42.250  
G20  23538975.784 6 123698164.386 6        39.750    23538974.484 4  96388164.178 4        27.000  
G23  23070999.308 7 121238933.769 7        43.750    23070998.788 5  94471899.262 5        31.500  
G26  23557393.464 6 123794957.457 6        41.500    23557395.644 6  96463587.494 6        38.250  
G27  24720379.616 7 129906476.844 7        42.250    24720381.276 4 101225827.617 4        26.500  
G29  22287133.112 7 117119682.380 7        45.500    22287132.172 7  91262078.160 7        47.500  
G30  25016690.494 6 131463595.613 6        40.500    25016691.874 4 102439166.633 4        24.500  
> 2021 11 07 01 18  0.0000000  0 12                     
G05  21366265.318 8 112280526.219 8        48.250    21366264.038 8  87491280.931 8        51.000  
G07  24621073.556 7 129384611.482 7        43.750    24621071.996 5 100819183.357 5        31.000  
G13  22123376.074 7 116259171.641 7        46.000    22123374.254 5  90591536.440 5        32.250  
G15  22250027.372 7 116924660.691 7        45.250    22250026.272 7  91110129.187 7        45.500  
G16  22968370.668 7 120699629.437 7        44.750    22968368.708 5  94051654.335 5        31.000  
G18  20526150.184 8 107865659.148 8        50.000    20526149.264 7  84051159.725 7        42.500  
G20  23577876.224 6 123902587.258 6        41.500    23577874.924 4  96547454.625 4        26.250  
G23  23031482.148 7 121031269.854 7        45.250    23031481.588 5  94310083.246 5        32.250  
G26  23584142.184 6 123935522.825 6        41.750    23584144.364 6  96573118.942 6        38.000  
G27  24678388.336 7 129685811.683 7        42.000    24678389.976 4 101053880.921 4        28.750  
G29  22323563.272 7 117311124.134 7        46.250    22323562.372 8  91411253.524 8        48.500  
G30  24995573.134 6 131352623.179 6        41.250    24995574.514 4 102352694.660 4        25.250  
> 2021 11 07 01 19  0.0000000  0 12                     
G05  21392654.638 8 112419202.906 8        48.750    21392653.358 8  87599340.683 8        50.750  
G07  24617426.476 7 129365445.424 7        44.500    24617424.896 5 100804248.804 5        30.750  
G13  22102637.074 7 116150187.576 7        46.500    22102635.234 5  90506613.794 5        32.000  
G15  22215982.732 7 116745754.929 7        46.500    22215981.612 7  90970722.125 7        46.250  
G16  22967852.788 7 120696908.015 7        43.250    22967850.868 5  94049533.795 5        30.750  
G18  20510098.084 8 107781304.730 8        49.000    20510097.144 7  83985429.012 7        42.250  
G20  23616911.464 6 124107718.692 6        40.750    23616910.224 3  96707297.239 3        23.250  
G23  22992139.068 7 120824520.610 7        45.500    22992138.448 5  94148979.957 5        33.000  
G26  23611203.844 6 124077732.695 6        40.500    23611206.024 6  96683931.808 6        37.500  
G27  24636542.236 7 129465909.119 7        42.250    24636543.756 4 100882528.290 4        26.500  
G29  22360262.972 7 117503982.277 7        46.500    22360262.112 8  91561532.570 8        49.250  
G30  24974791.134 6 131243413.211 6        40.750    24974792.514 4 102267596.020 4        25.000  
> 2021 11 07 01 20  0.0000000  0 12                     
G05  21419370.138 8 112559593.727 8        48.500    21419368.838 8  87708736.124 8        50.750  
G07  24614183.776 7 129348404.582 7        44.000    24614182.176 5 100790970.258 5        30.500  
G13  22082334.994 7 116043499.604 7        46.250    22082333.154 5  90423480.336 5        32.000  
G15  22182268.714 7 116568586.676 7        46.250    22182267.594 7  90832668.964 7        46.500  
G16  22967833.168 7 120696804.955 7        43.250    22967831.288 5  94049453.483 5        30.250  
G18  20494383.384 8 107698723.637 8        49.000    20494382.484 7  83921080.122 7        42.500  
G20  23656077.744 6 124313538.614 6        40.250    23656076.524 4  96867676.359 4        25.750  
G23  22952971.848 7 120618695.433 7        46.250    22952971.168 5  93988596.734 5        34.250  
G26  23638573.444 6 124221560.908 6        41.000    23638575.644 6  96796005.724 6        38.000  
G27  24594844.156 6 129246784.795 6        41.000    24594845.736 4 100711782.239 4        28.750  
G29  22397227.932 7 117698234.353 7        45.750    22397227.112 8  91712897.794 8        48.750  
G30  24954346.814 6 131135977.655 6        40.500    24954348.214 4 102183880.080 4        24.750  
> 2021 11 07 01 21  0.0000000  0 12                     
G05  21446410.338 8 112701690.879 8        48.750    21446409.018 8  87819461.173 8        50.500  
G07  24611348.076 7 129333502.563 7        45.000    24611346.436 5 100779358.326 5        31.500  
G13  22062474.874 7 115939134.071 7        46.750    22062473.014 5  90342156.559 5        32.500  
G15  22148891.554 7 116393188.511 7        46.500    22148890.394 7  90695995.083 7        46.250  
G16  22968313.428 7 120699328.857 7        44.000    22968311.568 5  94051420.200 5        30.500  
G18  20479009.804 8 107617934.842 8        50.250    20479008.904 7  83858127.821 7        43.250  
G20  23695373.802 7 124520040.599 7        42.000    23695372.622 4  97028586.912 4        27.750  
G23  22913985.128 7 120413818.763 7        47.000    22913984.408 6  93828952.592 6        36.000  
G26  23666248.884 6 124366996.325 6        41.750    23666251.104 6  96909332.018 6        37.750  
G27  24553300.018 6 129028469.339 6        40.750    24553301.598 4 100541666.338 4        27.750  
G29  22434456.492 7 117893871.888 7        45.000    22434455.752 7  91865342.575 7        47.750  
G30  24934245.234 6 131030343.363 6        41.000    24934246.614 4 102101567.659 4        24.750  
> 2021 11 07 01 22  0.0000000  0 12                     
G05  21473770.838 8 112845471.198 8        48.000    21473769.478 8  87931497.771 8        50.250  
G07  24608918.736 7 129320736.161 7        43.500    24608917.076 5 100769410.435 5        31.250  
G13  22043058.634 7 115837101.265 7        47.000    22043056.794 5  90262650.476 5        33.250  
G15  22115854.714 7 116219578.877 7        45.750    22115853.514 7  90560714.859 7        45.500  
G16  22969292.208 7 120704472.441 7        44.500    22969290.348 5  94055428.200 5        30.750  
G18  20463977.804 8 107538940.994 8        49.750    20463976.884 7  83796574.169 7        43.500  
G20  23734795.582 6 124727203.288 6        41.250    23734794.462 3  97190012.275 3        23.750  
G23  22875180.468 7 120209898.711 7        47.250    22875179.708 6  93670053.861 6        36.250  
G26  23694224.942 7 124514011.375 7        43.000    23694227.162 6  97023889.184 6        38.750  
G27  24511912.618 6 128810977.525 6        41.250    24511914.218 4 100372192.390 4        28.250  
G29  22471944.012 7 118090870.130 7        44.750    22471943.352 7  92018847.653 7        47.000  
G30  24914488.414 6 130926520.788 6        41.500    24914489.794 4 102020666.956 4        25.250  
> 2021 11 07 01 23  0.0000000  0 12                     
G05  21501448.858 7 112990920.159 7        47.250    21501447.518 8  88044834.606 8        50.250  
G07  24606896.816 7 129310110.663 7        44.250    24606895.116 5 100761130.751 5        31.750  
G13  22024089.874 7 115737419.848 7        46.500    22024088.034 5  90184976.653 5        32.750  
G15  22083162.954 7 116047782.747 7        44.500    22083161.774 7  90426847.765 7        44.750  
G16  22970769.648 7 120712236.364 7        44.250    22970767.748 5  94061478.029 5        30.500  
G18  20449289.604 8 107461753.992 8        49.250    20449288.704 7  83736428.451 7        43.500  
G20  23774340.842 7 124935014.569 7        42.250    23774339.722 4  97351943.130 4        26.000  
G23  22836561.168 7 120006952.736 7        44.500    22836560.368 5  93511914.167 5        34.000  
G26  23722498.042 6 124662587.416 6        41.750    23722500.242 6  97139662.690 6        38.750  
G27  24470686.498 6 128594333.225 6        41.250    24470688.078 4 100203378.738 4        28.500  
G29  22509687.450 7 118289213.325 7        45.750    22509686.850 7  92173400.743 7        46.250  
G30  24895080.114 6 130824529.486 6        41.000    24895081.414 4 101941193.195 4        24.000  
> 2021 11 07 01 24  0.0000000  0 12                     
G05  21529440.758 7 113138018.629 7        47.500    21529439.478 8  88159456.759 8        50.250  
G07  24605282.476 7 129301626.850 7        43.750    24605280.736 5 100754519.983 5        31.750  
G13  22005571.234 7 115640103.853 7        46.750    22005569.394 5  90109146.018 5        33.500  
G15  22050820.614 7 115877822.942 7        44.250    22050819.474 7  90294411.592 7        45.000  
G16  22972744.828 7 120722616.142 7        44.000    22972742.928 4  94069566.176 4        29.250  
G18  20434946.584 8 107386380.974 8        48.750    20434945.704 7  83677696.227 7        43.250  
G20  23814006.302 7 125143457.501 7        43.500    23814005.202 4  97514366.050 4        27.500  
G23  22798129.588 7 119804993.633 7        44.500    22798128.808 5  93354543.495 5        32.750  
G26  23751063.882 6 124812701.906 6        41.500    23751066.102 6  97256635.005 6        39.500  
G27  24429625.358 6 128378555.914 6        41.250    24429626.918 4 100035240.615 4        27.500  
G29  22547683.110 7 118488881.585 7        46.500    22547682.470 7  92328986.394 7        46.250  
G30  24876023.076 6 130724384.078 6        41.500    24876024.376 4 101863157.853 4        25.000  
> 2021 11 07 01 25  0.0000000  0 12                     
G05  21557742.278 7 113286744.068 7        47.500    21557741.018 8  88275346.707 8        49.500  
G07  24604075.036 7 129295281.639 7        44.000    24604073.336 5 100749575.634 5        31.750  
G13  21987504.794 7 115545164.181 7        46.250    21987502.974 5  90035167.066 5        32.750  
G15  22018830.874 7 115709715.968 7        45.250    22018829.754 7  90163419.196 7        45.750  
G16  22975216.288 7 120735603.912 7        43.250    22975214.408 4  94079686.518 4        29.250  
G18  20420949.424 8 107312825.546 8        49.000    20420948.584 7  83620380.320 7        43.000  
G20  23853788.022 6 125352511.506 6        40.000    23853786.942 4  97677265.185 4        24.500  
G23  22759887.630 7 119604030.850 7        46.250    22759886.810 5  93197949.129 5        33.500  
G26  23779917.382 6 124964327.977 6        41.250    23779919.622 6  97374785.129 6        39.500  
G27  24388732.298 7 128163661.717 7        42.000    24388733.838 4  99867790.638 4        28.500  
G29  22585926.530 7 118689851.913 7        46.500    22585925.870 7  92485586.644 7        46.500  
G30  24857319.436 6 130626095.692 6        40.750    24857320.676 4 101786569.454 4        26.500  
> 2021 11 07 01 26  0.0000000  0 12                     
G05  21586351.836 7 113437088.346 7        47.000    21586350.576 8  88392498.071 8        49.250  
G07  24603276.696 7 129291086.152 7        43.250    24603275.036 5 100746306.264 5        31.000  
G13  21969895.134 7 115452624.927 7        46.500    21969893.334 5  89963058.565 5        32.750  
G15  21987199.974 7 115543494.585 7        47.000    21987198.834 7  90033896.051 7        47.500  
G16  22978185.308 7 120751206.110 7        45.500    22978183.388 5  94091844.054 5        31.500  
G18  20407301.624 8 107241105.894 8        49.250    20407300.784 7  83564494.885 7        43.000  
G20  23893685.162 7 125562171.851 7        42.750    23893684.082 3  97840636.855 3        22.750  
G23  22721839.850 7 119404088.328 7        47.250    22721838.970 5  93042149.771 5        34.750  
G26  23809056.222 6 125117453.444 6        41.250    23809058.462 6  97494103.670 6        38.500  
G27  24348013.158 7 127949681.529 7        42.250    24348014.718 4  99701052.931 4        28.750  
G29  22624415.870 7 118892114.555 7        45.750    22624415.190 7  92643193.879 7        47.000  
G30  24838974.016 6 130529689.856 6        41.250    24838975.296 4 101711447.993 4        27.000  
> 2021 11 07 01 27  0.0000000  0 12                     
G05  21615265.276 7 113589029.452 7        47.500    21615264.016 8  88510893.707 8        49.250  
G07  24602886.936 7 129289037.566 7        44.000    24602885.336 5 100744709.849 5        31.500  
G13  21952744.134 7 115362495.971 7        46.750    21952742.334 5  89892828.206 5        32.250  
G15  21955931.474 7 115379177.335 7        47.250    21955930.274 8  89905856.639 8        48.000  
G16  22981650.268 7 120769414.372 7        46.500    22981648.308 5  94106032.349 5        32.250  
G18  20394003.824 8 107171225.636 8        49.000    20394003.004 7  83510042.735 7        42.750  
G20  23933693.902 6 125772418.820 6        40.000    23933692.862 4  98004465.521 4        24.000  
G23  22683988.010 7 119205175.582 7        46.750    22683987.090 5  92887152.857 5        35.000  
G26  23838475.302 6 125272051.634 6        40.250    23838477.562 6  97614569.748 6        37.500  
G27  24307471.138 6 127736631.878 6        41.250    24307472.618 4  99535040.286 4        28.750  
G29  22663146.710 7 119095646.443 7        44.250    22663146.070 7  92801790.100 7        47.250  
G30  24820988.876 6 130435177.321 6        40.750    24820990.196 4 101637801.861 4        25.500  
> 2021 11 07 01 28  0.0000000  0 12                     
G05  21644479.136 7 113742549.335 7        47.750    21644477.896 8  88630519.598 8        49.000  
G07  24602905.776 7 129289135.869 7        43.250    24602904.236 5 100744786.317 5        30.500  
G13  21936054.594 7 115274791.859 7        47.000    21936052.774 5  89824487.307 5        32.750  
G15  21925029.314 7 115216785.398 7        47.250    21925028.094 7  89779317.480 7        47.500  
G16  22985610.248 7 120790223.936 7        47.000    22985608.248 5  94122247.635 5        32.500  
G18  20381057.626 8 107103192.998 8        49.000    20381056.826 7  83457030.297 7        42.750  
G20  23973811.342 6 125983236.836 6        41.000    23973810.302 4  98168739.228 4        25.000  
G23  22646334.830 7 119007306.783 7        46.000    22646333.870 5  92732969.414 5        35.000  
G26  23868170.442 6 125428100.499 6        39.250    23868172.702 5  97736166.231 5        35.500  
G27  24267110.180 6 127524533.865 6        41.750    24267111.620 4  99369769.133 4        27.750  
G29  22702115.450 7 119300428.541 7        43.500    22702114.870 7  92961360.482 7        47.500  
G30  24803366.976 6 130342573.425 6        40.500    24803368.276 4 101565642.946 4        26.750  
> 2021 11 07 01 29  0.0000000  0 12                     
G05  21673989.976 7 113897629.836 7        47.250    21673988.776 8  88751361.516 8        49.000  
G07  24603333.436 7 129291382.478 7        42.000    24603331.896 4 100746536.934 4        27.250  
G13  21919829.054 7 115189526.024 7        47.750    21919827.234 5  89758046.386 5        33.500  
G15  21894497.894 7 115056341.706 7        46.250    21894496.634 7  89654296.417 7        46.500  
G16  22990064.428 7 120813630.637 7        43.750    22990062.388 5  94140486.621 5        31.250  
G18  20368464.566 8 107037016.076 8        49.000    20368463.746 7  83405463.872 7        42.750  
G20  24014034.680 7 126194611.591 7        42.250    24014033.680 4  98333446.627 4        27.000  
G23  22608882.990 7 118810496.130 7        46.250    22608882.030 5  92579610.521 5        35.250  
G26  23898137.402 6 125585577.989 6        39.750    23898139.702 5  97858875.939 5        34.250  
G27  24226934.400 7 127313408.976 7        42.000    24226935.840 4  99205256.301 4        28.000  
G29  22741318.530 7 119506441.949 7        45.750    22741317.990 7  93121890.334 7        47.750  
G30  24786111.116 6 130251893.295 6        41.750    24786112.456 4 101494983.195 4        26.750  
> 2021 11 07 01 30  0.0000000  0 12                     
G05  21703793.636 7 114054249.103 7        47.750    21703792.456 8  88873402.476 8        49.000  
G07  24604168.836 6 129295772.351 6        36.750    24604167.356 3 100749957.639 3        21.750  
G13  21904069.154 7 115106707.080 7        47.500    21904067.314 5  89693512.128 5        34.250  
G15  21864340.296 7 114897862.695 7        45.750    21864339.056 7  89530806.293 7        46.250  
G16  22995010.728 7 120839623.861 7        43.500    22995008.728 4  94160741.095 4        29.500  
G18  20356225.206 8 106972697.871 8        49.000    20356224.406 7  83355345.780 7        42.750  
G20  24054360.240 5 126406523.264 5        35.750    24054359.260 3  98498572.522 3        20.500  
G23  22571634.250 7 118614752.811 7        46.750    22571633.290 5  92427083.296 5        35.250  
G26  23928371.042 6 125744456.716 6        41.250    23928373.362 5  97982677.485 5        34.500  
G27  24186946.920 6 127103273.534 6        41.500    24186948.320 4  99041514.425 4        28.250  
G29  22780751.350 7 119713662.491 7        46.000    22780750.810 7  93283360.813 7        47.500  
G30  24769223.216 6 130163146.729 6        40.500    24769224.556 4 101425830.016 4        25.500  
> 2021 11 07 01 31  0.0000000  0 12                     
G05  21733888.556 7 114212398.985 7        47.250    21733887.376 8  88996636.139 8        49.000  
G07  24605413.936 5 129302315.327 5        35.750    24605412.516 3 100755056.080 3        19.000  
G13  21888779.334 7 115026358.539 7        47.000    21888777.534 5  89630902.897 5        34.250  
G15  21834562.676 7 114741380.485 7        45.750    21834561.476 7  89408872.106 7        47.500  
G16  23000450.208 7 120868208.623 7        42.250    23000448.228 4  94183014.891 4        28.500  
G18  20344343.006 8 106910256.544 8        49.750    20344342.186 7  83306690.206 7        43.250  
G20  24094787.120 6 126618967.282 6        41.250    24094786.160 4  98664113.321 4        24.750  
G23  22534593.230 7 118420101.090 7        45.500    22534592.250 5  92275406.679 5        34.000  
G26  23958869.022 6 125904724.585 6        41.750    23958871.362 5  98107561.533 5        35.250  
G27  24147153.760 6 126894159.314 6        41.000    24147155.160 4  98878568.316 4        28.500  
G29  22820412.268 7 119922081.683 7        46.500    22820411.728 7  93445765.331 7        45.750  
G30  24752707.956 6 130076358.551 6        40.750    24752709.316 4 101358202.900 4        26.500  
> 2021 11 07 01 32  0.0000000  0 12                     
G05  21764270.236 7 114372055.794 7        47.500    21764269.076 8  89121044.027 8        49.000  
G07  24607067.736 6 129311006.244 6        37.250    24607066.356 3 100761828.252 3        20.500  
G13  21873960.916 7 114948487.426 7        46.250    21873959.176 5  89570224.147 5        33.750  
G15  21805168.116 7 114586911.148 7        46.500    21805166.936 8  89288506.415 8        48.250  
G16  23006380.608 7 120899373.207 7        44.500    23006378.648 5  94207298.974 5        31.000  
G18  20332818.386 8 106849694.288 8        49.750    20332817.566 7  83259498.830 7        43.500  
G20  24135311.520 7 126831923.740 7        44.000    24135310.580 4  98830053.150 4        29.500  
G23  22497761.550 7 118226549.646 7        47.000    22497760.590 5  92124587.416 5        34.500  
G26  23989626.040 7 126066353.680 7        42.250    23989628.380 6  98233506.292 6        36.500  
G27  24107558.020 6 126686082.501 6        41.750    24107559.420 4  98716430.590 4        29.500  
G29  22860296.588 7 120131674.891 7        46.250    22860296.008 7  93609084.702 7        44.250  
G30  24736567.016 6 129991537.497 6        41.000    24736568.376 4 101292108.656 4        26.750  
> 2021 11 07 01 33  0.0000000  0 12                     
G05  21794935.476 7 114533202.691 7        47.500    21794934.336 8  89246612.999 8        49.000  
G07  24609129.976 7 129321843.491 7        43.000    24609128.596 4 100770272.979 4        24.750  
G13  21859616.356 7 114873106.365 7        47.250    21859614.616 5  89511485.670 5        33.750  
G15  21776160.716 7 114434476.177 7        47.250    21776159.556 8  89169725.924 8        49.000  
G16  23012800.648 7 120933110.608 7        44.750    23012798.688 5  94233587.882 5        31.500  
G18  20321652.766 8 106791018.507 8        50.000    20321651.926 7  83213777.444 7        43.500  
G20  24175930.720 6 127045378.215 6        38.250    24175929.760 3  98996381.169 3        18.500  
G23  22461141.912 7 118034112.244 7        47.250    22461140.892 5  91974636.200 5        35.000  
G26  24020637.780 7 126229321.216 7        42.250    24020640.100 6  98360493.974 6        37.750  
G27  24068163.720 6 126479064.230 6        41.750    24068165.100 4  98555117.724 4        28.750  
G29  22900400.628 7 120342422.692 7        44.750    22900400.008 7  93773303.759 7        43.250  
G30  24720803.016 6 129908697.362 6        41.500    24720804.356 4 101227557.959 4        26.500  
> 2021 11 07 01 34  0.0000000  0 12                     
G05  21825880.776 7 114695821.222 7        47.500    21825879.616 8  89373328.730 8        49.000  
G07  24611600.576 7 129334826.490 7        44.250    24611599.096 4 100780389.605 4        27.500  
G13  21845747.936 7 114800227.466 7        47.750    21845746.216 5  89454696.928 5        34.500  
G15  21747544.516 7 114284097.021 7        47.000    21747543.356 8  89052547.359 8        48.500  
G16  23019709.188 7 120969415.354 7        44.000    23019707.268 5  94261877.311 5        30.000  
G18  20310847.686 8 106734237.297 8        49.750    20310846.826 7  83169532.341 7        43.500  
G20  24216641.820 6 127259315.822 6        38.250    24216640.880 3  99163085.828 3        22.000  
G23  22424737.052 7 117842803.464 7        47.250    22424735.992 5  91825564.415 5        34.250  
G26  24051900.000 6 126393605.249 6        40.000    24051902.340 6  98488507.496 6        37.750  
G27  24028975.100 7 126273126.868 7        42.000    24028976.480 4  98394647.071 4        29.250  
G29  22940720.768 7 120554306.326 7        43.500    22940720.168 7  93938407.834 7        44.000  
G30  24705418.716 6 129827852.543 6        40.750    24705420.036 4 101164562.047 4        26.500  
> 2021 11 07 01 35  0.0000000  0 12                     
G05  21857101.776 7 114859888.682 7        47.500    21857100.596 8  89501173.487 8        48.500  
G07  24614478.316 7 129349949.179 7        44.500    24614476.736 4 100792173.578 4        28.000  
G13  21832356.876 7 114729856.923 7        47.500    21832355.136 5  89399862.720 5        33.750  
G15  21719322.316 7 114135788.388 7        46.250    21719321.136 8  88936982.188 8        48.000  
G16  23027103.788 7 121008274.355 7        44.750    23027101.888 5  94292157.048 5        30.500  
G18  20300403.446 8 106679352.406 8        50.250    20300402.546 7  83126764.886 7        43.250  
G20  24257441.160 6 127473717.341 6        37.750    24257440.260 3  99330151.773 3        20.750  
G23  22388548.532 7 117652631.721 7        45.750    22388547.492 5  91677378.669 5        33.500  
G26  24083407.380 6 126559177.441 6        40.250    24083409.700 6  98617524.731 6        37.750  
G27  23989995.220 6 126068286.366 6        41.500    23989996.580 4  98235031.154 4        29.250  
G29  22981252.468 7 120767301.569 7        42.500    22981251.848 7  94104378.055 7        43.500  
G30  24690415.636 6 129749010.962 6        41.750    24690416.936 4 101103127.063 4        27.750  
> 2021 11 07 01 36  0.0000000  0 12                     
G05  21888596.994 8 115025397.022 8        48.000    21888595.754 8  89630141.021 8        48.250  
G07  24617764.656 6 129367219.133 6        41.750    24617763.056 4 100805630.710 4        29.250  
G13  21819447.276 8 114662016.493 8        48.250    21819445.496 5  89347000.005 5        34.500  
G15  21691500.116 7 113989581.777 7        46.500    21691498.936 7  88823054.965 7        47.750  
G16  23034985.008 7 121049690.498 7        44.000    23034983.128 5  94324429.384 5        30.250  
G18  20290323.386 8 106626381.322 8        50.250    20290322.466 7  83085488.721 7        43.250  
G20  24298327.998 6 127688578.541 6        38.750    24298327.138 3  99497575.926 3        23.500  
G23  22352580.972 7 117463620.999 7        47.000    22352579.932 5  91530097.610 5        35.500  
G26  24115157.500 6 126726025.355 6        38.500    24115159.840 6  98747535.997 6        36.750  
G27  23951230.162 6 125864574.806 6        41.750    23951231.542 5  98076294.937 5        30.000  
G29  23021993.908 7 120981399.147 7        43.000    23021993.328 7  94271207.261 7        45.000  
G30  24675798.176 6 129672196.054 6        40.500    24675799.496 4 101043271.305 4        26.000  
> 2021 11 07 01 37  0.0000000  0 12                     
G05  21920362.054 8 115192323.369 8        48.250    21920360.754 8  89760213.476 8        48.250  
G07  24621458.436 6 129386630.238 6        41.000    24621456.836 4 100820756.209 4        26.250  
G13  21807020.256 7 114596712.031 7        47.500    21807018.496 5  89296113.419 5        34.000  
G15  21664080.796 7 113845492.469 7        46.000    21664079.656 7  88710777.593 7        47.250  
G16  23043350.268 7 121093650.404 7        42.500    23043348.428 4  94358683.850 4        29.000  
G18  20280607.886 8 106575326.043 8        50.500    20280606.966 7  83045705.385 7        43.500  
G20  24339298.718 6 127903880.623 6        41.250    24339297.938 3  99665343.606 3        21.500  
G23  22316836.052 7 117275780.208 7        46.750    22316835.012 6  91383728.176 6        36.250  
G26  24147145.060 6 126894120.918 6        41.500    24147147.400 6  98878519.514 6        37.000  
G27  23912683.082 6 125662008.770 6        41.250    23912684.442 4  97918451.283 4        29.000  
G29  23062940.428 7 121196574.268 7        45.250    23062939.868 7  94438876.131 7        46.750  
G30  24661567.976 6 129597415.854 6        41.500    24661569.276 4 100985001.045 4        27.000  
> 2021 11 07 01 38  0.0000000  0 12                     
G05  21952393.694 8 115360650.565 8        48.000    21952392.314 8  89891377.499 8        48.250  
G07  24625559.096 6 129408179.725 6        37.250    24625557.536 4 100837547.860 4        25.000  
G13  21795077.736 7 114533953.675 7        46.500    21795075.976 5  89247210.759 5        32.750  
G15  21637068.256 7 113703540.697 7        46.750    21637067.116 8  88600165.833 8        48.250  
G16  23052198.088 7 121140146.036 7        43.750    23052196.268 4  94394914.223 4        29.750  
G18  20271258.366 8 106526193.871 8        50.500    20271257.406 7  83007420.567 7        43.750  
G20  24380350.738 6 128119609.948 6        39.000    24380350.018 3  99833444.292 3        20.750  
G23  22281316.412 7 117089123.424 7        45.250    22281315.392 5  91238281.344 5        34.750  
G26  24179365.760 6 127063441.666 6        41.750    24179368.120 6  99010457.703 6        37.250  
G27  23874358.202 6 125460610.408 6        41.250    23874359.582 4  97761517.580 4        29.750  
G29  23104088.446 7 121412808.212 7        46.000    23104087.886 7  94607370.060 7        47.250  
G30  24647727.396 6 129524683.252 6        41.750    24647728.696 4 100928326.336 4        27.000  
> 2021 11 07 01 39  0.0000000  0 12                     
G05  21984688.174 7 115530359.111 7        47.500    21984686.754 8  90023617.910 8        48.500  
G07  24630066.016 6 129431863.799 6        40.250    24630064.496 4 100856002.958 4        24.000  
G13  21783621.416 7 114473750.515 7        46.500    21783619.716 5  89200299.234 5        34.250  
G15  21610466.156 7 113563745.711 7        47.500    21610465.016 8  88491234.666 8        49.000  
G16  23061526.448 7 121189166.938 7        44.750    23061524.628 5  94433112.332 5        30.500  
G18  20262275.846 8 106478990.281 8        50.500    20262274.846 7  82970638.549 7        43.750  
G20  24421481.098 6 128335750.931 6        40.500    24421480.458 4 100001865.715 4        24.250  
G23  22246024.452 7 116903663.208 7        45.000    22246023.472 5  91093766.968 5        34.500  
G26  24211815.000 6 127233963.347 6        40.500    24211817.380 6  99143331.685 6        36.250  
G27  23836259.442 7 125260400.346 7        42.000    23836260.822 5  97605509.756 5        30.000  
G29  23145433.946 7 121630080.005 7        45.250    23145433.426 7  94776672.703 7        46.250  
G30  24634278.616 6 129454009.451 6        41.000    24634279.896 4 100873255.832 4        26.500  
> 2021 11 07 01 40  0.0000000  0 12                     
G05  22017242.334 7 115701432.295 7        47.500    22017240.914 8  90156921.657 8        48.500  
G07  24634978.856 7 129457680.856 7        42.250    24634977.356 4 100876120.231 4        25.500  
G13  21772653.436 7 114416113.344 7        45.500    21772651.756 5  89155387.138 5        33.000  
G15  21584278.378 8 113426127.990 8        48.000    21584277.238 8  88384000.105 8        49.750  
G16  23071333.888 7 121240705.467 7        43.750    23071332.088 5  94473272.221 5        30.000  
G18  20253661.746 8 106433722.836 8        50.250    20253660.726 7  82935365.206 7        44.000  
G20  24462687.338 6 128552290.711 6        40.000    24462686.778 3 100170597.744 3        23.250  
G23  22210962.952 7 116719414.045 7        47.250    22210961.992 6  90950196.210 6        36.000  
G26  24244488.540 6 127405663.754 6        41.250    24244490.960 6  99277124.198 6        36.750  
G27  23798391.102 6 125061401.128 6        41.000    23798392.482 4  97450445.492 4        29.750  
G29  23186973.546 7 121848371.853 7        43.750    23186973.066 7  94946770.173 7        43.000  
G30  24621224.036 6 129385407.347 6        41.000    24621225.336 4 100819799.701 4        26.750  
> 2021 11 07 01 41  0.0000000  0 12                     
G05  22050051.674 7 115873846.459 7        47.250    22050050.254 8  90291270.338 8        48.500  
G07  24640295.836 7 129485621.543 7        43.500    24640294.316 4 100897892.230 4        25.250  
G13  21762174.376 8 114361045.483 8        48.750    21762172.716 6  89112477.141 6        36.500  
G15  21558507.538 7 113290701.214 7        47.750    21558506.398 8  88278472.766 8        49.750  
G16  23081617.428 7 121294745.824 7        43.000    23081615.628 4  94515381.613 4        28.750  
G18  20245416.266 8 106390392.477 8        50.500    20245415.226 7  82901601.285 7        44.000  
G20  24503965.898 6 128769210.438 6        38.250    24503965.418 3 100339626.015 3        20.750  
G23  22176133.494 7 116536384.100 7        47.250    22176132.534 6  90807575.461 6        36.250  
G26  24277380.980 6 127578514.390 6        40.750    24277383.400 6  99411812.944 6        36.500  
G27  23760756.282 6 124863629.143 6        41.500    23760757.662 4  97296337.489 4        29.000  
G29  23228702.426 6 122067658.464 6        41.250    23228701.986 6  95117642.791 6        40.750  
G30  24608564.916 6 129318883.374 6        41.750    24608566.176 4 100767962.850 4        26.000  
> 2021 11 07 01 42  0.0000000  0 12                     
G05  22083114.854 7 116047594.506 7        46.750    22083113.454 8  90426658.404 8        48.500  
G07  24646018.116 6 129515692.325 6        41.250    24646016.596 4 100921324.006 4        25.250  
G13  21752187.936 8 114308565.929 8        50.000    21752186.196 6  89071583.930 6        37.250  
G15  21533159.178 7 113157494.694 7        47.500    21533158.038 8  88174675.504 8        49.000  
G16  23092377.046 7 121351288.082 7        44.500    23092375.266 4  94559440.488 4        29.500  
G18  20237542.546 8 106349015.773 8        50.500    20237541.486 7  82869359.695 7        44.000  
G20  24545315.998 6 128986506.065 6        39.250    24545315.578 3 100508947.115 3        20.750  
G23  22141540.594 7 116354597.152 7        47.500    22141539.594 6  90665923.308 6        36.250  
G26  24310489.818 7 127752502.201 7        42.500    24310492.238 6  99547387.827 6        36.750  
G27  23723361.122 6 124667116.479 6        41.500    23723362.502 4  97143210.783 4        29.500  
G29  23270618.806 6 122287930.354 6        41.250    23270618.406 6  95289283.180 6        39.250  
G30  24596305.376 6 129254458.944 6        41.250    24596306.596 4 100717761.973 4        26.750  
> 2021 11 07 01 43  0.0000000  0 12                     
G05  22116427.314 7 116222652.549 7        47.250    22116425.954 7  90563067.260 7        47.750  
G07  24652144.056 6 129547884.549 6        37.750    24652142.576 4 100946408.726 4        24.250  
G13  21742694.656 7 114258678.193 7        47.000    21742692.876 5  89032710.338 5        33.500  
G15  21508235.938 7 113026522.339 7        46.000    21508234.798 8  88072619.156 8        48.000  
G16  23103609.806 7 121410316.677 7        44.000    23103608.026 4  94605436.826 4        28.750  
G18  20230040.766 8 106309593.511 8        49.500    20230039.686 7  82838641.043 7        43.250  
G20  24586734.076 6 129204158.885 6        38.250    24586733.736 3 100678546.563 3        21.000  
G23  22107185.734 7 116174061.247 7        46.250    22107184.754 5  90525245.994 5        34.250  
G26  24343809.598 6 127927598.606 6        41.000    24343812.038 5  99683826.574 5        35.500  
G27  23686208.702 6 124471879.489 6        41.000    23686210.082 4  96991078.061 4        28.750  
G29  23312717.926 6 122509162.563 6        41.500    23312717.566 6  95461671.840 6        40.250  
G30  24584446.436 6 129192140.006 6        40.500    24584447.676 4 100669201.799 4        25.250  
> 2021 11 07 01 44  0.0000000  0 12                     
G05  22149985.954 7 116399004.332 7        46.250    22149984.634 8  90700484.183 8        48.500  
G07  24658672.976 7 129582194.247 7        42.750    24658671.516 4 100973143.589 4        28.500  
G13  21733696.136 8 114211390.552 8        48.250    21733694.356 5  88995862.819 5        34.250  
G15  21483741.418 7 112897802.951 7        46.500    21483740.278 8  87972318.372 8        48.750  
G16  23115313.806 7 121471821.654 7        43.250    23115312.026 4  94653362.779 4        28.250  
G18  20222912.146 8 106272132.161 8        50.750    20222911.006 7  82809450.370 7        44.500  
G20  24628217.576 6 129422155.578 6        38.250    24628217.316 3 100848413.914 3        21.500  
G23  22073071.594 7 115994790.286 7        47.000    22073070.594 5  90385554.320 5        34.750  
G26  24377336.018 6 128103780.932 6        40.000    24377338.458 5  99821111.458 5        34.750  
G27  23649303.324 6 124277940.618 6        41.750    23649304.704 4  96839956.904 4        29.750  
G29  23354996.166 7 122731335.959 7        44.250    23354995.806 7  95634793.908 7        42.750  
G30  24572990.358 6 129131937.957 6        41.000    24572991.578 4 100622291.076 4        26.250  
> 2021 11 07 01 45  0.0000000  0 12                     
G05  22183787.114 7 116576630.509 7        46.750    22183785.834 8  90838894.158 8        48.000  
G07  24665603.756 7 129618615.681 7        43.500    24665602.316 4 101001523.915 4        25.000  
G13  21725193.736 7 114166709.938 7        47.500    21725191.936 5  88961046.730 5        34.500  
G15  21459678.938 7 112771353.986 7        47.250    21459677.818 8  87873786.751 8        49.250  
G16  23127486.726 7 121535790.911 7        42.750    23127484.966 4  94703208.927 4        27.500  
G18  20216157.666 8 106236637.019 8        50.750    20216156.506 7  82781791.820 7        44.500  
G20  24669763.856 6 129640482.128 6        38.000    24669763.676 3 101018538.339 3        20.750  
G23  22039200.594 7 115816797.182 7        45.750    22039199.614 5  90246858.413 5        34.250  
G26  24411064.498 6 128281025.239 6        40.750    24411066.938 5  99959223.868 5        33.750  
G27  23612649.004 7 124085321.063 7        42.750    23612650.384 5  96689863.775 5        30.500  
G29  23397449.684 7 122954430.305 7        44.000    23397449.304 7  95808633.633 7        42.750  
G30  24561938.978 6 129073862.690 6        41.500    24561940.218 4 100577037.641 4        26.000  
> 2021 11 07 01 46  0.0000000  0 12                     
G05  22217826.532 7 116755508.805 7        46.500    22217825.292 7  90978279.808 7        47.750  
G07  24672934.616 6 129657139.495 6        41.500    24672933.176 3 101031542.541 3        23.500  
G13  21717187.856 8 114124638.684 8        48.000    21717186.076 5  88928263.923 5        34.250  
G15  21436051.098 8 112647188.983 8        48.000    21436049.978 8  87777034.825 8        50.500  
G16  23140125.386 7 121602207.600 7        42.750    23140123.646 4  94754962.188 4        28.000  
G18  20209777.526 8 106203109.122 8        50.750    20209776.366 7  82755666.178 7        44.750  
G20  24711369.576 6 129859121.005 6        40.250    24711369.476 3 101188906.113 3        23.250  
G23  22005574.354 7 115640090.366 7        45.500    22005573.434 5  90109164.813 5        34.750  
G26  24444989.758 6 128459303.523 6        40.000    24444992.198 5 100098141.958 5        34.000  
G27  23576249.064 7 123894038.148 7        42.750    23576250.424 5  96540812.181 5        30.500  
G29  23440073.844 7 123178421.620 7        42.500    23440073.484 7  95983172.281 7        43.250  
G30  24551293.398 6 129017919.839 6        41.250    24551294.658 4 100533445.814 4        26.500  
> 2021 11 07 01 47  0.0000000  0 12                     
G05  22252102.672 7 116935631.118 7        46.250    22252101.472 7  91118634.806 7        47.500  
G07  24680666.256 6 129697769.700 6        40.500    24680664.836 4 101063202.285 4        24.750  
G13  21709681.496 7 114085192.709 7        46.500    21709679.776 5  88897526.785 5        33.750  
G15  21412863.038 8 112525334.995 8        48.500    21412861.898 8  87682083.682 8        50.750  
G16  23153229.386 7 121671069.603 7        43.750    23153227.646 4  94808620.886 4        28.000  
G18  20203774.566 8 106171563.252 8        50.750    20203773.386 7  82731084.973 7        44.750  
G20  24753033.996 6 130078068.256 6        41.500    24753033.976 3 101359514.170 3        23.750  
G23  21972197.234 7 115464692.566 7        46.750    21972196.334 6  89972491.240 6        36.000  
G26  24479109.098 6 128638601.762 6        38.750    24479111.558 5 100237854.794 5        35.500  
G27  23540109.344 7 123704122.843 7        43.000    23540110.704 4  96392826.288 4        29.750  
G29  23482866.704 6 123403299.546 6        40.750    23482866.404 6  96158401.736 6        41.000  
G30  24541057.298 6 128964128.629 6        41.000    24541058.518 4 100491530.558 4        26.500  
> 2021 11 07 01 48  0.0000000  0 12                     
G05  22286611.292 7 117116975.104 7        45.500    22286610.132 6  91259941.789 6        41.250  
G07  24688797.016 7 129740497.190 7        43.000    24688795.636 4 101096496.517 4        27.750  
G13  21702675.076 7 114048373.839 7        47.500    21702673.396 5  88868836.768 5        34.500  
G15  21390117.458 8 112405806.068 8        48.250    21390116.278 8  87588944.261 8        50.750  
G16  23166795.506 7 121742360.186 7        42.250    23166793.806 4  94864172.004 4        28.000  
G18  20198148.966 8 106142000.404 8        50.500    20198147.766 7  82708048.975 7        44.750  
G20  24794753.756 6 130297306.234 6        39.500    24794753.796 3 101530348.722 3        22.500  
G23  21939070.874 7 115290612.412 7        47.750    21939069.974 6  89836844.360 6        36.750  
G26  24513417.258 6 128818892.139 6        40.250    24513419.738 6 100378340.733 6        36.000  
G27  23504233.224 7 123515592.675 7        42.750    23504234.564 5  96245919.683 5        30.250  
G29  23525823.804 6 123629040.459 6        40.000    23525823.544 6  96334303.632 6        39.750  
G30  24531231.598 6 128912494.200 6        40.500    24531232.818 4 100451295.912 4        26.000  
> 2021 11 07 01 49  0.0000000  0 12                     
G05  22321348.952 7 117299522.652 7        47.000    22321347.812 6  91402186.583 6        36.750  
G07  24697325.296 6 129785313.704 6        41.250    24697323.956 4 101131418.351 4        27.000  
G13  21696169.596 7 114014187.306 7        47.000    21696167.956 5  88842197.907 5        35.000  
G15  21367817.058 8 112288616.717 8        48.000    21367815.878 8  87497627.895 8        50.750  
G16  23180821.066 7 121816064.868 7        45.250    23180819.346 5  94921604.248 5        30.250  
G18  20192901.486 8 106114424.779 8        50.250    20192900.326 7  82686561.468 7        44.750  
G20  24836526.156 6 130516820.913 6        38.250    24836526.296 3 101701398.820 3        21.000  
G23  21906197.574 7 115117862.107 7        47.750    21906196.674 6  89702233.741 6        37.250  
G26  24547909.578 6 129000150.307 6        40.000    24547912.078 6 100519580.814 6        37.000  
G27  23468624.644 7 123328468.424 7        43.000    23468625.964 4  96100108.621 4        29.750  
G29  23568940.964 6 123855622.472 6        41.500    23568940.744 6  96510860.971 6        41.500  
G30  24521817.918 6 128863024.957 6        41.000    24521819.158 4 100412748.477 4        27.000  
> 2021 11 07 01 50  0.0000000  0 10                     
G05  22356312.252 6 117483255.803 6        40.000    22356311.112 5  91545355.233 5        31.250  
G13  21690166.196 6 113982639.134 6        41.500    21690164.556 5  88817614.902 5        30.500  
G15  21345965.278 6 112173785.006 6        40.750    21345964.118 7  87408148.661 7        45.000  
G16  23195303.806 6 121892172.080 6        38.250    23195302.066 4  94980908.582 4        24.000  
G18  20188033.266 7 106088842.052 7        43.000    20188032.106 6  82666626.868 6        40.000  
G23  21873579.916 6 114946455.154 6        40.750    21873578.996 5  89568669.884 5        32.000  
G26  24582581.738 5 129182353.399 5        35.500    24582584.258 5 100661557.182 5        33.750  
G27  23433287.884 6 123142772.473 6        38.250    23433289.164 4  95955410.498 4        25.750  
G29  23612214.744 6 124083027.474 6        36.500    23612214.584 6  96688059.584 6        38.000  
G30  24512818.078 5 128815730.353 5        34.500    24512819.338 3 100375895.444 3        21.750  
> 2021 11 07 01 51  0.0000000  0 12                     
G05  22391496.932 7 117668152.287 7        45.750    22391495.792 5  91689430.381 5        35.250  
G07  24715569.696 6 129881188.489 6        39.500    24715568.416 4 101206125.812 4        24.000  
G13  21684664.776 7 113953728.887 7        47.000    21684663.116 5  88795087.408 5        34.250  
G15  21324564.238 7 112061321.937 7        45.500    21324563.118 8  87320515.129 8        48.500  
G16  23210240.126 7 121970663.048 7        42.500    23210238.386 4  95042070.362 4        27.750  
G18  20183544.186 8 106065251.827 8        48.250    20183543.046 7  82648244.871 7        44.000  
G20  24920218.534 6 130956625.404 6        37.500    24920218.894 3 102044103.040 3        21.750  
G23  21841219.376 7 114776399.337 7        46.250    21841218.456 6  89436158.874 6        36.500  
G26  24617428.236 6 129365472.748 6        39.750    24617430.776 6 100804247.539 6        36.500  
G27  23398226.064 6 122958521.339 6        41.500    23398227.284 4  95811838.243 4        29.250  
G29  23655640.404 7 124311230.464 7        42.250    23655640.284 7  96865880.031 7        42.250  
G30  24504232.738 6 128770613.916 6        40.500    24504233.978 4 100340739.750 4        26.250  
> 2021 11 07 01 52  0.0000000  0 11                     
G05  22426901.552 7 117854204.571 7        46.500    22426900.412 6  91834406.143 6        36.750  
G07  24725284.056 7 129932237.661 7        42.000    24725282.816 4 101245904.396 4        26.000  
G13  21679668.056 8 113927470.799 8        48.250    21679666.396 6  88774626.534 6        36.500  
G15  21303618.958 7 111951253.995 7        47.750    21303617.878 8  87234747.918 8        50.000  
G16  23225629.286 7 122051533.682 7        43.500    23225627.546 4  95105086.445 4        28.750  
G18  20179437.066 8 106043668.750 8        50.000    20179435.966 7  82631426.872 7        45.500  
G23  21809120.276 7 114607717.471 7        47.250    21809119.356 6  89304718.473 6        37.000  
G26  24652446.536 6 129549494.849 6        40.500    24652449.096 6 100947641.353 6        36.000  
G27  23363445.206 7 122775746.812 7        43.000    23363446.406 5  95669416.559 5        31.500  
G29  23699216.022 7 124540221.685 7        42.500    23699215.982 7  97044314.636 7        42.000  
G30  24496065.358 6 128727693.784 6        40.500    24496066.598 4 100307295.504 4        27.250  
> 2021 11 07 01 53  0.0000000  0 11                     
G05  22462521.792 7 118041389.843 7        46.250    22462520.632 6  91980264.726 6        36.750  
G07  24735390.996 6 129985349.924 6        40.000    24735389.796 4 101287290.647 4        24.000  
G13  21675175.896 8 113903864.166 8        48.250    21675174.236 6  88756231.736 6        37.000  
G15  21283131.460 8 111843591.542 8        48.250    21283130.400 8  87150855.093 8        50.750  
G16  23241467.566 7 122134764.426 7        43.750    23241465.846 4  95169941.546 4        29.000  
G18  20175711.746 8 106024092.001 8        50.500    20175710.666 7  82616172.262 7        45.750  
G23  21777284.056 7 114440416.995 7        47.250    21777283.136 6  89174354.480 6        37.000  
G26  24687631.116 6 129734390.981 6        38.000    24687633.736 5 101091716.195 5        35.750  
G27  23328948.446 7 122594465.173 7        43.250    23328949.606 5  95528158.179 5        31.250  
G29  23742936.862 6 124769975.974 6        40.750    23742936.902 6  97223343.856 6        37.500  
G30  24488316.438 6 128686972.701 6        41.500    24488317.698 4 100275564.810 4        27.750  
> 2021 11 07 01 54  0.0000000  0 11                     
G05  22498354.130 7 118229689.662 7        46.500    22498352.970 6  92126991.814 6        36.250  
G07  24745888.896 6 130040516.853 6        40.250    24745887.756 4 101330277.766 4        24.500  
G13  21671188.756 7 113882911.488 7        47.750    21671187.116 6  88739904.970 6        36.000  
G15  21263104.520 8 111738349.110 8        48.750    21263103.440 8  87068847.999 8        51.000  
G16  23257751.986 7 122220339.686 7        43.250    23257750.266 4  95236623.554 4        28.500  
G18  20172368.846 8 106006524.883 8        50.000    20172367.806 7  82602483.590 7        45.750  
G23  21745712.936 7 114274509.597 7        47.250    21745711.996 6  89045075.980 6        37.000  
G26  24722977.356 6 129920136.494 6        37.750    24722979.996 5 101236452.945 5        34.000  
G27  23294739.666 7 122414697.002 7        44.500    23294740.826 5  95388079.153 5        31.750  
G29  23786798.982 6 125000472.621 6        38.500    23786799.082 5  97402951.539 5        34.500  
G30  24480987.218 6 128648457.203 6        41.000    24480988.478 4 100245552.732 4        26.250  
> 2021 11 07 01 55  0.0000000  0 11                     
G05  22534395.570 7 118419088.465 7        46.250    22534394.410 6  92274575.246 6        36.250  
G07  24756776.856 6 130097733.469 6        41.500    24756775.736 4 101374862.107 4        27.250  
G13  21667707.596 7 113864617.874 7        47.250    21667705.996 5  88725650.177 5        35.500  
G15  21243541.420 8 111635544.328 8        49.000    21243540.340 8  86988740.361 8        51.250  
G16  23274480.066 7 122308246.329 7        43.750    23274478.346 4  95305122.256 4        28.250  
G18  20169409.586 8 105990973.887 8        50.500    20169408.586 7  82590365.917 7        45.750  
G23  21714409.736 7 114110010.174 7        46.750    21714408.796 6  88916894.631 6        37.250  
G26  24758481.216 6 130106710.428 6        37.500    24758483.896 5 101381835.144 5        33.000  
G27  23260823.506 7 122236466.381 7        44.500    23260824.606 5  95249198.106 5        31.250  
G29  23830799.082 6 125231694.449 6        39.750    23830799.242 5  97583124.274 5        35.500  
G30  24474079.498 7 128612156.881 7        42.000    24474080.758 4 100217266.781 4        26.500  
> 2021 11 07 01 56  0.0000000  0 11                     
G05  22570641.730 7 118609562.959 7        46.000    22570640.570 5  92422996.876 5        35.500  
G07  24768052.076 6 130156985.068 6        41.000    24768050.976 4 101421032.219 4        26.500  
G13  21664731.776 7 113848979.776 7        46.250    21664730.196 5  88713464.636 5        33.750  
G15  21224443.740 8 111535185.224 8        48.500    21224442.660 8  86910538.455 8        51.000  
G16  23291647.946 7 122398464.234 7        43.250    23291646.266 4  95375421.897 4        28.250  
G18  20166833.506 8 105977436.475 8        50.500    20166832.526 7  82579817.276 7        45.500  
G23  21683375.596 7 113946924.757 7        47.750    21683374.676 6  88789815.112 6        38.000  
G26  24794136.996 6 130294082.693 6        37.500    24794139.716 5 101527839.452 5        33.500  
G27  23227202.706 7 122059788.058 7        43.500    23227203.806 5  95111526.776 5        31.000  
G29  23874932.182 6 125463614.995 6        41.250    23874932.362 6  97763841.498 6        37.750  
G30  24467593.358 6 128578072.141 6        40.750    24467594.658 4 100190707.235 4        26.750  
> 2021 11 07 01 57  0.0000000  0 11                     
G05  22607091.030 7 118801105.161 7        45.500    22607089.910 5  92572250.493 5        35.250  
G07  24779714.676 6 130218272.616 6        39.500    24779713.616 4 101468788.737 4        24.000  
G13  21662263.736 7 113836010.252 7        47.000    21662262.196 5  88703358.513 5        34.250  
G15  21205816.040 8 111437295.902 8        48.000    21205814.960 8  86834261.054 8        50.750  
G16  23309254.326 7 122490986.388 7        44.250    23309252.666 4  95447517.072 4        28.250  
G18  20164643.246 8 105965926.444 8        50.250    20164642.266 7  82570848.413 7        45.500  
G23  21652614.856 8 113785275.893 8        48.250    21652613.916 6  88663854.957 6        38.250  
G26  24829942.136 6 130482239.708 6        40.250    24829944.876 6 101674455.279 6        36.750  
G27  23193883.366 7 121884693.920 7        44.250    23193884.446 5  94975089.742 5        31.250  
G29  23919196.402 7 125696224.550 7        43.250    23919196.602 7  97945095.603 7        42.000  
G30  24461532.018 6 128546219.605 6        41.500    24461533.318 4 100165887.057 4        26.750  
> 2021 11 07 01 58  0.0000000  0 11                     
G05  22643739.390 7 118993693.348 7        45.000    22643738.290 5  92722319.114 5        35.000  
G07  24791762.296 6 130281583.444 6        40.750    24791761.276 4 101518121.856 4        24.250  
G13  21660302.816 8 113825705.371 8        49.000    21660301.256 5  88695328.708 5        35.000  
G15  21187660.140 7 111341886.046 7        47.250    21187659.080 8  86759915.717 8        50.500  
G16  23327295.406 7 122585792.730 7        43.750    23327293.706 4  95521392.162 4        28.250  
G18  20162838.506 8 105956442.476 8        50.250    20162837.566 7  82563458.296 7        45.750  
G23  21622128.876 8 113625070.868 8        48.250    21622127.916 6  88539019.883 6        38.250  
G26  24865891.236 6 130671153.222 6        39.000    24865893.976 6 101821660.545 6        36.000  
G27  23160868.526 7 121711200.086 7        43.750    23160869.626 5  94839899.807 5        31.500  
G29  23963587.042 7 125929498.386 7        43.750    23963587.282 7  98126867.284 7        45.000  
G30  24455895.678 6 128516600.530 6        41.000    24455896.978 4 100142807.273 4        26.000  
> 2021 11 07 01 59  0.0000000  0 11                     
G05  22680583.630 7 119187310.899 7        45.000    22680582.550 5  92873189.896 5        34.750  
G07  24804193.256 6 130346908.700 6        41.750    24804192.256 4 101569024.662 4        27.750  
G13  21658849.296 8 113818066.712 8        50.750    21658847.676 6  88689376.428 6        36.750  
G15  21169978.580 7 111248969.021 7        47.250    21169977.580 8  86687512.853 8        50.500  
G16  23345767.986 7 122682866.825 7        43.250    23345766.306 4  95597034.326 4        28.500  
G18  20161419.946 8 105948987.899 8        49.750    20161419.026 7  82557649.524 7        45.500  
G23  21591919.956 8 113466321.943 8        48.000    21591918.996 6  88415319.422 6        38.750  
G26  24901979.794 6 130860799.680 6        39.000    24901982.594 6 101969436.918 6        36.750  
G27  23128162.346 7 121539328.092 7        44.750    23128163.446 5  94705973.572 5        31.500  
G29  24008100.340 7 126163416.744 7        44.250    24008100.660 7  98309141.173 7        45.000  
G30  24450685.518 7 128489220.852 7        42.250    24450686.818 4 100121472.450 4        27.500  
> 2021 11 07 02 00  0.0000000  0 11                     
G05  22717620.130 7 119381938.792 7        46.000    22717619.070 5  93024847.931 5        35.500  
G07  24817005.576 6 130414237.970 6        41.750    24817004.596 4 101621489.030 4        25.500  
G13  21657903.396 8 113813095.535 8        49.250    21657901.756 6  88685502.737 6        38.250  
G15  21152773.840 8 111158557.568 8        48.000    21152772.860 8  86617062.370 8        51.000  
G16  23364668.886 7 122782191.785 7        43.500    23364667.226 4  95674430.405 4        28.000  
G18  20160388.106 8 105943565.559 8        50.250    20160387.226 7  82553424.315 7        45.500  
G23  21561990.378 8 113309040.878 8        48.250    21561989.398 6  88292762.760 6        39.250  
G26  24938203.294 6 131051155.121 6        40.500    24938206.114 6 102117765.757 6        37.750  
G27  23095768.746 7 121369098.706 7        43.500    23095769.846 5  94573327.313 5        32.000  
G29  24052732.600 7 126397960.338 7        42.500    24052733.020 6  98491902.274 6        41.750  
G30  24445902.518 6 128464085.663 6        41.000    24445903.738 4 100101886.558 4        27.000  
> 2021 11 07 02 01  0.0000000  0 12                     
G05  22754844.810 7 119577555.506 7        46.000    22754843.770 6  93177276.490 6        36.000  
G07  24830196.456 6 130483556.686 6        40.750    24830195.496 3 101675503.482 3        23.750  
G10  24397127.178 7 128207763.023 7        44.750    24397128.698 6  99902153.372 6        40.500  
G13  21657463.936 8 113810785.876 8        48.000    21657462.356 6  88683703.025 6        37.000  
G15  21136047.400 8 111070659.443 8        49.000    21136046.400 8  86548570.312 8        52.000  
G16  23383993.864 7 122883745.198 7        43.750    23383992.184 4  95753562.929 4        28.250  
G18  20159742.506 8 105940172.803 8        50.500    20159741.626 7  82550780.599 7        45.250  
G23  21532341.318 7 113153234.056 7        47.250    21532340.378 6  88171354.869 6        38.750  
G26  24974556.194 6 131242190.582 6        40.750    24974559.054 6 102266624.515 6        37.000  
G27  23063690.688 7 121200527.489 7        44.500    23063691.788 5  94441973.137 5        32.250  
G29  24097478.760 6 126633102.379 6        41.500    24097479.240 6  98675129.699 6        38.000  
G30  24441546.438 6 128441194.421 6        40.500    24441547.698 4 100084049.265 4        26.250  
> 2021 11 07 02 02  0.0000000  0 11                     
G05  22792256.508 7 119774154.917 7        46.750    22792255.488 6  93330470.773 6        36.250  
G07  24843766.236 6 130554866.277 6        40.500    24843765.296 3 101731069.498 3        23.250  
G10  24356400.738 7 127993743.808 7        45.500    24356402.218 6  99735385.142 6        41.500  
G13  21657533.096 8 113811149.262 8        48.000    21657531.536 5  88683986.131 5        33.250  
G15  21119803.720 8 110985298.113 8        49.250    21119802.700 8  86482054.976 8        52.000  
G16  23403741.704 7 122987520.874 7        43.000    23403740.044 4  95834427.098 4        28.000  
G18  20159485.766 8 105938823.580 8        50.500    20159484.886 7  82549729.237 7        45.250  
G23  21502977.178 7 112998924.530 7        47.500    21502976.238 6  88051113.682 6        38.250  
G27  23031934.288 7 121033646.623 7        44.500    23031935.388 5  94311936.135 5        32.750  
G29  24142337.400 6 126868835.634 6        39.250    24142337.960 5  98858817.840 5        32.750  
G30  24437620.438 7 128420563.123 7        42.500    24437621.698 4 100067972.894 4        28.000  
> 2021 11 07 02 03  0.0000000  0 11                     
G05  22830046.208 7 119972740.816 7        46.000    22830045.188 5  93485212.972 5        35.750  
G07  24857907.156 6 130629177.337 6        41.000    24857906.236 4 101788974.138 4        27.250  
G10  24315958.078 7 127781216.387 7        44.500    24315959.778 7  99569779.388 7        42.250  
G13  21658305.176 7 113815206.704 7        47.500    21658303.656 5  88687147.764 5        35.500  
G15  21104239.420 8 110903507.096 8        49.000    21104238.400 8  86418321.703 8        51.750  
G16  23424103.424 7 123094522.477 7        43.750    23424101.764 4  95917804.948 4        28.250  
G18  20159812.726 8 105940541.795 8        50.000    20159811.866 7  82551068.093 7        45.000  
G23  21474094.538 7 112847145.369 7        47.500    21474093.618 6  87932844.212 6        38.250  
G26  25047833.374 6 131627255.392 6        37.750    25047835.474 4 102566692.315 4        29.500  
G27  23000697.908 7 120869498.422 7        43.500    23000699.008 5  94184028.462 5        32.250  
G29  24187499.060 6 127106161.273 6        40.500    24187499.660 5  99043746.802 5        35.000  
> 2021 11 07 02 04  0.0000000  0 12                     
G05  22867819.808 7 120171242.100 7        45.500    22867818.808 5  93639889.234 5        35.500  
G07  24872226.376 7 130704425.416 7        42.000    24872225.516 4 101847608.964 4        24.000  
G10  24275410.600 7 127568137.973 7        44.750    24275412.460 7  99403744.309 7        42.500  
G13  21659389.136 8 113820902.889 8        48.000    21659387.676 6  88691586.379 6        37.750  
G15  21088965.720 7 110823243.232 7        47.750    21088964.700 8  86355778.437 8        51.250  
G16  23444684.664 7 123202677.634 7        43.000    23444683.004 4  96002081.712 4        27.000  
G18  20160332.886 8 105943275.257 8        50.250    20160332.026 7  82553198.057 7        45.000  
G23  21445304.678 8 112695853.793 8        48.000    21445303.798 6  87814954.683 6        39.000  
G26  25084551.514 6 131820211.629 6        37.250    25084553.674 4 102717047.687 4        27.750  
G27  22969594.588 7 120706049.196 7        46.250    22969595.628 5  94056665.411 5        32.500  
G29  24232568.940 6 127343004.521 6        41.750    24232569.580 6  99228299.827 6        38.500  
G30  24431253.898 6 128387119.696 6        41.500    24431254.918 4 100041910.936 4        25.750  
> 2021 11 07 02 05  0.0000000  0 12                     
G05  22905769.628 7 120370669.590 7        45.500    22905768.668 5  93795287.227 5        35.000  
G07  24886917.434 6 130781627.463 6        40.500    24886916.574 4 101907766.504 4        25.000  
G10  24234956.100 7 127355548.075 7        43.500    24234957.900 7  99238089.866 7        42.500  
G13  21660980.216 7 113829264.118 7        47.500    21660978.856 6  88698101.643 6        37.500  
G15  21074180.420 7 110745546.061 7        47.500    21074179.440 8  86295235.199 8        50.750  
G16  23465677.744 7 123312997.011 7        44.500    23465676.104 4  96088044.851 4        27.750  
G18  20161242.266 8 105948054.032 8        50.500    20161241.406 7  82556921.759 7        45.000  
G23  21416805.418 7 112546089.192 7        47.750    21416804.538 6  87698255.000 6        38.750  
G26  25121382.514 6 132013759.799 6        40.250    25121384.194 5 102867864.453 5        30.250  
G27  22938823.768 7 120544347.417 7        46.250    22938824.768 5  93930664.063 5        33.250  
G29  24277738.940 7 127580373.822 7        43.750    24277739.600 6  99413262.779 6        41.500  
G30  24428619.298 6 128373275.544 6        41.750    24428620.218 4 100031123.283 4        25.750  
> 2021 11 07 02 06  0.0000000  0 12                     
G05  22943892.308 7 120571005.450 7        45.000    22943891.388 5  93951393.012 5        34.750  
G07  24901978.154 6 130860772.196 6        41.000    24901977.314 4 101969437.739 4        24.000  
G10  24194596.660 7 127143457.834 7        43.250    24194598.480 7  99072824.816 7        42.500  
G13  21663078.216 8 113840289.340 8        48.250    21663076.916 6  88706692.712 6        36.000  
G15  21059885.520 8 110670425.889 8        48.500    21059884.560 8  86236699.992 8        51.000  
G16  23487078.844 7 123425460.480 7        43.500    23487077.184 4  96175678.726 4        28.250  
G18  20162541.146 8 105954879.569 8        50.500    20162540.266 7  82562240.345 7        45.000  
G23  21388598.838 8 112397862.559 8        48.000    21388597.938 6  87582753.719 6        38.500  
G26  25158321.714 6 132207876.069 6        40.500    25158322.974 4 103019123.865 4        29.750  
G27  22908389.348 7 120384413.321 7        42.750    22908390.308 5  93806040.152 5        32.500  
G29  24323005.118 6 127818248.486 6        41.500    24323005.798 6  99598619.468 6        41.500  
G30  24426416.738 6 128361700.835 6        41.250    24426417.658 4 100022103.996 4        24.750  
> 2021 11 07 02 07  0.0000000  0 12                     
G05  22982184.708 7 120772233.128 7        45.500    22982183.828 5  94108193.710 5        34.750  
G07  24917406.374 6 130941848.208 6        41.000    24917405.554 4 102032613.833 4        25.750  
G10  24154334.580 7 126931879.041 7        44.750    24154336.400 7  98907958.241 7        44.000  
G13  21665682.376 7 113853974.341 7        47.500    21665681.056 5  88717356.288 5        34.000  
G15  21046083.100 8 110597893.745 8        48.250    21046082.160 8  86180181.436 8        51.250  
G16  23508884.544 7 123540050.220 7        43.750    23508882.884 4  96264969.443 4        27.750  
G18  20164229.846 8 105963753.713 8        50.250    20164228.946 7  82569155.238 7        44.500  
G23  21360687.078 8 112251185.270 8        48.000    21360686.158 6  87468459.699 6        39.000  
G26  25195364.612 6 132402537.105 6        40.500    25195365.592 5 103170807.773 5        30.500  
G27  22878295.248 7 120226267.529 7        46.000    22878296.128 5  93682809.606 5        32.000  
G29  24368363.958 6 128056610.092 6        41.500    24368364.698 6  99784355.493 6        40.750  
G30  24424646.598 6 128352398.552 6        41.500    24424647.518 4 100014855.407 4        25.500  
> 2021 11 07 02 08  0.0000000  0 12                     
G05  23020644.048 7 120974338.069 7        44.500    23020643.188 5  94265678.027 5        34.750  
G07  24933200.214 6 131024845.573 6        39.750    24933199.434 4 102097287.062 4        24.000  
G10  24114172.280 7 126720824.675 7        45.000    24114174.040 7  98743500.312 7        44.000  
G13  21668792.736 7 113870319.340 7        47.750    21668791.416 5  88730092.592 5        34.750  
G15  21032775.100 8 110527959.754 8        48.000    21032774.180 8  86125687.403 8        51.250  
G16  23531091.404 7 123656748.143 7        43.000    23531089.764 4  96355902.888 4        27.500  
G18  20166308.946 8 105974679.355 8        50.500    20166308.026 7  82577668.715 7        44.750  
G23  21333072.558 8 112106069.972 8        48.250    21333071.638 6  87355382.848 6        39.750  
G26  25232506.912 6 132597721.046 6        41.000    25232508.132 5 103322899.041 5        33.000  
G27  22848545.528 7 120069931.630 7        47.000    22848546.388 5  93560989.449 5        34.500  
G29  24413811.818 7 128295439.131 7        42.250    24413812.598 6  99970455.781 6        38.750  
G30  24423309.658 6 128345372.538 6        41.500    24423310.438 4 100009380.564 4        26.000  
> 2021 11 07 02 09  0.0000000  0 12                     
G05  23059266.728 7 121177301.354 7        45.250    23059265.908 5  94423831.148 5        34.250  
G07  24949357.094 6 131109750.666 6        40.750    24949356.314 4 102163446.967 4        24.000  
G10  24074111.660 7 126510304.767 7        44.750    24074113.380 7  98579458.844 7        43.250  
G13  21672408.336 8 113889319.265 8        48.250    21672407.016 5  88744897.683 5        35.750  
G15  21019963.340 8 110460633.532 8        48.500    21019962.440 8  86073225.398 8        51.500  
G16  23553695.464 7 123775533.296 7        42.250    23553693.824 4  96448462.737 4        26.750  
G18  20168778.406 8 105987656.268 8        50.750    20168777.446 7  82587780.591 7        45.000  
G23  21305757.098 8 111962526.151 8        48.250    21305756.198 6  87243530.499 6        40.250  
G26  25269743.952 6 132793402.872 6        41.750    25269745.692 6 103475378.313 6        37.000  
G27  22819143.768 7 119915424.351 7        43.750    22819144.628 5  93440594.253 5        33.500  
G29  24459344.698 7 128534714.777 7        42.500    24459345.498 5 100156904.138 5        32.750  
G30  24422405.998 6 128340623.318 6        41.500    24422406.758 4 100005679.826 4        26.250  
> 2021 11 07 02 10  0.0000000  0 12                     
G05  23098049.606 7 121381106.394 7        46.000    23098048.806 5  94582640.194 5        34.500  
G07  24965874.754 6 131196551.629 6        41.250    24965873.954 4 102231084.093 4        25.000  
G10  24034155.000 7 126300331.036 7        45.500    24034156.700 7  98415842.955 7        43.500  
G13  21676528.616 8 113910971.133 8        48.500    21676527.276 6  88761769.228 6        36.500  
G15  21007649.500 8 110395923.816 8        48.250    21007648.600 8  86022802.238 8        51.500  
G16  23576693.204 7 123896387.230 7        42.750    23576691.564 4  96542634.613 4        27.000  
G18  20171638.486 8 106002685.772 8        50.750    20171637.466 7  82599491.885 7        45.000  
G23  21278742.760 7 111820564.938 7        47.750    21278741.900 6  87132911.380 6        39.750  
G26  25307071.392 6 132989559.639 6        41.250    25307073.492 6 103628227.708 6        36.000  
G27  22790093.848 7 119762765.936 7        45.750    22790094.688 5  93321639.597 5        32.000  
G29  24504958.858 7 128774417.500 7        44.750    24504959.658 6 100343685.386 6        37.250  
G30  24421935.978 6 128338152.976 6        41.000    24421936.698 4 100003754.855 4        26.500  
> 2021 11 07 02 11  0.0000000  0 11                     
G05  23136989.766 7 121585737.961 7        45.250    23136988.986 5  94742093.304 5        33.750  
G07  24982750.934 6 131285236.872 6        39.500    24982750.174 4 102300189.538 4        25.000  
G10  23994304.680 7 126090916.257 7        44.250    23994306.360 7  98252662.610 7        42.250  
G13  21681152.876 8 113935271.450 8        48.750    21681151.536 6  88780704.511 6        36.750  
G15  20995835.500 8 110333840.783 8        48.250    20995834.620 8  85974425.848 8        51.750  
G16  23600080.784 6 124019289.753 6        41.750    23600079.144 4  96638402.817 4        26.250  
G18  20174889.526 8 106019769.897 8        50.500    20174888.486 7  82612804.178 7        45.000  
G23  21252031.880 8 111680198.348 8        48.250    21252031.060 6  87023534.806 6        40.000  
G27  22761399.730 7 119611977.470 7        46.000    22761400.550 5  93204142.101 5        33.500  
G29  24550650.678 7 129014528.263 7        46.250    24550651.458 7 100530784.424 7        42.250  
G30  24421900.078 6 128337964.013 6        39.750    24421900.778 4 100003607.593 4        26.000  
> 2021 11 07 02 12  0.0000000  0 11                     
G05  23176083.966 7 121791178.974 7        44.500    23176083.206 5  94902177.098 5        33.500  
G07  24999983.334 6 131375793.889 6        40.000    24999982.574 3 102370753.209 3        23.500  
G10  23954562.862 7 125882071.701 7        43.000    23954564.542 7  98089926.644 7        42.250  
G13  21686280.336 8 113962216.198 8        48.500    21686279.016 6  88801700.377 6        37.250  
G15  20984522.862 8 110274392.456 8        48.750    20984522.002 8  85928102.471 8        52.000  
G16  23623854.604 7 124144222.039 7        42.250    23623852.984 4  96735752.642 4        25.750  
G18  20178531.626 8 106038909.115 8        50.000    20178530.566 7  82627717.842 7        44.250  
G23  21225626.460 8 111541436.856 8        48.000    21225625.640 6  86915408.958 6        40.750  
G27  22733065.190 7 119463078.492 7        45.000    22733065.990 5  93088116.986 5        32.750  
G29  24596416.476 7 129255027.970 7        44.500    24596417.276 7 100718186.525 7        42.750  
G30  24422298.398 6 128340057.193 6        41.000    24422299.058 4 100005238.594 4        25.250  
> 2021 11 07 02 13  0.0000000  0 11                     
G05  23215329.106 7 121997413.162 7        45.500    23215328.366 5  95062878.997 5        33.250  
G07  25017569.414 6 131468209.303 6        41.750    25017568.654 4 102442765.103 4        26.250  
G10  23914931.742 7 125673808.689 7        44.750    23914933.402 7  97927643.767 7        43.500  
G13  21691909.956 8 113991799.814 8        48.500    21691908.656 6  88824752.488 6        36.500  
G15  20973712.982 8 110217586.124 8        48.500    20973712.142 8  85883837.796 8        52.000  
G16  23648010.604 7 124271162.697 7        42.250    23648008.984 4  96834667.453 4        25.750  
G18  20182564.806 8 106060103.627 8        49.000    20182563.746 7  82644233.028 7        43.500  
G23  21199528.420 8 111404290.764 8        48.000    21199527.640 6  86808541.865 6        40.750  
G27  22705093.890 7 119316088.373 7        44.000    22705094.570 6  92973579.201 6        38.000  
G29  24642252.436 7 129495896.454 7        42.250    24642253.276 7 100905875.942 7        42.000  
G30  24423131.118 6 128344432.875 6        41.750    24423131.878 4 100008648.140 4        26.250  
> 2021 11 07 02 14  0.0000000  0 11                     
G05  23254722.026 7 122204423.952 7        46.000    23254721.326 5  95224186.017 5        33.250  
G07  25035506.874 6 131562470.976 6        41.250    25035506.134 4 102516215.831 4        25.000  
G10  23875413.462 7 125466138.828 7        45.750    23875415.142 7  97765823.121 7        44.250  
G13  21698040.696 8 114024016.849 8        48.500    21698039.396 6  88849856.624 6        36.250  
G15  20963407.442 8 110163430.130 8        49.250    20963406.622 8  85841638.300 8        52.000  
G16  23672544.884 7 124400091.269 7        42.500    23672543.284 4  96935131.265 4        26.250  
G18  20186989.146 8 106083353.853 8        48.500    20186988.126 7  82662350.063 7        43.500  
G23  21173739.800 8 111268770.643 8        48.000    21173739.060 6  86702941.765 6        40.750  
G27  22677489.550 7 119171026.680 7        45.500    22677490.010 7  92860544.119 7        43.500  
G29  24688154.876 6 129737114.314 6        38.750    24688155.816 6 101093837.548 6        39.000  
G30  24424398.218 6 128351091.636 6        40.500    24424399.138 4 100013836.770 4        26.250  
> 2021 11 07 02 15  0.0000000  0 11                     
G05  23294259.846 7 122412196.110 7        45.500    23294259.146 5  95386086.310 5        32.750  
G07  25053792.994 6 131658565.180 6        40.750    25053792.314 4 102591094.507 4        25.750  
G10  23836010.402 7 125259074.269 7        47.000    23836012.042 7  97604474.114 7        45.500  
G13  21704671.716 8 114058863.016 8        48.250    21704670.456 6  88877009.445 6        36.250  
G15  20953607.582 8 110111931.384 8        49.000    20953606.762 8  85801509.379 8        51.500  
G16  23697453.782 7 124530988.377 7        43.000    23697452.182 4  97037129.018 4        26.250  
G18  20191804.786 8 106108660.415 8        48.750    20191803.846 7  82682069.424 7        44.000  
G23  21148262.700 8 111134887.506 8        48.250    21148261.980 6  86598617.232 6        40.750  
G27  22650255.950 7 119027913.345 7        44.750    22650256.330 7  92749027.276 7        43.750  
G29  24734120.176 5 129978662.431 5        35.500    24734121.256 5 101282056.431 5        35.500  
G30  24426099.878 6 128360033.796 6        41.000    24426100.918 4 100020804.689 4        26.750  
> 2021 11 07 02 16  0.0000000  0 11                     
G05  23333939.206 7 122620712.157 7        42.750    23333938.526 5  95548566.283 5        33.000  
G07  25072425.094 6 131756477.440 6        40.750    25072424.434 4 102667389.817 4        25.250  
G10  23796724.542 7 125052625.579 7        46.000    23796726.162 7  97443605.015 7        45.250  
G13  21711801.676 7 114096331.161 7        47.500    21711800.476 6  88906205.380 6        36.500  
G15  20944314.562 8 110063096.224 8        48.750    20944313.742 8  85763455.978 8        51.000  
G16  23722733.002 7 124663831.543 7        42.250    23722731.402 4  97140643.187 4        26.500  
G18  20197011.566 8 106136022.291 8        49.250    20197010.666 7  82703390.349 7        44.500  
G23  21123098.880 8 111002650.637 8        48.250    21123098.160 6  86495575.483 6        40.750  
G27  22623396.590 7 118886766.561 7        44.000    22623396.870 7  92639042.775 7        43.000  
G29  24780144.496 6 130220520.525 6        39.000    24780145.736 6 101470516.855 6        37.000  
G30  24428235.878 7 128371258.147 7        42.500    24428236.998 4 100029550.935 4        26.750  
> 2021 11 07 02 17  0.0000000  0 11                     
G05  23373757.346 7 122829957.656 7        44.000    23373756.726 5  95711614.644 5        32.750  
G07  25091400.814 6 131856195.632 6        40.500    25091400.154 3 102745092.286 3        23.250  
G10  23757558.362 7 124846805.945 7        45.750    23757560.002 7  97283226.079 7        45.750  
G13  21719429.616 8 114136416.086 8        48.750    21719428.436 6  88937440.379 6        37.000  
G15  20935529.902 8 110016932.532 8        48.000    20935529.102 8  85727484.242 8        50.750  
G16  23748378.662 7 124798600.402 7        42.250    23748377.062 4  97245657.882 4        25.750  
G18  20202609.746 8 106165440.757 8        50.250    20202608.866 7  82726313.823 7        45.000  
G23  21098250.580 8 110872071.810 8        48.250    21098249.860 6  86393825.750 6        40.750  
G27  22596915.390 7 118747607.026 7        45.000    22596915.610 7  92530606.774 7        43.750  
G29  24826224.356 7 130462670.392 7        42.250    24826225.776 6 101659204.754 6        36.750  
G30  24430806.298 6 128384765.362 6        41.750    24430807.418 4 100040076.031 4        27.250  
> 2021 11 07 02 18  0.0000000  0 11                     
G05  23413711.184 7 123039916.163 7        45.500    23413710.604 5  95875218.551 5        33.000  
G07  25110717.434 6 131957705.328 6        40.500    25110716.794 4 102824190.745 4        25.250  
G10  23718514.002 7 124641626.462 7        44.750    23718515.662 7  97123345.981 7        45.250  
G13  21727554.116 8 114179110.553 8        48.000    21727552.976 6  88970708.771 6        37.000  
G15  20927254.622 8 109973445.490 8        48.250    20927253.822 8  85693598.198 8        51.000  
G16  23774386.842 6 124935274.357 6        41.750    23774385.242 4  97352157.056 4        25.000  
G18  20208599.126 8 106196914.894 8        49.750    20208598.226 7  82750839.114 7        44.750  
G23  21073719.620 8 110743160.619 8        48.750    21073718.900 6  86293375.447 6        41.000  
G27  22570815.830 7 118610453.073 7        44.750    22570816.070 7  92423733.584 7        43.750  
G29  24872355.976 7 130705092.204 7        44.000    24872357.576 5 101848104.728 5        31.000  
G30  24433810.818 6 128400553.961 6        41.250    24433811.918 4 100052378.868 4        27.250  
> 2021 11 07 02 19  0.0000000  0 11                     
G05  23453797.724 7 123250571.917 7        44.750    23453797.184 5  96039365.775 5        32.500  
G07  25130372.274 6 132060992.299 6        41.250    25130371.634 4 102904674.006 4        25.250  
G10  23679593.584 7 124437098.393 7        45.500    23679595.244 7  96963973.508 7        44.750  
G13  21736173.836 8 114224407.448 8        48.250    21736172.716 6  89006005.014 6        36.500  
G15  20919489.722 8 109932640.696 8        48.000    20919488.982 8  85661802.228 8        51.000  
G16  23800753.222 7 125073830.701 7        42.250    23800751.642 4  97460123.032 4        25.500  
G18  20214979.466 8 106230443.809 8        49.000    20214978.586 7  82776965.513 7        43.750  
G23  21049507.840 8 110615926.717 8        48.750    21049507.120 6  86194232.130 6        40.750  
G27  22545101.450 7 118475323.186 7        45.000    22545101.690 7  92318437.578 7        43.500  
G29  24918535.654 7 130947766.765 7        42.250    24918537.414 6 102037201.709 6        36.000  
G30  24437249.098 6 128418622.233 6        41.250    24437250.258 4 100066458.054 4        26.000  
> 2021 11 07 02 20  0.0000000  0 11                     
G05  23494013.904 7 123461908.870 7        44.250    23494013.384 5  96204043.789 5        33.250  
G07  25150362.534 6 132166041.767 6        41.750    25150361.894 4 102986530.657 4        26.500  
G10  23640799.344 7 124233233.262 7        46.000    23640800.984 7  96805117.558 7        45.750  
G13  21745287.176 8 114272298.155 8        48.250    21745286.036 6  89043322.440 6        36.500  
G15  20912236.082 8 109894522.545 8        48.000    20912235.382 8  85632099.746 8        51.750  
G16  23827473.662 7 125214247.524 7        42.000    23827472.082 4  97569538.724 4        25.250  
G18  20221750.606 8 106266026.498 8        49.250    20221749.786 7  82804692.242 7        44.250  
G23  21025617.080 8 110490379.795 8        48.250    21025616.380 6  86096403.345 6        40.750  
G27  22519775.730 7 118342235.808 7        44.500    22519776.030 7  92214733.099 7        43.750  
G29  24964759.694 6 131190674.779 6        38.250    24964761.554 6 102226480.420 6        37.250  
G30  24441120.758 6 128438968.233 6        41.250    24441122.018 4 100082312.037 4        27.000  
> 2021 11 07 02 21  0.0000000  0 11                     
G05  23534356.684 6 123673911.260 6        41.500    23534356.244 5  96369240.311 5        32.000  
G07  25170685.474 6 132272839.416 6        40.500    25170684.854 4 103069749.576 4        24.250  
G08  24767143.656 6 130152214.445 6        39.500    24767146.276 4 101417310.485 4        26.000  
G10  23602133.504 7 124030042.835 7        47.000    23602135.124 7  96646787.354 7        46.000  
G13  21754892.656 7 114322775.419 7        47.250    21754891.576 6  89082655.346 6        36.000  
G15  20905494.722 8 109859096.280 8        48.750    20905494.062 8  85604494.836 8        52.000  
G16  23854544.082 6 125356503.560 6        41.500    23854542.502 4  97680387.558 4        25.000  
G18  20228912.466 8 106303662.085 8        50.500    20228911.646 7  82834018.651 7        44.500  
G23  21002049.200 7 110366529.747 7        47.500    21002048.520 6  85999896.822 6        39.750  
G27  22494842.190 7 118211209.420 7        44.250    22494842.630 7  92112634.628 7        43.750  
G30  24445425.558 6 128461589.913 6        41.750    24445426.858 4 100099939.305 4        26.250  
> 2021 11 07 02 22  0.0000000  0 11                     
G05  23574823.084 7 123886563.188 7        43.000    23574822.704 5  96534943.015 5        31.500  
G07  25191338.132 6 132381369.780 6        40.250    25191337.552 3 103154318.637 3        23.250  
G08  24728750.516 6 129950457.597 6        41.500    24728753.056 4 101260097.453 4        25.500  
G10  23563598.224 7 123827538.512 7        47.750    23563599.844 7  96488991.750 7        46.500  
G13  21764988.736 8 114375830.473 8        48.750    21764987.636 6  89123996.948 6        36.750  
G15  20899266.342 8 109826365.838 8        48.750    20899265.722 8  85578990.565 8        52.250  
G16  23881960.222 6 125500576.382 6        40.500    23881958.662 4  97792652.079 4        25.000  
G18  20236464.726 8 106343349.161 8        50.250    20236463.886 7  82864943.637 7        45.000  
G23  20978806.002 8 110244386.035 8        48.000    20978805.362 6  85904719.902 6        41.000  
G27  22470304.292 7 118082262.030 7        44.250    22470304.792 7  92012156.138 7        44.250  
G30  24450162.878 6 128486484.679 6        40.500    24450164.238 4 100119337.742 4        26.250  
> 2021 11 07 02 23  0.0000000  0 11                     
G05  23615410.264 7 124099849.749 7        43.500    23615409.944 5  96701140.183 5        31.500  
G07  25212317.752 6 132491618.241 6        41.500    25212317.192 4 103240226.492 4        25.250  
G08  24690550.036 6 129749712.589 6        39.500    24690552.496 4 101103672.835 4        25.250  
G10  23525195.764 7 123625732.104 7        47.500    23525197.364 7  96331739.980 7        46.000  
G13  21775573.696 7 114431454.710 7        47.500    21775572.596 6  89167340.471 6        36.250  
G15  20893551.742 8 109796335.258 8        49.250    20893551.142 8  85555590.094 8        52.500  
G16  23909717.902 6 125646443.867 6        41.750    23909716.342 4  97906315.077 4        25.000  
G18  20244407.086 8 106385086.484 8        48.500    20244406.286 7  82897466.194 7        44.250  
G23  20955889.382 8 110123958.276 8        48.500    20955888.742 6  85810880.086 6        41.500  
G27  22446165.472 7 117955411.832 7        45.500    22446166.072 7  91913311.824 7        44.750  
G30  24455332.238 6 128513649.883 6        40.750    24455333.618 4 100140505.446 4        26.250  
> 2021 11 07 02 24  0.0000000  0 12                     
G05  23656115.504 7 124313756.575 7        44.750    23656115.224 5  96867820.710 5        31.250  
G07  25233621.452 6 132603569.751 6        40.500    25233620.912 4 103327461.473 4        24.750  
G08  24652546.136 6 129550000.914 6        41.250    24652548.636 4 100948053.404 4        27.250  
G10  23486928.304 7 123424635.284 7        45.750    23486929.924 7  96175041.165 7        45.000  
G13  21786645.836 8 114489639.125 8        48.250    21786644.736 5  89212678.974 5        35.500  
G15  20888351.522 8 109769007.626 8        50.000    20888350.942 8  85534295.815 8        52.750  
G16  23937812.742 6 125794083.240 6        41.500    23937811.202 4  98021358.693 4        24.250  
G18  20252739.306 8 106428872.588 8        48.750    20252738.546 7  82931585.205 7        44.250  
G23  20933301.082 8 110005255.972 8        48.000    20933300.462 6  85718384.780 6        41.000  
G27  22422429.132 7 117830676.734 7        44.500    22422429.832 7  91816115.643 7        44.500  
G29  25150026.634 6 132164281.627 6        41.250    25150028.334 6 102985154.365 6        40.000  
G30  24460933.098 6 128543082.454 6        41.000    24460934.498 4 100163439.891 4        26.000  
> 2021 11 07 02 25  0.0000000  0 12                     
G05  23696935.582 7 124528266.928 7        42.500    23696935.342 5  97034971.497 5        31.000  
G07  25255246.332 6 132717209.278 6        41.000    25255245.832 4 103416011.728 4        24.750  
G08  24614742.836 6 129351343.841 6        39.250    24614745.396 4 100793255.783 4        25.750  
G10  23448798.024 7 123224259.460 7        45.250    23448799.684 7  96018904.190 7        44.500  
G13  21798203.256 7 114550373.840 7        47.250    21798202.196 5  89260004.696 5        35.750  
G15  20883666.222 8 109744386.034 8        49.250    20883665.642 8  85515110.145 8        52.250  
G16  23966240.402 7 125943471.593 7        43.000    23966238.882 4  98137765.194 4        25.000  
G18  20261460.986 8 106474705.396 8        48.750    20261460.306 7  82967299.037 7        44.250  
G23  20911042.802 7 109888288.071 7        47.750    20911042.222 6  85627240.963 6        41.000  
G27  22399098.612 7 117708074.053 7        44.250    22399099.372 7  91720581.074 7        44.750  
G29  25196418.052 6 132408068.836 6        41.500    25196419.912 6 103175118.084 6        37.500  
G30  24466964.678 6 128574778.571 6        40.250    24466966.118 4 100188138.102 4        26.000  
> 2021 11 07 02 26  0.0000000  0 12                     
G05  23737867.562 7 124743365.446 7        43.250    23737867.402 5  97202580.638 5        30.750  
G07  25277189.172 6 132832519.586 6        40.500    25277188.692 4 103505863.791 4        24.750  
G08  24577144.278 6 129153762.317 6        40.500    24577146.738 4 100639296.166 4        26.000  
G10  23410807.104 7 123024615.915 7        46.000    23410808.804 7  95863337.815 7        45.750  
G13  21810244.136 8 114613648.879 8        48.750    21810243.056 6  89309309.921 6        36.000  
G15  20879496.282 8 109722472.529 8        50.500    20879495.662 8  85498034.655 8        52.250  
G16  23994996.740 7 126094586.978 7        42.750    23994995.200 4  98255517.427 4        24.750  
G18  20270571.706 8 106522582.621 8        48.500    20270571.086 7  83004605.939 7        44.000  
G23  20889116.282 8 109773063.454 8        48.250    20889115.722 6  85537455.541 6        41.500  
G27  22376177.112 7 117587620.907 7        45.250    22376177.912 7  91626721.472 7        45.250  
G29  25242832.052 6 132651975.188 6        39.750    25242834.212 5 103365174.695 5        32.750  
G30  24473426.218 6 128608734.193 6        41.250    24473427.738 4 100214596.961 4        26.250  
> 2021 11 07 02 27  0.0000000  0 12                     
G05  23778908.762 7 124959037.877 7        42.500    23778908.662 5  97370636.920 5        30.500  
G07  25299447.232 6 132949486.399 6        39.000    25299446.772 3 103597006.795 3        23.000  
G08  24539754.498 6 128957277.928 6        40.750    24539756.918 4 100486191.453 4        24.250  
G10  23372957.906 7 122825716.939 7        47.000    23372959.566 7  95708351.581 7        46.250  
G13  21822766.436 7 114679454.073 7        47.750    21822765.376 5  89360586.640 5        35.000  
G15  20875842.082 8 109703269.544 8        48.000    20875841.462 8  85483071.290 8        50.750  
G16  24024077.280 7 126247406.142 7        42.000    24024075.740 4  98374597.275 4        24.000  
G18  20280071.166 8 106572502.550 8        49.000    20280070.586 7  83043504.557 7        43.750  
G23  20867523.322 8 109659591.615 8        48.500    20867522.762 6  85449035.920 6        41.500  
G27  22353668.052 7 117469334.975 7        46.250    22353668.832 7  91534550.619 7        44.750  
G29  25289265.172 5 132895981.977 5        35.750    25289267.552 4 103555309.595 4        27.000  
G30  24480317.058 7 128644945.523 7        42.500    24480318.598 4 100242813.522 4        26.500  
> 2021 11 07 02 28  0.0000000  0 11                     
G05  23820056.322 7 125175269.336 7        42.500    23820056.282 4  97539128.849 4        28.750  
G07  25322017.312 6 133068092.767 6        40.500    25322016.872 3 103689427.348 3        23.000  
G08  24502577.438 6 128761911.530 6        41.500    24502579.798 4 100333957.986 4        27.000  
G10  23335252.446 7 122627573.376 7        47.750    23335254.086 7  95553954.000 7        46.250  
G13  21835768.236 7 114747778.872 7        47.750    21835767.176 5  89413826.751 5        35.000  
G15  20872703.902 7 109686778.168 7        47.500    20872703.242 8  85470220.835 8        50.500  
G16  24053477.500 7 126401905.338 7        42.500    24053475.980 3  98494986.269 3        23.750  
G18  20289958.786 8 106624462.125 8        49.500    20289958.206 7  83083992.518 7        44.000  
G23  20846265.462 8 109547880.752 8        48.750    20846264.882 6  85361988.480 6        41.250  
G27  22331574.492 7 117353232.523 7        46.000    22331575.272 7  91444081.172 7        45.250  
G30  24487636.218 7 128683407.380 7        43.000    24487637.658 4 100272783.821 4        25.500  
> 2021 11 07 02 29  0.0000000  0 10                     
G05  23861307.362 7 125392044.581 7        43.000    23861307.402 4  97708044.477 4        28.750  
G08  24465617.298 6 128567684.930 6        41.000    24465619.638 4 100182612.604 4        26.000  
G10  23297693.006 7 122430197.044 7        46.500    23297694.606 7  95400154.221 7        46.500  
G13  21849247.336 8 114818611.944 8        48.750    21849246.276 5  89469021.296 5        35.750  
G15  20870081.982 8 109673000.027 8        48.750    20870081.342 8  85459484.621 8        50.750  
G16  24083193.120 7 126558061.867 7        42.500    24083191.600 4  98616666.675 4        24.000  
G18  20300234.086 8 106678459.023 8        49.250    20300233.526 7  83126068.002 7        44.250  
G23  20825344.402 8 109437939.774 8        48.500    20825343.822 6  85276320.177 6        41.000  
G27  22309899.652 7 117239330.472 7        46.250    22309900.452 7  91355326.316 7        46.250  
G30  24495382.698 6 128724115.131 6        40.750    24495384.098 3 100304504.171 3        23.000  
> 2021 11 07 02 30  0.0000000  0 10                     
G05  23902658.962 7 125609348.151 7        42.250    23902659.062 4  97877371.797 4        29.500  
G08  24428877.958 6 128374618.689 6        40.750    24428880.338 4 100032171.472 4        27.000  
G10  23260281.666 7 122233599.186 7        45.250    23260283.306 7  95246961.097 7        45.750  
G13  21863201.556 7 114891941.768 7        47.750    21863200.516 5  89526161.379 5        35.500  
G15  20867976.382 8 109661935.214 8        48.500    20867975.782 8  85450862.703 8        51.000  
G16  24113219.600 6 126715852.151 6        40.500    24113218.100 3  98739620.102 3        22.500  
G18  20310896.446 8 106734489.967 8        49.750    20310895.906 7  83169728.453 7        43.750  
G23  20804761.702 8 109329776.879 8        48.500    20804761.102 6  85192037.381 6        41.000  
G27  22288646.612 7 117127644.878 7        46.750    22288647.432 7  91268298.563 7        46.750  
G30  24503555.418 6 128767063.185 6        36.250    24503556.858 3 100337970.083 3        23.500  
> 2021 11 07 02 31  0.0000000  0 10                     
G05  23944108.402 7 125827165.843 7        42.500    23944108.542 5  98047099.729 5        30.000  
G08  24392363.538 6 128182734.469 6        41.000    24392365.918 4  99882651.339 4        26.250  
G10  23223020.646 7 122037791.349 7        45.250    23223022.346 7  95094383.576 7        45.500  
G13  21877628.636 8 114967756.349 8        48.500    21877627.596 6  89585237.637 6        36.250  
G15  20866387.382 7 109653584.376 7        47.250    20866386.662 8  85444355.457 8        50.500  
G16  24143552.420 6 126875252.090 6        41.000    24143550.920 3  98863827.843 3        22.750  
G18  20321945.326 8 106792552.068 8        49.000    20321944.786 7  83214971.626 7        43.250  
G23  20784518.962 8 109223400.502 8        48.000    20784518.362 6  85109146.680 6        41.000  
G27  22267818.432 7 117018192.022 7        46.500    22267819.292 7  91183010.613 7        47.500  
G30  24512153.418 7 128812245.886 7        42.000    24512154.918 4 100373177.345 4        29.000  
> 2021 11 07 02 32  0.0000000  0 10                     
G05  23985653.120 7 126045484.123 7        42.750    23985653.300 4  98217217.694 4        28.750  
G08  24356078.118 6 127992053.663 6        38.750    24356080.498 4  99734068.966 4        26.000  
G10  23185912.266 7 121842785.483 7        46.500    23185913.986 7  94942430.959 7        46.500  
G13  21892526.414 8 115046044.461 8        48.250    21892525.374 6  89646241.294 6        36.250  
G15  20865314.562 8 109647946.903 8        49.250    20865313.902 8  85439962.663 8        51.750  
G16  24174187.240 7 127036239.033 7        42.000    24174185.740 3  98989272.207 3        22.500  
G18  20333380.146 8 106852642.371 8        48.250    20333379.606 7  83261795.211 7        42.500  
G23  20764617.802 7 109118819.305 7        47.750    20764617.242 6  85027654.830 6        40.750  
G27  22247418.252 7 116910988.139 7        47.250    22247419.152 7  91099475.090 7        47.750  
G30  24521175.718 7 128859657.436 7        44.500    24521177.118 4 100410121.353 4        29.250  
> 2021 11 07 02 33  0.0000000  0 10                     
G05  24027290.000 7 126264286.827 7        42.750    24027290.260 4  98387713.161 4        28.750  
G08  24320025.758 6 127802597.561 6        40.500    24320028.158 4  99586440.847 4        26.500  
G10  23148958.606 7 121648592.862 7        45.500    23148960.366 7  94791112.034 7        46.250  
G13  21907892.394 8 115126792.974 8        48.000    21907891.354 6  89709162.173 6        36.500  
G15  20864758.222 8 109645023.017 8        50.750    20864757.522 8  85437684.253 8        52.500  
G16  24205119.280 6 127198787.960 6        41.250    24205117.780 3  99115933.644 3        23.500  
G18  20345200.186 8 106914757.211 8        48.250    20345199.686 7  83310196.346 7        42.500  
G23  20745059.742 8 109016041.074 8        48.000    20745059.222 6  84947567.895 6        40.750  
G27  22227448.952 7 116806048.604 7        47.250    22227449.892 8  91017704.011 8        48.000  
G30  24530620.938 6 128909291.469 6        41.750    24530622.178 3 100448797.245 3        22.750  
> 2021 11 07 02 34  0.0000000  0 10                     
G05  24069016.460 7 126483560.184 7        42.250    24069016.780 5  98558575.348 5        30.000  
G08  24284210.458 6 127614387.128 6        39.500    24284212.878 4  99439783.412 4        26.500  
G10  23112161.886 7 121455224.883 7        46.000    23112163.666 7  94640435.696 7        46.000  
G13  21923724.274 8 115209989.834 8        48.250    21923723.274 6  89773990.832 6        36.500  
G15  20864717.922 7 109644811.129 7        46.750    20864717.242 8  85437519.117 8        50.750  
G16  24236344.240 6 127362876.083 6        39.750    24236342.740 3  99243794.478 3        22.750  
G18  20357404.786 8 106978892.762 8        48.500    20357404.326 7  83360172.071 7        43.000  
G23  20725846.282 8 108915073.669 8        48.500    20725845.782 6  84868891.972 6        41.500  
G27  22207913.472 8 116703388.715 8        48.000    22207914.412 8  90937709.280 8        48.500  
G30  24540487.638 5 128961141.296 5        34.000    24540488.878 2 100489199.683 2        17.250  
> 2021 11 07 02 35  0.0000000  0 10                     
G05  24110829.660 7 126703289.426 7        42.000    24110830.040 4  98729792.765 4        28.500  
G08  24248636.180 6 127427443.259 6        41.500    24248638.600 4  99294112.910 4        26.500  
G10  23075524.208 7 121262692.591 7        47.250    23075526.008 7  94490410.523 7        47.000  
G13  21940019.254 7 115295620.461 7        47.500    21940018.314 6  89840715.951 6        36.250  
G15  20865193.322 8 109647309.202 8        50.500    20865192.642 8  85439465.606 8        52.500  
G16  24267857.400 6 127528478.659 6        40.250    24267855.900 3  99372835.467 3        22.500  
G18  20369993.106 8 107045044.735 8        48.500    20369992.666 7  83411719.026 7        42.750  
G23  20706978.842 8 108815924.458 8        48.500    20706978.342 6  84791632.834 6        41.500  
G27  22188814.572 8 116603023.094 8        48.250    22188815.512 8  90859502.295 8        48.750  
G30  24550774.578 7 129015199.428 7        42.500    24550775.838 4 100531322.840 4        28.500  
> 2021 11 07 02 36  0.0000000  0 10                     
G05  24152727.020 7 126923460.874 7        43.000    24152727.480 5  98901354.773 5        30.250  
G08  24213307.100 6 127241787.780 6        41.250    24213309.480 4  99149446.297 4        27.750  
G10  23039047.908 7 121071008.233 7        47.750    23039049.688 7  94341046.080 7        47.250  
G13  21956775.034 7 115383672.574 7        47.500    21956774.154 5  89909327.940 5        35.500  
G15  20866184.222 8 109652516.272 8        48.250    20866183.562 8  85443523.012 8        51.500  
G16  24299654.118 7 127695571.417 7        42.500    24299652.618 4  99503037.573 4        24.500  
G18  20382964.486 8 107113209.726 8        48.500    20382964.086 7  83464834.577 7        43.000  
G23  20688458.962 8 108718601.792 8        48.500    20688458.462 6  84715796.976 6        41.750  
G27  22170155.234 8 116504967.335 8        48.500    22170156.174 8  90783095.197 8        49.500  
G30  24561480.538 7 129071458.979 7        44.250    24561481.778 5 100575161.434 5        31.250  
> 2021 11 07 02 37  0.0000000  0 10                     
G05  24194705.860 6 127144060.521 6        40.750    24194706.420 4  99073250.431 4        27.000  
G08  24178227.140 6 127057441.466 6        41.250    24178229.500 4  99005799.858 4        27.750  
G10  23002735.028 7 120880182.705 7        47.250    23002736.788 7  94192350.840 7        47.000  
G13  21973988.974 7 115474132.110 7        47.750    21973988.094 5  89979815.829 5        35.750  
G15  20867690.022 8 109660429.391 8        48.000    20867689.422 8  85449689.052 8        50.750  
G16  24331729.978 6 127864131.012 6        40.500    24331728.478 3  99634382.712 3        23.250  
G18  20396318.044 8 107183383.039 8        48.250    20396317.684 7  83519515.044 7        43.250  
G23  20670288.004 8 108623112.674 8        48.750    20670287.524 7  84641389.855 7        42.500  
G27  22151938.154 8 116409235.466 8        49.500    22151939.074 8  90708498.923 8        50.500  
G30  24572603.898 6 129129912.049 6        37.500    24572605.158 3 100620709.240 3        22.250  
> 2021 11 07 02 38  0.0000000  0 10                     
G05  24236763.300 6 127365073.032 6        41.250    24236763.900 4  99245467.837 4        27.000  
G08  24143400.260 6 126874425.029 6        41.500    24143402.600 4  98863189.698 4        27.500  
G10  22966587.648 7 120690226.933 7        44.750    22966589.408 7  94044333.351 7        44.750  
G13  21991658.194 7 115566984.244 7        47.500    21991657.334 5  90052168.075 5        35.500  
G15  20869710.102 8 109671045.067 8        48.250    20869709.582 8  85457960.987 8        51.250  
G16  24364079.998 6 128034131.418 6        39.750    24364078.498 3  99766850.550 3        22.750  
G18  20410052.804 8 107255559.653 8        48.500    20410052.484 7  83575756.514 7        43.250  
G23  20652467.264 8 108529463.877 8        49.000    20652466.804 7  84568416.742 7        42.750  
G27  22134165.874 8 116315841.134 8        49.750    22134166.814 8  90635724.109 8        50.750  
G30  24584142.916 6 129190550.177 6        41.000    24584144.236 3 100667959.672 3        21.000  
> 2021 11 07 02 39  0.0000000  0 10                     
G05  24278896.860 7 127586485.667 7        43.000    24278897.540 4  99417996.928 4        29.000  
G08  24108830.600 6 126692760.166 6        41.500    24108832.900 4  98721632.684 4        27.250  
G10  22930608.048 7 120501152.988 7        46.000    22930609.828 7  93897003.024 7        44.500  
G13  22009780.094 7 115662215.232 7        47.500    22009779.254 5  90126373.995 5        34.750  
G15  20872244.082 8 109684360.923 8        49.750    20872243.582 8  85468336.917 8        52.500  
G16  24396699.718 6 128205549.130 6        41.000    24396698.238 3  99900422.752 3        23.250  
G18  20424168.044 8 107329735.588 8        48.250    20424167.764 7  83633555.911 7        43.000  
G23  20634998.224 8 108437663.339 8        48.500    20634997.784 7  84496883.833 7        42.000  
G27  22116841.234 8 116224799.058 8        49.250    22116842.134 8  90564782.225 8        50.500  
G30  24596096.356 7 129253365.316 7        45.000    24596097.556 4 100716906.640 4        29.250  
> 2021 11 07 02 40  0.0000000  0 10                     
G05  24321103.958 6 127808284.707 6        37.250    24321104.718 3  99590827.161 3        22.250  
G08  24074522.120 6 126512467.911 6        41.750    24074524.400 4  98581145.219 4        27.500  
G10  22894798.448 7 120312972.286 7        46.750    22894800.208 7  93750368.703 7        46.250  
G13  22028351.914 7 115759810.521 7        47.250    22028351.074 5  90202422.229 5        34.750  
G15  20875291.142 8 109700372.997 8        49.750    20875290.642 8  85480813.813 8        52.250  
G16  24429584.578 6 128378360.170 6        40.750    24429583.098 3 100035080.669 3        22.500  
G18  20438662.784 8 107405905.835 8        48.250    20438662.544 7  83692909.303 7        42.750  
G23  20617882.184 8 108347717.921 8        48.500    20617881.764 7  84426796.486 7        42.250  
G27  22099966.774 8 116136122.762 8        48.750    22099967.614 8  90495683.805 8        50.000  
G30  24608462.396 6 129318348.969 6        38.750    24608463.596 4 100767543.173 4        26.250  
> 2021 11 07 02 41  0.0000000  0 10                     
G05  24363381.938 7 128030456.156 7        42.500    24363382.758 4  99763947.643 4        28.000  
G08  24040478.800 7 126333569.054 7        42.250    24040481.060 4  98441743.557 4        28.000  
G10  22859160.908 7 120125695.607 7        47.000    22859162.668 7  93604438.811 7        47.500  
G13  22047370.614 7 115859754.267 7        47.000    22047369.794 5  90280300.454 5        34.500  
G15  20878850.442 8 109719076.988 8        48.250    20878849.962 8  85495388.314 8        51.500  
G16  24462729.658 6 128552538.575 6        39.750    24462728.178 3 100170804.073 3        21.000  
G18  20453535.964 8 107484064.718 8        48.250    20453535.744 7  83753812.298 7        42.500  
G23  20601120.364 8 108259633.855 8        48.500    20601119.964 7  84358159.538 7        42.250  
G27  22083544.914 8 116049824.995 8        48.250    22083545.714 8  90428438.782 8        49.750  
G30  24621239.236 6 129385491.824 6        38.750    24621240.516 4 100819862.072 4        25.500  
> 2021 11 07 02 42  0.0000000  0 10                     
G05  24405728.138 7 128252986.048 7        42.750    24405729.038 4  99937347.225 4        27.250  
G08  24006704.660 7 126156084.819 7        42.250    24006706.920 4  98303444.147 4        29.000  
G10  22823697.648 7 119939334.913 7        47.750    22823699.448 8  93459222.692 8        48.000  
G13  22066833.414 7 115962031.848 7        47.250    22066832.634 5  90359997.248 5        34.500  
G15  20882921.262 7 109740469.215 7        46.500    20882920.842 8  85512057.568 8        50.750  
G16  24496130.478 6 128728061.037 6        40.500    24496129.038 3 100307574.816 3        21.500  
G18  20468786.664 8 107564207.556 8        48.500    20468786.464 7  83816261.224 7        42.500  
G23  20584714.144 8 108173418.563 8        48.500    20584713.764 7  84290978.769 7        42.000  
G27  22067578.274 8 115965919.413 8        48.750    22067579.034 8  90363057.794 8        50.250  
G30  24634425.316 7 129454784.727 7        44.250    24634426.576 3 100873856.636 3        22.750  
> 2021 11 07 02 43  0.0000000  0 10                     
G05  24448140.018 6 128475861.146 6        39.750    24448141.018 4 100111015.949 4        24.500  
G08  23973203.702 7 125980036.201 7        42.500    23973205.962 4  98166263.433 4        28.500  
G10  22788410.828 8 119753901.369 8        48.250    22788412.648 8  93314729.030 8        48.750  
G13  22086737.394 7 116066627.887 7        47.000    22086736.634 5  90441500.629 5        34.500  
G15  20887502.502 7 109764543.972 7        47.250    20887502.182 8  85530817.137 8        50.750  
G16  24529782.278 6 128904902.287 6        38.500    24529780.838 3 100445373.123 3        20.750  
G18  20484413.844 8 107646328.663 8        48.000    20484413.644 7  83880251.664 7        42.250  
G23  20568664.724 8 108089078.323 8        48.250    20568664.384 7  84225259.081 7        42.000  
G27  22052069.214 8 115884418.511 8        48.750    22052069.954 8  90299550.573 8        50.000  
G30  24648018.696 6 129526218.074 6        40.750    24648019.896 4 100929519.013 4        24.750  
> 2021 11 07 02 44  0.0000000  0 10                     
G05  24490614.998 6 128699067.837 6        38.750    24490616.098 4 100284942.919 4        26.750  
G08  23939979.922 6 125805444.132 6        41.500    23939982.182 4  98030217.667 4        28.000  
G10  22753302.570 8 119569406.121 8        48.750    22753304.410 8  93170966.484 8        48.500  
G13  22107079.374 7 116173525.677 7        46.000    22107078.654 5  90524797.579 5        34.000  
G15  20892593.222 8 109791295.913 8        48.500    20892592.942 8  85551662.809 8        51.250  
G16  24563680.138 6 129083036.547 6        41.500    24563678.698 3 100584179.056 3        22.500  
G18  20500416.324 8 107730422.171 8        48.250    20500416.164 7  83945779.032 7        42.000  
G23  20552973.304 8 108006619.307 8        48.500    20552972.964 6  84161005.280 6        41.750  
G27  22037020.034 8 115805334.434 8        48.250    22037020.794 8  90237926.608 8        48.750  
G30  24662017.416 6 129599781.907 6        41.750    24662018.716 4 100986841.343 4        29.000  
> 2021 11 07 02 45  0.0000000  0 10                     
G05  24533150.458 6 128922592.256 6        40.000    24533151.658 3 100459117.702 3        22.500  
G08  23907037.142 6 125632328.818 6        41.750    23907039.402 4  97895322.623 4        27.500  
G10  22718374.990 8 119385860.467 8        48.000    22718376.850 8  93027943.885 8        48.000  
G13  22127856.254 7 116282709.039 7        46.250    22127855.594 5  90609875.501 5        34.250  
G15  20898192.342 8 109820719.287 8        49.250    20898192.042 8  85574590.096 8        51.750  
G16  24597819.576 6 129262440.468 6        38.000    24597818.156 3 100723974.289 3        20.750  
G18  20516793.024 7 107816482.184 7        47.750    20516792.884 6  84012838.742 6        41.750  
G23  20537641.064 8 107926047.708 8        48.500    20537640.724 7  84098222.208 7        42.000  
G27  22022433.034 7 115728679.255 7        47.000    22022433.834 8  90178195.292 8        48.250  
G30  24676419.636 7 129675465.701 7        42.750    24676421.016 4 101045815.709 4        27.000  
> 2021 11 07 02 46  0.0000000  0 10                     
G05  24575743.998 7 129146421.891 7        43.250    24575745.298 4 100633530.150 4        29.000  
G08  23874379.362 6 125460711.226 6        41.750    23874381.662 4  97761594.649 4        28.000  
G10  22683630.210 7 119203275.463 7        47.000    22683632.070 7  92885669.827 7        46.500  
G13  22149065.094 7 116394162.075 7        47.500    22149064.434 5  90696721.984 5        34.750  
G15  20904298.642 8 109852807.782 8        49.750    20904298.262 8  85599594.072 8        52.000  
G16  24632195.556 6 129443087.275 6        39.500    24632194.136 3 100864738.006 3        21.000  
G18  20533542.724 8 107904502.433 8        48.000    20533542.644 7  84081425.908 7        42.000  
G23  20522669.084 8 107847369.393 8        48.750    20522668.764 7  84036914.403 7        42.250  
G27  22008310.394 7 115654464.530 7        45.500    22008311.254 7  90120365.598 7        47.750  
G30  24691223.216 5 129753258.886 5        35.250    24691224.596 3 101106433.952 3        20.750  
> 2021 11 07 02 47  0.0000000  0 10                     
G05  24618393.016 6 129370542.993 6        39.000    24618394.416 4 100808169.674 4        28.250  
G08  23842010.522 7 125290611.807 7        42.250    23842012.822 4  97629049.644 4        28.250  
G10  22649070.290 7 119021662.068 7        47.000    22649072.170 7  92744152.910 7        46.250  
G13  22170702.454 7 116507867.085 7        47.250    22170701.814 5  90785323.251 5        34.500  
G15  20910910.722 8 109887554.279 8        49.500    20910910.322 8  85626669.238 8        51.500  
G16  24666803.536 6 129624953.406 6        41.000    24666802.136 3 101006451.848 3        21.250  
G18  20550664.204 7 107994476.226 7        47.750    20550664.144 7  84151535.314 7        42.000  
G23  20508058.464 8 107770589.844 8        48.750    20508058.124 7  83977086.158 7        42.250  
G27  21994654.214 7 115582701.235 7        45.250    21994655.214 7  90064446.106 7        47.250  
G30  24706426.016 7 129833150.221 7        42.500    24706427.456 5 101168686.760 5        30.250  
> 2021 11 07 02 48  0.0000000  0 10                     
G05  24661095.176 6 129594943.304 6        40.750    24661096.656 4 100983026.777 4        28.000  
G08  23809934.802 7 125122052.554 7        42.000    23809937.042 4  97497704.779 4        28.500  
G10  22614697.670 7 118841032.912 7        47.000    22614699.570 7  92603402.924 7        47.000  
G13  22192765.432 7 116623808.657 7        47.750    22192764.792 5  90875667.282 5        34.750  
G15  20918027.562 8 109924953.323 8        49.250    20918027.122 8  85655811.334 8        51.500  
G16  24701638.856 6 129808014.088 6        40.500    24701637.456 3 101149096.490 3        21.500  
G18  20568156.464 7 108086398.573 7        47.750    20568156.444 6  84223163.072 6        41.750  
G23  20493810.484 8 107695716.185 8        48.500    20493810.164 7  83918743.027 7        42.250  
G27  21981466.914 7 115513401.834 7        45.250    21981468.034 7  90010446.524 7        47.750  
G30  24722026.256 6 129915129.807 6        40.750    24722027.716 3 101232566.938 3        23.250  
> 2021 11 07 02 49  0.0000000  0 10                     
G05  24703847.776 6 129819608.699 6        41.250    24703849.356 4 101158090.561 4        26.000  
G08  23778155.642 7 124955051.843 7        42.000    23778157.882 4  97367574.327 4        28.500  
G10  22580514.170 8 118661397.473 8        48.000    22580516.070 7  92463427.266 7        47.750  
G13  22215250.492 7 116741968.142 7        47.500    22215249.852 5  90967739.549 5        34.500  
G15  20925647.402 8 109964995.721 8        49.000    20925646.942 8  85687013.156 8        51.500  
G16  24736696.256 6 129992241.803 6        40.500    24736694.876 3 101292650.506 3        22.250  
G18  20586017.924 8 108180261.050 8        48.000    20586017.924 6  84296302.613 6        41.750  
G23  20479925.904 8 107622752.243 8        48.500    20479925.624 7  83861887.975 7        42.500  
G27  21968750.194 7 115446575.243 7        46.750    21968751.434 8  89958373.818 8        49.000  
G30  24738021.336 6 129999184.646 6        38.500    24738022.836 3 101298064.172 3        23.000  
> 2021 11 07 02 50  0.0000000  0 10                     
G05  24746648.636 5 130044527.680 5        35.750    24746650.316 3 101333351.812 3        21.750  
G08  23746677.242 7 124789631.748 7        42.500    23746679.482 4  97238675.557 4        28.500  
G10  22546522.090 8 118482767.866 8        48.500    22546523.970 8  92324235.344 8        48.250  
G13  22238154.392 7 116862328.899 7        46.750    22238153.812 5  91061527.111 5        34.000  
G15  20933769.162 8 110007675.490 8        49.000    20933768.662 8  85720270.084 8        51.500  
G16  24771971.456 6 130177614.165 6        40.250    24771970.116 3 101437096.480 3        21.500  
G18  20604247.444 7 108276057.661 7        47.750    20604247.464 6  84370949.296 6        41.000  
G23  20466405.944 8 107551704.211 8        48.500    20466405.664 7  83806525.853 7        42.500  
G27  21956506.254 8 115382232.665 8        48.250    21956507.534 8  89908236.724 8        50.750  
G30  24754409.296 7 130085303.725 7        43.750    24754410.796 4 101365170.004 4        29.500  
> 2021 11 07 02 51  0.0000000  0 10                     
G05  24789495.016 6 130269685.973 6        38.750    24789496.816 4 101508799.566 4        25.500  
G08  23715503.342 7 124625811.774 7        42.000    23715505.582 4  97111023.634 4        28.500  
G10  22512723.490 8 118305154.927 8        49.000    22512725.330 8  92185835.630 8        48.500  
G13  22261473.772 7 116984872.803 7        47.250    22261473.212 5  91157015.793 5        33.750  
G15  20942390.802 8 110052982.362 8        48.750    20942390.302 8  85755574.101 8        51.250  
G16  24807459.376 6 130364104.290 6        39.250    24807458.056 3 101582413.393 3        21.750  
G18  20622843.624 7 108373781.081 7        47.500    20622843.664 6  84447097.379 6        41.000  
G23  20453251.484 8 107482577.041 8        48.500    20453251.224 7  83752660.512 7        42.500  
G27  21944736.894 8 115320383.788 8        49.750    21944738.154 8  89860042.781 8        51.000  
G30  24771187.736 6 130173475.028 6        37.500    24771189.256 3 101433874.805 3        18.000  
> 2021 11 07 02 52  0.0000000  0 10                     
G05  24832384.776 6 130495072.105 6        41.500    24832386.696 4 101684424.831 4        26.750  
G08  23684638.002 7 124463613.386 7        42.250    23684640.262 4  96984635.257 4        28.750  
G10  22479120.592 8 118128570.414 8        48.750    22479122.412 8  92048237.288 8        49.250  
G13  22285205.292 7 117109582.659 7        46.250    22285204.772 5  91254192.284 5        33.250  
G15  20951511.042 8 110100909.362 8        49.500    20951510.562 8  85792919.775 8        51.500  
G16  24843155.416 6 130551688.131 6        37.750    24843154.116 3 101728582.569 3        20.250  
G18  20641805.164 7 108473424.625 7        47.250    20641805.244 6  84524741.668 6        41.000  
G23  20440463.624 8 107415376.341 8        48.500    20440463.384 7  83700296.302 7        42.750  
G27  21933444.014 8 115261038.875 8        49.500    21933445.254 8  89813799.992 8        51.250  
G30  24788354.416 7 130263686.498 7        43.000    24788355.936 4 101504169.618 4        28.250  
> 2021 11 07 02 53  0.0000000  0  9                     
G05  24875315.496 6 130720673.497 6        37.250    24875317.536 3 101860217.940 3        23.250  
G08  23654084.744 7 124303054.955 7        43.000    23654087.024 4  96859524.795 4        29.500  
G10  22445715.312 8 117953024.488 8        48.000    22445717.172 8  91911448.253 8        49.250  
G13  22309345.272 7 117236439.015 7        46.000    22309344.792 5  91353041.313 5        32.750  
G15  20961127.942 8 110151446.200 8        49.500    20961127.462 8  85832299.094 8        51.000  
G16  24879054.696 6 130740339.921 6        38.000    24879053.416 3 101875583.904 3        19.000  
G18  20661130.504 7 108574979.946 7        47.500    20661130.624 6  84603875.642 6        41.250  
G23  20428043.124 8 107350106.018 8        48.750    20428042.904 7  83649436.283 7        43.250  
G27  21922629.194 8 115204206.186 8        49.250    21922630.434 8  89769514.764 8        51.000  
> 2021 11 07 02 54  0.0000000  0 11                     
G05  24918284.774 6 130946477.427 6        39.250    24918286.934 4 102036168.670 4        24.000  
G08  23623847.704 7 124144158.214 7        43.000    23623850.004 4  96735709.132 4        29.500  
G10  22412509.972 7 117778529.291 7        47.500    22412511.872 8  91775477.986 8        48.750  
G13  22333890.552 7 117365425.117 7        46.250    22333890.112 5  91453549.914 5        32.500  
G15  20971239.982 8 110204585.145 8        48.750    20971239.502 8  85873706.019 8        50.750  
G16  24915152.494 6 130930034.949 6        38.250    24915151.254 3 102023398.150 3        18.500  
G18  20680818.424 7 108678440.546 7        47.500    20680818.584 6  84684494.256 6        41.250  
G23  20415991.024 8 107286771.784 8        49.000    20415990.844 7  83600084.917 7        43.750  
G24  24874595.396 6 130716876.816 6        40.250    24874600.336 5 101857307.425 5        35.750  
G27  21912294.294 8 115149895.749 8        48.500    21912295.534 8  89727194.920 8        50.500  
G30  24823842.796 7 130450177.743 7        43.250    24823844.456 4 101649487.304 4        24.750  
> 2021 11 07 02 55  0.0000000  0 11                     
G05  24961290.074 6 131172470.734 6        39.500    24961292.374 4 102212267.118 4        26.000  
G08  23593930.464 7 123986942.057 7        42.500    23593932.804 4  96613203.026 4        29.000  
G10  22379506.452 7 117605094.804 7        47.500    22379508.412 8  91640334.217 8        48.250  
G13  22358837.332 7 117496521.120 7        46.500    22358836.912 5  91555702.583 5        32.750  
G15  20981845.042 8 110260315.007 8        48.500    20981844.522 8  85917131.834 8        49.750  
G16  24951443.774 6 131120746.713 6        39.250    24951442.574 3 102172004.693 3        18.500  
G18  20700867.202 8 108783797.391 8        48.000    20700867.362 6  84766590.460 6        41.500  
G23  20404308.004 8 107225377.018 8        48.750    20404307.864 7  83552244.820 7        43.750  
G24  24833347.556 6 130500120.697 6        38.750    24833352.256 5 101688407.081 5        32.750  
G27  21902440.714 7 115098114.840 7        47.250    21902442.014 8  89686846.127 8        50.000  
G30  24842159.236 6 130546431.409 6        38.250    24842160.816 3 101724490.250 3        23.750  
> 2021 11 07 02 56  0.0000000  0 11                     
G05  25004329.314 6 131398642.276 6        40.250    25004331.734 4 102388504.286 4        26.750  
G08  23564336.704 7 123831425.835 7        42.750    23564339.064 4  96492021.538 4        29.750  
G10  22346706.972 7 117432732.478 7        47.500    22346708.952 8  91506025.899 8        48.000  
G13  22384182.112 7 117629708.633 7        47.250    22384181.712 5  91659485.011 5        32.750  
G15  20992941.260 8 110318625.863 8        48.500    20992940.780 8  85962568.832 8        51.250  
G16  24987923.934 6 131312451.013 6        38.000    24987922.754 3 102321384.598 3        19.750  
G18  20721275.422 7 108891043.025 7        47.500    20721275.582 6  84850158.447 6        41.000  
G23  20392994.964 8 107165926.526 8        48.750    20392994.844 7  83505919.742 7        43.750  
G24  24792179.116 6 130283781.281 6        37.750    24792183.576 5 101519831.287 5        32.250  
G27  21893070.114 7 115048872.120 7        47.750    21893071.474 8  89648475.139 8        49.750  
G30  24860853.896 6 130644672.920 6        40.750    24860855.496 4 101801041.860 4        26.000  
> 2021 11 07 02 57  0.0000000  0 11                     
G05  25047400.114 6 131624979.631 6        40.250    25047402.674 4 102564870.778 4        27.500  
G08  23535070.384 7 123677630.217 7        43.500    23535072.764 5  96372180.784 5        30.250  
G10  22314113.592 7 117261453.281 7        47.750    22314115.612 8  91372561.578 8        48.250  
G13  22409921.272 7 117764968.490 7        47.000    22409920.892 5  91764882.233 5        32.250  
G15  21004526.700 8 110379507.685 8        48.000    21004526.260 8  86010009.184 8        49.250  
G16  25024588.094 6 131505122.254 6        39.000    25024586.934 3 102471517.972 3        21.250  
G18  20742041.462 7 109000169.215 7        47.250    20742041.662 6  84935191.791 6        40.750  
G23  20382052.686 8 107108424.417 8        48.750    20382052.586 7  83461112.878 7        43.750  
G24  24751094.856 6 130067884.087 6        40.000    24751099.176 5 101351600.021 5        34.000  
G27  21884183.996 7 115002175.257 7        47.750    21884185.416 8  89612087.947 8        50.250  
G30  24879924.256 6 130744888.273 6        40.750    24879925.876 3 101879131.821 3        22.000  
> 2021 11 07 02 58  0.0000000  0 11                     
G05  25090500.094 6 131851470.351 6        38.750    25090502.794 4 102741356.773 4        24.000  
G08  23506135.084 7 123525574.189 7        43.000    23506137.484 5  96253695.529 5        30.000  
G10  22281728.532 8 117091268.616 8        49.000    22281730.552 8  91239950.142 8        50.000  
G13  22436051.212 7 117902281.908 7        46.750    22436050.832 5  91871879.644 5        32.500  
G15  21016599.260 8 110442949.358 8        48.250    21016598.840 8  86059444.205 8        50.750  
G16  25061431.474 6 131698735.247 6        39.000    25061430.334 3 102622385.152 3        20.500  
G18  20763163.862 7 109111167.974 7        47.500    20763164.082 6  85021684.277 6        41.000  
G23  20371482.006 8 107052875.024 8        48.750    20371481.926 7  83417827.614 7        43.500  
G24  24710099.776 6 129852455.106 6        40.500    24710103.976 5 101183733.612 5        31.750  
G27  21875783.856 8 114958032.024 8        48.000    21875785.296 8  89577690.604 8        50.250  
G30  24899367.694 6 130847064.239 6        39.250    24899369.334 4 101958749.408 4        24.000  
> 2021 11 07 02 59  0.0000000  0 11                     
G05  25133627.054 6 132078102.928 6        38.750    25133629.914 4 102917953.390 4        24.500  
G08  23477534.644 7 123375277.773 7        42.750    23477537.064 5  96136581.418 5        30.250  
G10  22249553.752 8 116922188.793 8        50.500    22249555.772 8  91108199.628 8        50.750  
G13  22462568.152 7 118041628.900 7        44.500    22462567.752 5  91980461.634 5        31.500  
G15  21029156.760 7 110508939.458 7        47.750    21029156.400 8  86110865.054 8        50.250  
G16  25098449.234 6 131893264.628 6        40.250    25098448.134 3 102773966.424 3        21.750  
G18  20784640.862 7 109224030.134 7        47.750    20784641.102 6  85109628.774 6        41.000  
G23  20361283.506 8 106999281.506 8        48.750    20361283.466 7  83376066.414 7        43.750  
G24  24669198.476 6 129637518.927 6        40.250    24669202.536 5 101016251.164 5        30.750  
G27  21867870.836 7 114916448.747 7        46.750    21867872.296 8  89545288.036 8        49.250  
G30  24919181.314 6 130951185.510 6        40.750    24919182.994 4 102039882.743 4        24.000  
> 2021 11 07 03 00  0.0000000  0 11                     
G05  25176778.694 6 132304865.203 6        37.750    25176781.674 3 103094650.989 3        22.500  
G08  23449272.644 7 123226759.887 7        43.250    23449275.084 5  96020853.177 5        30.250  
G10  22217591.312 8 116754224.832 8        50.500    22217593.292 8  90977318.587 8        50.500  
G13  22489468.290 7 118182990.240 7        44.500    22489467.990 5  92090613.321 5        31.000  
G15  21042197.100 8 110577466.778 8        48.500    21042196.780 8  86164262.939 8        50.000  
G16  25135636.494 6 132088684.702 6        39.250    25135635.414 3 102926241.753 3        22.000  
G18  20806470.842 7 109338747.167 7        47.500    20806471.082 6  85199018.617 6        40.750  
G23  20351457.946 8 106947647.690 8        49.000    20351457.906 7  83335832.253 7        43.500  
G24  24628395.836 6 129423101.025 6        41.500    24628399.796 5 100849172.558 5        34.250  
G27  21860446.176 7 114877432.211 7        45.750    21860447.756 8  89514885.508 8        48.000  
G30  24939362.514 6 131057238.371 6        38.500    24939364.254 3 102122521.285 3        21.250  
> 2021 11 07 03 01  0.0000000  0 11                     
G05  25219952.732 6 132531745.289 6        39.000    25219955.852 4 103271440.450 4        24.500  
G08  23421352.564 7 123080038.664 7        43.750    23421354.984 5  95906524.930 5        30.750  
G10  22185843.272 8 116587387.448 8        49.250    22185845.192 8  90847315.407 8        50.250  
G13  22516748.050 7 118326346.086 7        47.750    22516747.770 5  92202319.122 5        32.000  
G15  21055717.940 8 110648519.036 8        48.250    21055717.520 7  86219628.247 7        47.750  
G16  25172988.594 6 132284971.036 6        40.500    25172987.554 3 103079192.060 3        21.250  
G18  20828652.022 7 109455309.994 7        47.250    20828652.322 6  85289846.730 6        40.500  
G23  20342005.886 8 106897976.782 8        49.000    20342005.886 7  83297127.617 7        43.750  
G24  24587696.696 7 129209226.888 7        42.500    24587700.576 6 100682517.689 6        37.000  
G27  21853511.096 7 114840988.435 7        45.250    21853512.776 7  89486487.703 7        47.750  
G30  24959908.414 6 131165207.636 6        40.500    24959910.174 4 102206653.196 4        26.000  
> 2021 11 07 03 02  0.0000000  0 11                     
G05  25263146.972 6 132758731.523 6        40.750    25263150.212 4 103448312.594 4        27.250  
G08  23393778.224 7 122935134.427 7        42.250    23393780.644 4  95793612.509 4        29.250  
G10  22154311.654 8 116421687.693 8        48.750    22154313.594 8  90718198.694 8        50.000  
G13  22544403.590 7 118471676.367 7        47.000    22544403.270 5  92315563.419 5        32.000  
G15  21069716.960 7 110722084.272 7        47.750    21069716.500 8  86276951.736 8        49.500  
G16  25210500.512 6 132482097.083 6        40.500    25210499.472 3 103232796.698 3        20.500  
G18  20851182.782 7 109573709.742 7        47.500    20851183.102 6  85382106.234 6        40.500  
G23  20332928.046 8 106850272.258 8        48.750    20332928.026 7  83259955.236 7        43.250  
G24  24547105.978 6 128995922.416 6        41.000    24547109.738 6 100516306.701 6        37.250  
G27  21847066.736 7 114807123.341 7        45.750    21847068.516 8  89460099.290 8        48.500  
G30  24980816.174 6 131275078.541 6        40.500    24980817.974 4 102292266.786 4        24.000  
> 2021 11 07 03 03  0.0000000  0 10                     
G08  23366553.266 7 122792066.354 7        43.000    23366555.726 4  95682130.902 4        29.500  
G10  22122998.574 8 116257136.308 8        48.500    22123000.554 8  90589976.833 8        50.750  
G13  22572430.970 7 118618960.899 7        46.000    22572430.650 5  92430330.523 5        31.250  
G15  21084191.680 8 110798149.321 8        48.000    21084191.320 8  86336223.163 8        50.500  
G16  25248167.712 6 132680039.285 6        38.750    25248166.712 3 103387037.309 3        19.750  
G18  20874061.322 7 109693937.126 7        46.750    20874061.682 6  85475789.844 6        40.500  
G23  20324224.946 8 106804537.096 8        50.750    20324224.906 7  83224317.427 7        44.000  
G24  24506628.498 6 128783213.063 6        41.500    24506632.198 6 100350559.433 6        39.250  
G27  21841114.176 7 114775842.330 7        47.500    21841115.996 8  89435724.451 8        49.000  
G30  25002082.934 6 131386836.051 6        39.000    25002084.794 3 102379350.593 3        22.750  
> 2021 11 07 03 04  0.0000000  0 10                     
G08  23339681.006 7 122650851.556 7        44.000    23339683.466 5  95572093.360 5        30.500  
G10  22091906.074 8 116093744.088 8        48.750    22091908.114 8  90462658.231 8        51.250  
G13  22600826.330 7 118768179.489 7        44.250    22600826.070 5  92546604.692 5        30.500  
G15  21099139.760 7 110876701.885 7        47.500    21099139.500 8  86397432.909 8        51.250  
G16  25285985.232 6 132878771.315 6        37.750    25285984.252 2 103541893.400 2        17.500  
G18  20897285.862 7 109815982.790 7        47.000    20897286.262 6  85570890.289 6        40.000  
G23  20315897.246 8 106760774.311 8        48.500    20315897.146 7  83190216.493 7        42.750  
G24  24466269.178 6 128571124.553 6        41.000    24466272.818 6 100185295.889 6        40.500  
G27  21835654.296 7 114747150.349 7        47.500    21835656.136 8  89413367.047 8        49.000  
G30  25023705.734 6 131500464.658 6        38.500    25023707.634 3 102467892.297 3        22.250  
> 2021 11 07 03 05  0.0000000  0 10                     
G08  23313165.186 7 122511510.037 7        42.750    23313167.686 5  95463515.518 5        30.250  
G10  22061036.254 8 115931522.039 8        49.250    22061038.334 8  90336251.437 8        51.250  
G13  22629585.930 7 118919312.152 7        46.250    22629585.730 5  92664370.356 5        30.750  
G15  21114558.620 7 110957728.470 7        47.750    21114558.500 8  86460570.491 8        51.250  
G16  25323948.312 6 133078268.424 6        37.500    25323947.372 2 103697345.612 2        15.250  
G18  20920854.642 7 109939837.375 7        47.250    20920855.082 6  85667400.295 6        40.250  
G23  20307945.246 7 106718986.750 7        47.750    20307945.246 7  83157654.769 7        42.000  
G24  24426032.938 6 128359682.838 6        37.500    24426036.538 6 100020536.301 6        38.750  
G27  21830688.016 7 114721052.290 7        47.500    21830689.876 8  89393030.876 8        49.000  
G30  25045681.674 6 131615948.913 6        40.000    25045683.614 4 102557880.003 4        24.250  
> 2021 11 07 03 06  0.0000000  0 10                     
G08  23287009.086 7 122374058.696 7        43.500    23287011.586 5  95356410.571 5        30.500  
G10  22030391.014 8 115770480.161 8        50.000    22030393.094 8  90210764.262 8        51.000  
G13  22658705.810 7 119072337.781 7        46.500    22658705.610 5  92783611.038 5        30.750  
G15  21130445.580 8 111041214.801 8        48.250    21130445.520 8  86525624.736 8        51.000  
G16  25362052.172 6 133278505.323 6        38.000    25362051.272 2 103853374.283 2        13.750  
G18  20944765.662 7 110065490.402 7        47.500    20944766.142 6  85765311.693 6        39.750  
G23  20300369.586 8 106679176.359 8        49.250    20300369.586 7  83126633.648 7        43.500  
G24  24385924.618 5 128148913.135 5        35.000    24385928.178 6  99856300.341 6        36.750  
G27  21826216.016 7 114697551.640 7        47.500    21826217.876 8  89374718.647 8        49.250  
G30  25068007.554 6 131733272.212 6        38.500    25068009.514 3 102649300.715 3        22.250  
> 2021 11 07 03 07  0.0000000  0 10                     
G08  23261216.586 7 122238518.173 7        43.500    23261219.106 5  95250794.554 5        30.750  
G10  21999972.614 8 115610630.235 8        50.250    21999974.674 8  90086205.863 8        51.000  
G13  22688182.250 7 119227237.006 7        46.500    22688182.030 5  92904311.645 5        31.000  
G15  21146798.220 8 111127148.328 8        48.000    21146798.220 8  86592585.879 8        50.500  
G16  25400292.132 6 133479457.356 6        38.000    25400291.232 2 104009960.230 2        14.000  
G18  20969017.242 7 110192933.139 7        46.250    20969017.742 6  85864617.677 6        39.000  
G23  20293170.886 8 106641346.557 8        49.500    20293170.826 7  83097155.841 7        44.000  
G24  24345949.338 5 127938842.459 5        33.000    24345952.838 5  99692609.151 5        34.250  
G27  21822239.236 8 114676653.268 8        48.000    21822241.076 8  89358434.191 8        49.750  
G30  25090680.594 6 131852419.778 6        40.000    25090682.574 3 102742142.974 3        23.750  
> 2021 11 07 03 08  0.0000000  0 10                     
G08  23235790.726 7 122104904.264 7        43.000    23235793.226 5  95146679.796 5        30.750  
G10  21969782.894 8 115451982.104 8        49.750    21969784.934 8  89962583.935 8        51.250  
G13  22718010.970 7 119383987.488 7        46.500    22718010.730 5  93026454.797 5        30.750  
G15  21163613.720 7 111215514.233 7        47.250    21163613.720 8  86661442.360 8        49.000  
G16  25438663.272 6 133681098.811 6        37.750    25438662.412 2 104167083.398 2        16.250  
G18  20993607.340 7 110322154.756 7        46.750    20993607.880 6  85965309.780 6        39.000  
G23  20286349.306 8 106605498.768 8        48.750    20286349.226 7  83069222.464 7        43.500  
G24  24306111.878 6 127729496.063 6        36.250    24306115.358 6  99529482.288 6        38.250  
G27  21818758.136 8 114658359.761 8        48.000    21818759.976 8  89344179.494 8        50.000  
G30  25113697.494 6 131973374.420 6        39.000    25113699.514 3 102836393.347 3        23.000  
> 2021 11 07 03 09  0.0000000  0 10                     
G08  23210735.026 7 121973235.524 7        42.750    23210737.506 5  95044080.774 5        30.750  
G10  21939823.854 8 115294546.379 8        49.250    21939825.934 8  89839906.752 8        51.250  
G13  22748188.050 7 119542568.851 7        44.000    22748187.850 4  93150024.589 4        29.750  
G15  21180889.200 7 111306297.356 7        47.500    21180889.220 8  86732182.416 8        48.500  
G16  25477160.992 6 133883405.422 6        38.000    25477160.152 3 104324724.846 3        18.000  
G18  21018534.000 7 110453144.978 7        47.750    21018534.560 6  86067380.018 6        40.750  
G23  20279905.226 8 106571634.985 8        48.750    20279905.186 7  83042835.091 7        43.750  
G24  24266417.200 6 127520899.958 6        39.750    24266420.780 6  99366940.056 6        41.500  
G27  21815773.296 8 114642674.142 8        48.250    21815775.116 8  89331956.895 8        50.000  
G30  25137055.174 6 132096119.812 6        40.000    25137057.214 4 102932039.095 4        24.750  
> 2021 11 07 03 10  0.0000000  0 10                     
G08  23186052.806 7 121843529.512 7        44.500    23186055.286 5  94943011.113 5        31.750  
G10  21910097.594 8 115138333.823 8        49.750    21910099.674 8  89718182.670 8        51.250  
G13  22778709.570 7 119702960.317 7        45.250    22778709.430 4  93275004.882 4        29.500  
G15  21198622.020 7 111399484.012 7        47.250    21198622.100 8  86804795.366 8        48.250  
G16  25515780.390 6 134086351.374 6        39.500    25515779.550 3 104482864.487 3        21.000  
G18  21043795.300 7 110585893.577 7        47.750    21043795.860 6  86170820.421 6        40.750  
G23  20273839.106 8 106539757.252 8        49.500    20273839.086 7  83017995.276 7        44.250  
G24  24226870.360 7 127313080.431 7        42.750    24226874.080 7  99205002.920 7        43.250  
G27  21813285.236 8 114629599.057 8        48.250    21813287.016 8  89321768.503 8        50.000  
G30  25160750.454 6 132220639.344 6        40.250    25160752.514 3 103029067.373 3        23.000  
> 2021 11 07 03 11  0.0000000  0 10                     
G08  23161747.426 7 121715803.612 7        43.500    23161749.886 5  94843484.387 5        31.250  
G10  21880606.136 8 114983355.157 8        49.000    21880608.216 8  89597420.041 8        50.500  
G13  22809571.488 7 119865140.630 7        43.750    22809571.428 4  93401379.091 4        28.500  
G15  21216809.460 7 111495059.539 7        47.250    21216809.540 8  86879269.751 8        48.250  
G16  25554516.830 6 134289912.445 6        38.500    25554516.010 3 104641483.412 3        18.250  
G18  21069389.240 7 110720390.311 7        47.750    21069389.820 6  86275623.001 6        40.500  
G23  20268151.306 8 106509867.438 8        50.500    20268151.266 7  82994704.475 7        45.000  
G24  24187476.280 7 127106063.674 7        44.250    24187480.060 7  99043691.346 7        42.750  
G27  21811294.416 8 114619136.944 8        48.000    21811296.156 8  89313616.192 8        49.750  
G30  25184780.112 6 132346916.196 6        37.750    25184782.192 3 103127464.889 3        21.250  
> 2021 11 07 03 12  0.0000000  0  9                     
G08  23137822.146 7 121590075.257 7        43.750    23137824.606 5  94745514.225 5        31.000  
G10  21851351.436 8 114829620.668 8        49.250    21851353.496 8  89477626.914 8        50.500  
G13  22840769.728 7 120029088.335 7        44.500    22840769.728 4  93529130.452 4        28.250  
G15  21235448.260 7 111593007.083 7        47.500    21235448.380 8  86955592.480 8        48.500  
G18  21095313.760 7 110856624.237 7        47.750    21095314.360 6  86381779.235 6        40.500  
G23  20262842.066 8 106481966.815 8        50.500    20262841.986 7  82972963.689 7        45.250  
G24  24148239.900 7 126899875.571 7        45.250    24148243.660 6  98883025.482 6        41.000  
G27  21809801.076 7 114611289.289 7        47.500    21809802.816 8  89307501.112 8        49.000  
G30  25209140.912 6 132474933.175 6        40.500    25209142.992 3 103227218.350 3        22.750  
> 2021 11 07 03 13  0.0000000  0  9                     
G08  23114280.226 7 121466361.462 7        45.000    23114282.686 5  94649113.824 5        31.500  
G10  21822335.536 8 114677141.000 8        49.250    21822337.576 8  89358811.573 8        51.250  
G13  22872300.368 7 120194782.715 7        45.750    22872300.408 4  93658242.904 4        29.000  
G15  21254535.600 7 111693311.590 7        47.500    21254535.740 8  87033751.803 8        49.000  
G18  21121566.840 7 110994584.746 7        47.500    21121567.460 6  86489280.873 6        39.750  
G23  20257911.606 8 106456056.839 8        50.000    20257911.546 7  82952774.065 7        45.500  
G24  24109166.200 7 126694542.346 7        45.250    24109169.860 5  98723025.691 5        35.750  
G27  21808805.516 7 114606057.597 7        47.250    21808807.256 8  89303424.444 8        48.750  
G30  25233829.612 6 132604673.195 6        39.500    25233831.692 3 103328314.492 3        21.750  
> 2021 11 07 03 14  0.0000000  0  9                     
G08  23091124.806 7 121344678.774 7        44.250    23091127.266 5  94554296.111 5        31.750  
G10  21793560.236 8 114525925.789 8        49.000    21793562.316 8  89240981.523 8        51.500  
G13  22904159.128 7 120362201.237 7        45.250    22904159.188 4  93788698.860 4        28.500  
G15  21274068.340 7 111795956.695 7        47.250    21274068.500 8  87113734.971 8        49.000  
G18  21148146.240 7 111134260.089 7        47.250    21148146.860 6  86598118.737 6        38.750  
G23  20253360.006 8 106432137.870 8        49.500    20253359.986 7  82934135.890 7        45.500  
G24  24070260.000 7 126490089.313 7        44.000    24070263.520 5  98563711.601 5        32.000  
G27  21808307.796 7 114603442.013 7        47.500    21808309.536 8  89301386.286 8        48.750  
G30  25258842.712 6 132736118.007 6        38.500    25258844.792 3 103430738.962 3        20.750  
> 2021 11 07 03 15  0.0000000  0  9                     
G08  23068359.108 7 121225043.979 7        45.000    23068361.548 5  94461074.154 5        32.000  
G10  21765027.636 8 114375985.990 8        49.000    21765029.756 8  89124145.314 8        51.500  
G13  22936341.948 7 120531322.811 7        44.500    22936342.028 4  93920481.819 4        28.500  
G15  21294043.498 7 111900926.817 7        46.500    21294043.718 8  87195529.834 8        49.500  
G18  21175049.920 7 111275639.705 7        47.250    21175050.600 6  86708284.584 6        38.750  
G23  20249187.586 8 106410211.505 8        49.750    20249187.586 7  82917050.377 7        45.500  
G24  24031526.380 6 126286543.174 6        41.000    24031529.820 5  98405104.205 5        34.500  
G27  21808308.096 7 114603443.632 7        47.000    21808309.856 8  89301387.504 8        48.500  
G30  25284177.012 6 132869250.675 6        40.500    25284179.132 3 103534478.677 3        23.000  
> 2021 11 07 03 16  0.0000000  0  9                     
G08  23045986.188 7 121107473.394 7        44.250    23045988.648 5  94369460.689 5        31.500  
G10  21736739.656 8 114227331.673 8        50.000    21736741.796 8  89008310.781 8        51.750  
G13  22968844.788 7 120702125.968 7        46.500    22968844.868 4  94053575.139 4        29.250  
G15  21314457.918 7 112008205.260 7        47.000    21314458.198 8  87279123.408 8        49.500  
G18  21202275.720 7 111418712.019 7        47.750    21202276.420 6  86819769.455 6        39.250  
G23  20245394.426 8 106390278.152 8        50.000    20245394.446 7  82901517.873 7        45.500  
G24  23992970.280 5 126083929.803 5        35.250    23992973.720 5  98247223.656 5        32.750  
G27  21808806.376 7 114606062.153 7        47.000    21808808.176 8  89303427.875 8        48.500  
G30  25309829.052 6 133004053.003 6        38.750    25309831.192 3 103639519.407 3        21.250  
> 2021 11 07 03 17  0.0000000  0  8                     
G08  23024009.308 7 120991983.997 7        46.000    23024011.788 5  94279468.945 5        33.500  
G10  21708698.436 8 114079973.841 8        51.000    21708700.556 8  88893486.460 8        52.500  
G13  23001663.488 7 120874588.948 7        46.000    23001663.548 4  94187961.844 4        28.750  
G15  21335308.538 7 112117775.932 7        46.750    21335308.878 8  87364503.121 8        49.250  
G18  21229821.620 7 111563466.296 7        47.750    21229822.320 6  86932564.934 6        40.000  
G23  20241980.766 8 106372339.139 8        50.250    20241980.806 7  82887539.400 7        45.750  
G27  21809802.696 7 114611297.992 7        46.250    21809804.556 8  89307507.703 8        48.250  
G30  25335795.552 6 133140507.761 6        40.250    25335797.692 3 103745847.736 3        21.750  
> 2021 11 07 03 18  0.0000000  0  9                     
G08  23002431.288 7 120878590.345 7        44.250    23002433.748 5  94191110.173 5        33.250  
G10  21680905.676 8 113933921.692 8        50.750    21680907.796 8  88779679.564 8        52.500  
G13  23034793.788 7 121048689.501 7        45.000    23034793.848 4  94323624.547 4        28.500  
G15  21356591.878 7 112229620.496 7        47.500    21356592.218 8  87451654.702 8        48.750  
G18  21257685.180 7 111709890.055 7        47.500    21257685.920 6  87046661.312 6        39.750  
G23  20238946.506 8 106356393.872 8        50.250    20238946.586 7  82875114.485 7        45.750  
G24  23916411.282 6 125681543.071 6        38.250    23916415.582 6  97933613.546 6        39.750  
G27  21811296.756 7 114619149.332 7        46.500    21811298.656 8  89313625.590 8        48.500  
G30  25362072.872 6 133278595.901 6        39.000    25362075.052 3 103853448.862 3        22.750  
> 2021 11 07 03 19  0.0000000  0  9                     
G08  22981255.128 7 120767308.732 7        43.750    22981257.608 5  94104397.307 5        32.000  
G10  21653363.356 8 113789185.731 8        49.750    21653365.496 8  88666898.294 8        52.250  
G13  23068231.608 7 121224406.065 7        45.750    23068231.668 4  94460546.478 4        28.500  
G15  21378304.838 7 112343722.756 7        47.500    21378305.178 8  87540565.504 8        48.750  
G18  21285864.238 7 111857971.815 7        46.250    21285865.018 6  87162049.615 6        39.000  
G23  20236291.746 8 106342442.856 8        50.000    20236291.826 7  82864243.537 7        45.500  
G24  23878417.742 6 125481885.947 6        41.500    23878422.282 7  97778036.541 7        43.500  
G27  21813288.396 7 114629615.298 7        47.250    21813290.296 8  89321780.851 8        48.750  
G30  25388657.592 6 133418299.390 6        38.250    25388659.792 3 103962308.660 3        20.750  
> 2021 11 07 03 20  0.0000000  0  8                     
G08  22960483.888 7 120658154.635 7        46.000    22960486.368 5  94019342.095 5        34.250  
G10  21626073.376 8 113645775.987 8        49.750    21626075.536 8  88555150.429 8        51.750  
G13  23101972.686 7 121401716.052 7        45.250    23101972.706 4  94598710.025 4        28.500  
G15  21400444.078 7 112460064.995 7        47.500    21400444.418 8  87631221.745 8        48.750  
G18  21314356.518 7 112007699.702 7        46.250    21314357.378 6  87278720.587 6        38.750  
G23  20234016.466 8 106330486.087 8        50.000    20234016.586 7  82854926.552 7        45.750  
G24  23840621.682 7 125283266.482 7        43.500    23840626.222 7  97623268.147 7        45.750  
G27  21815777.256 8 114642694.154 8        48.000    21815779.156 8  89331972.130 8        49.250  
> 2021 11 07 03 21  0.0000000  0  8                     
G08  22940120.348 7 120551143.152 7        42.000    22940122.828 5  93935956.508 5        32.750  
G10  21599037.736 8 113503702.676 8        50.000    21599039.896 8  88444443.929 8        51.750  
G13  23136012.966 7 121580598.563 7        44.500    23136013.006 4  94738098.880 4        28.250  
G15  21423006.118 7 112578629.244 7        47.250    21423006.458 8  87723609.433 8        48.250  
G18  21343159.798 7 112159061.816 7        47.000    21343160.718 6  87396665.009 6        39.000  
G23  20232120.666 8 106320523.518 8        49.750    20232120.826 7  82847163.480 7        45.750  
G24  23803028.182 7 125085710.999 7        44.250    23803032.602 7  97469328.857 7        45.500  
G27  21818762.996 8 114658383.979 8        48.250    21818764.876 8  89344197.943 8        49.500  
> 2021 11 07 03 22  0.0000000  0  8                     
G08  22920167.308 7 120446288.849 7        45.750    22920169.788 5  93854251.878 5        33.250  
G10  21572258.338 8 113362975.922 8        49.250    21572260.478 8  88334786.705 8        51.750  
G13  23170348.246 7 121761031.141 7        46.000    23170348.266 4  94878695.623 4        28.500  
G15  21445987.778 8 112699398.436 8        48.000    21445988.098 8  87817715.239 8        48.250  
G18  21372271.818 8 112312046.116 8        48.000    21372272.778 6  87515873.482 6        39.500  
G23  20230604.326 8 106312554.971 8        49.500    20230604.506 7  82840954.202 7        45.500  
G24  23765642.062 7 124889245.662 7        43.500    23765646.462 7  97316239.052 7        43.250  
G27  21822245.136 8 114676682.438 8        48.500    21822246.996 8  89358456.448 8        50.250  
> 2021 11 07 03 23  0.0000000  0  8                     
G08  22900627.728 7 120343607.208 7        46.750    22900630.208 5  93774240.108 5        33.750  
G10  21545737.058 8 113223605.642 8        49.750    21545739.218 8  88226186.486 8        52.250  
G13  23204974.166 7 121942991.224 7        43.000    23204974.226 4  95020482.604 4        27.750  
G15  21469385.538 7 112822354.355 7        47.250    21469385.858 8  87913524.983 8        48.250  
G18  21401690.218 7 112466640.311 7        47.750    21401691.158 6  87636336.437 6        39.250  
G23  20229467.306 8 106306579.838 8        48.750    20229467.526 7  82836298.230 7        45.250  
G24  23728468.282 6 124693896.484 6        40.750    23728472.702 6  97164018.971 6        38.500  
G27  21826223.136 8 114697586.583 8        48.250    21826224.956 8  89374745.372 8        50.250  
> 2021 11 07 03 24  0.0000000  0  8                     
G08  22881504.128 7 120243111.886 7        43.500    22881506.648 5  93695932.030 5        32.000  
G10  21519475.738 8 113085601.471 8        50.750    21519477.918 8  88118650.765 8        52.500  
G13  23239886.706 7 122126457.510 7        44.250    23239886.806 4  95163443.253 4        27.750  
G15  21493195.878 7 112947478.289 7        47.500    21493196.198 8  88011024.097 8        48.250  
G18  21431412.518 7 112622831.723 7        47.750    21431413.498 6  87758043.955 6        39.250  
G23  20228709.406 8 106302597.160 8        49.000    20228709.686 7  82833194.822 7        45.000  
G24  23691511.782 6 124499689.220 6        37.000    23691516.222 5  97012688.688 5        32.000  
G27  21830696.276 8 114721092.803 8        48.250    21830698.076 8  89393061.868 8        50.000  
> 2021 11 07 03 25  0.0000000  0  8                     
G08  22862799.428 7 120144817.877 7        45.500    22862802.048 6  93619339.283 6        39.000  
G10  21493476.358 8 112948973.673 8        51.250    21493478.518 8  88012187.523 8        53.250  
G13  23275081.466 7 122311406.805 7        43.500    23275081.586 4  95307559.476 4        27.750  
G15  21517415.218 7 113074751.436 7        47.500    21517415.538 8  88110197.916 8        48.250  
G18  21461436.478 7 112780608.196 7        47.250    21461437.438 6  87880986.594 6        38.750  
G23  20228330.586 8 106300606.531 8        48.250    20228330.926 7  82831643.650 7        44.500  
G24  23654777.624 6 124306650.335 6        37.000    23654782.064 5  96862268.823 5        30.250  
G27  21835663.936 8 114747197.746 8        48.000    21835665.716 8  89413403.350 8        49.750  
> 2021 11 07 03 26  0.0000000  0  8                     
G08  22844515.948 7 120048737.444 7        44.750    22844518.708 7  93544471.346 7        44.500  
G10  21467740.698 8 112813731.693 8        51.250    21467742.838 8  87906804.142 8        53.250  
G13  23310554.266 7 122497817.343 7        43.250    23310554.466 4  95452814.322 4        27.750  
G15  21542040.058 7 113204155.667 7        47.000    21542040.378 8  88211032.321 8        48.250  
G18  21491759.558 7 112939956.757 7        46.500    21491760.538 6  88005154.206 6        38.500  
G23  20228330.546 8 106300606.492 8        48.500    20228330.946 7  82831643.605 7        44.500  
G24  23618270.744 6 124114805.727 6        39.000    23618275.164 5  96712779.522 5        34.750  
G27  21841125.236 7 114775896.932 7        47.500    21841127.016 8  89435766.321 8        49.250  
> 2021 11 07 03 27  0.0000000  0  8                     
G08  22826656.728 7 119954886.525 7        43.000    22826659.508 7  93471340.727 7        43.500  
G10  21442270.758 8 112679886.006 8        51.000    21442272.878 8  87802508.791 8        53.250  
G13  23346300.926 7 122685666.884 7        43.250    23346301.166 4  95599190.470 4        27.250  
G15  21567066.978 7 113335672.723 7        47.750    21567067.298 8  88313513.082 8        48.000  
G18  21522379.498 7 113100865.341 7        47.000    21522380.518 6  88130537.399 6        39.000  
G23  20228709.226 8 106302596.587 8        48.500    20228709.686 7  82833194.306 7        44.500  
G24  23581996.204 7 123924181.990 7        42.250    23582000.584 6  96564241.574 6        41.000  
G27  21847079.456 7 114807186.501 7        47.250    21847081.276 8  89460147.762 8        49.250  
> 2021 11 07 03 28  0.0000000  0  8                     
G08  22809223.968 7 119863276.677 7        45.000    22809226.708 7  93399956.393 7        43.000  
G10  21417068.198 8 112547445.535 8        51.000    21417070.298 8  87699308.420 8        53.000  
G13  23382317.266 7 122874933.733 7        42.250    23382317.586 4  95746671.036 4        26.250  
G15  21592492.156 7 113469282.588 7        47.500    21592492.456 8  88417624.600 8        48.250  
G18  21553293.718 7 113263320.162 7        47.250    21553294.758 6  88257125.455 6        39.000  
G23  20229466.226 8 106306574.680 8        49.000    20229466.726 7  82836294.088 7        45.000  
G24  23545958.804 7 123734804.338 7        42.500    23545963.124 7  96416674.621 7        42.500  
G27  21853525.516 7 114841060.702 7        47.000    21853527.356 8  89486543.190 8        48.750  
> 2021 11 07 03 29  0.0000000  0  8                     
G08  22792220.248 7 119773921.586 7        44.500    22792222.868 7  93330329.012 7        42.500  
G10  21392134.898 8 112416420.099 8        51.000    21392136.998 8  87597210.663 8        52.750  
G13  23418598.984 7 123065595.091 7        42.250    23418599.364 4  95895238.199 4        26.500  
G15  21618312.016 8 113604966.574 8        48.000    21618312.296 8  88523352.313 8        48.250  
G18  21584499.778 7 113427308.652 7        47.000    21584500.858 6  88384908.587 6        38.750  
G23  20230601.286 8 106312539.390 8        49.250    20230601.826 7  82840941.881 7        45.000  
G24  23510163.484 7 123546698.851 7        42.250    23510167.764 7  96270098.977 7        42.750  
G27  21860462.436 7 114877514.344 7        47.250    21860464.296 8  89514948.584 8        49.250  
> 2021 11 07 03 30  0.0000000  0  8                     
G08  22775647.910 7 119686833.385 7        44.000    22775650.430 7  93262468.066 7        42.500  
G10  21367472.658 8 112286819.119 8        50.750    21367474.738 8  87496222.864 8        52.250  
G13  23455141.784 6 123257628.420 6        41.500    23455142.244 4  96044874.455 4        25.750  
G15  21644522.736 8 113742704.488 8        48.500    21644523.016 8  88630680.515 8        48.750  
G18  21615995.136 7 113592817.439 7        46.750    21615996.256 6  88513876.367 6        38.250  
G23  20232114.026 8 106320488.826 8        49.250    20232114.566 7  82847136.218 7        45.000  
G24  23474615.124 6 123359891.208 6        40.500    23474619.384 6  96124534.659 6        41.250  
G27  21867889.076 7 114916541.477 7        47.000    21867890.956 8  89545359.301 8        49.250  
> 2021 11 07 03 31  0.0000000  0  8                     
G08  22759509.450 7 119602025.095 7        45.000    22759511.810 7  93196383.678 7        43.250  
G10  21343083.398 8 112158652.782 8        50.500    21343085.498 8  87396352.987 8        52.500  
G13  23491941.544 7 123451012.023 7        43.250    23491942.044 4  96195562.882 4        26.250  
G15  21671120.776 8 113882477.732 8        48.500    21671121.056 8  88739594.682 8        48.500  
G18  21647777.416 7 113759833.930 7        47.000    21647778.556 6  88644018.991 6        38.250  
G23  20234004.226 8 106330421.774 8        49.500    20234004.786 7  82854876.149 7        45.250  
G24  23439318.784 6 123174407.939 6        39.000    23439323.004 6  95980002.310 6        38.500  
G27  21875804.376 7 114958136.570 7        47.500    21875806.296 8  89577771.012 8        49.000  
> 2021 11 07 03 32  0.0000000  0  9                     
G08  22743806.990 7 119519508.137 7        46.000    22743809.290 7  93132084.703 7        44.250  
G10  21318968.758 8 112031929.501 8        50.750    21318970.878 8  87297607.563 8        53.000  
G13  23528993.824 6 123645722.716 6        41.250    23528994.404 4  96347285.392 4        26.000  
G15  21698102.176 7 114024265.712 7        47.750    21698102.456 8  88850078.765 8        48.500  
G18  21679843.856 7 113928343.695 7        47.250    21679845.016 6  88775325.217 6        38.250  
G23  20236271.286 8 106342335.055 8        49.500    20236271.846 7  82864159.200 7        45.500  
G24  23404279.124 6 122990273.627 6        39.000    23404283.324 6  95836521.124 6        37.500  
G27  21884206.896 7 115002291.935 7        47.750    21884208.836 8  89612177.759 8        49.500  
G32  25266630.452 7 132777036.293 7        42.250    25266635.132 6 103462626.668 6        40.500  
> 2021 11 07 03 33  0.0000000  0  9                     
G08  22728543.010 7 119439295.242 7        44.250    22728545.290 7  93069581.136 7        44.750  
G10  21295130.678 8 111906659.522 8        51.500    21295132.798 8  87199994.574 8        53.500  
G13  23566294.664 7 123841739.580 7        42.750    23566295.304 4  96500025.683 4        27.000  
G15  21725463.316 7 114168049.371 7        46.750    21725463.636 8  88962117.885 8        48.250  
G18  21712192.076 7 114098334.165 7        46.000    21712193.256 6  88907785.236 6        37.500  
G23  20238914.926 8 106356227.311 8        49.250    20238915.486 7  82874984.308 7        45.500  
G24  23369501.246 6 122807514.942 6        40.000    23369505.386 6  95694111.816 6        38.000  
G27  21893095.454 7 115049001.383 7        47.500    21893097.394 8  89648574.701 8        49.500  
G32  25222700.152 7 132546181.739 7        45.000    25222704.832 6 103282740.129 6        40.500  
> 2021 11 07 03 34  0.0000000  0  9                     
G08  22713719.330 7 119361396.170 7        46.000    22713721.670 7  93008880.532 7        45.500  
G10  21271570.760 8 111782851.067 8        51.750    21271572.840 8  87103520.423 8        53.500  
G13  23603839.584 7 124039038.981 7        42.750    23603840.264 4  96653765.391 4        26.750  
G15  21753200.156 7 114313807.139 7        46.750    21753200.476 8  89075695.299 8        48.250  
G18  21744819.236 7 114269790.691 7        45.750    21744820.456 6  89041387.609 6        37.250  
G23  20241934.486 8 106372095.025 8        49.500    20241935.046 7  82887348.734 7        45.500  
G24  23334989.766 6 122626156.342 6        41.000    23334993.886 6  95552793.502 6        39.000  
G27  21902468.414 7 115098256.416 7        47.750    21902470.354 8  89686955.207 8        49.500  
G32  25178792.594 7 132315446.377 7        45.750    25178797.154 5 103102946.385 5        35.500  
> 2021 11 07 03 35  0.0000000  0  9                     
G08  22699338.630 7 119285824.995 7        46.000    22699341.030 7  92949993.846 7        45.250  
G10  21248291.100 8 111660515.521 8        51.250    21248293.160 8  87008194.002 8        53.500  
G13  23641624.604 6 124237600.204 6        41.500    23641625.324 3  96808488.271 3        23.500  
G15  21781309.296 7 114461521.456 7        47.750    21781309.656 8  89190797.295 8        48.000  
G18  21777723.176 7 114442701.677 7        46.750    21777724.436 6  89176123.360 6        37.500  
G23  20245329.886 8 106389937.744 8        49.250    20245330.446 7  82901252.114 7        45.000  
G24  23300750.006 6 122446225.496 6        41.250    23300754.066 6  95412587.745 6        40.000  
G27  21912324.714 7 115150051.354 7        47.500    21912326.634 8  89727314.872 8        48.750  
G32  25134911.094 7 132084848.140 7        43.500    25134915.514 6 102923259.497 6        36.000  
> 2021 11 07 03 36  0.0000000  0  9                     
G08  22685402.590 7 119212590.397 7        45.750    22685404.970 7  92892927.889 7        46.000  
G10  21225293.160 8 111539660.357 8        51.750    21225295.220 9  86914021.125 9        54.000  
G13  23679645.224 7 124437399.433 7        42.000    23679645.984 3  96964175.994 3        23.000  
G15  21809786.636 8 114611170.594 8        48.000    21809786.996 7  89307406.943 7        42.500  
G18  21810900.956 7 114617051.577 7        47.000    21810902.216 6  89311980.343 6        37.500  
G23  20249100.266 8 106409750.948 8        50.000    20249100.806 7  82916690.946 7        45.500  
G24  23266786.406 6 122267745.968 6        41.500    23266790.426 6  95273512.896 6        41.000  
G27  21922662.414 7 115204376.171 7        47.500    21922664.334 8  89769645.870 8        49.000  
G32  25091058.394 6 131854401.247 6        40.000    25091062.714 5 102743690.580 5        33.500  
> 2021 11 07 03 37  0.0000000  0  9                     
G08  22671913.170 7 119141702.849 7        45.750    22671915.570 7  92837690.828 7        46.250  
G10  21202578.620 8 111420294.559 8        51.250    21202580.700 8  86821008.793 8        53.500  
G13  23717897.182 7 124638414.437 7        42.750    23717897.982 4  97120810.919 4        25.000  
G14  25262454.732 6 132755089.699 6        38.500    25262455.792 3 103445526.654 3        21.000  
G15  21838628.116 7 114762733.352 7        47.500    21838628.516 6  89425507.716 6        38.000  
G18  21844349.896 7 114792826.423 7        47.250    21844351.156 6  89448947.676 6        37.500  
G23  20253245.026 8 106431531.630 8        50.000    20253245.586 7  82933662.866 7        45.500  
G24  23233103.766 6 122090742.983 6        40.500    23233107.746 6  95135588.621 6        41.250  
G27  21933479.894 8 115261222.225 8        48.000    21933481.814 8  89813941.468 8        48.750  
> 2021 11 07 03 38  0.0000000  0 10                     
G08  22658872.510 7 119073173.523 7        46.250    22658874.950 7  92784291.303 7        47.000  
G10  21180149.300 8 111302427.732 8        50.750    21180151.400 8  86729164.485 8        53.250  
G13  23756376.322 6 124840623.249 6        41.250    23756377.162 4  97278376.145 4        25.000  
G14  25237964.232 6 132626391.284 6        39.000    25237965.312 3 103345242.142 3        19.500  
G15  21867830.016 7 114916189.981 7        47.750    21867830.436 6  89545084.220 6        38.000  
G18  21878067.436 7 114970012.735 7        47.250    21878068.676 6  89587014.846 6        37.750  
G23  20257763.706 8 106455277.149 8        49.750    20257764.266 7  82952165.841 7        45.500  
G24  23199707.006 6 121915242.298 6        40.750    23199710.926 6  94998834.943 6        41.750  
G27  21944775.514 7 115320580.991 7        47.500    21944777.434 8  89860195.009 8        48.500  
G32  25003451.694 5 131394025.878 5        35.250    25003455.854 5 102384957.131 5        31.500  
> 2021 11 07 03 39  0.0000000  0 10                     
G08  22646282.390 7 119007011.810 7        45.500    22646284.870 7  92732736.682 7        46.500  
G10  21158006.880 8 111186068.727 8        51.000    21158009.040 8  86638495.106 8        53.500  
G13  23795078.562 7 125044004.425 7        42.500    23795079.462 4  97436854.799 4        26.250  
G14  25213804.652 6 132499431.811 6        38.500    25213805.752 3 103246312.705 3        21.750  
G15  21897388.394 7 115071519.933 7        47.000    21897388.834 6  89666120.470 6        38.000  
G18  21912050.874 7 115148596.321 7        46.750    21912052.094 6  89726170.801 6        37.750  
G23  20262655.646 8 106480984.260 8        50.250    20262656.206 7  82972197.315 7        45.500  
G24  23166600.886 6 121741268.955 6        41.000    23166604.746 6  94863271.397 6        41.500  
G27  21956547.474 7 115382442.940 7        47.750    21956549.414 8  89908399.086 8        48.750  
G32  24959703.754 6 131164129.802 6        41.500    24959707.734 6 102205817.609 6        37.000  
> 2021 11 07 03 40  0.0000000  0 10                     
G08  22634144.490 7 118943226.651 7        45.250    22634147.050 7  92683033.933 7        46.000  
G10  21136153.200 8 111071226.713 8        51.500    21136155.360 8  86549007.788 8        53.750  
G13  23833999.522 7 125248534.920 7        42.750    23834000.442 4  97596229.108 4        25.250  
G14  25189979.612 6 132374230.494 6        38.500    25189980.732 3 103148753.268 3        21.500  
G15  21927299.394 8 115228702.965 8        48.000    21927299.854 6  89788600.706 6        37.750  
G18  21946297.514 7 115328563.237 7        45.500    21946298.754 6  89866404.665 6        36.750  
G23  20267920.246 8 106508649.694 8        50.250    20267920.806 7  82993754.763 7        45.250  
G24  23133790.246 6 121568848.269 6        41.750    23133794.046 6  94728917.669 6        40.750  
G27  21968793.954 7 115446798.493 7        47.750    21968795.914 8  89958546.239 8        49.000  
G32  24915996.894 7 130934449.596 7        45.500    24916000.574 6 102026846.108 6        39.000  
> 2021 11 07 03 41  0.0000000  0 10                     
G08  22622460.670 7 118881827.674 7        45.250    22622463.250 7  92635190.516 7        45.750  
G10  21114589.820 8 110957910.237 8        51.250    21114591.980 8  86460709.218 8        53.750  
G13  23873135.062 6 125454193.179 6        41.750    23873136.062 3  97756482.138 3        23.500  
G14  25166492.574 6 132250805.344 6        39.750    25166493.674 3 103052577.831 3        21.500  
G15  21957558.974 7 115387717.766 7        47.750    21957559.454 6  89912508.284 6        38.000  
G18  21980804.594 7 115509898.962 7        44.250    21980805.914 5  90007705.103 5        34.500  
G23  20273556.786 8 106538269.620 8        49.500    20273557.326 7  83016835.192 7        45.250  
G24  23101279.726 6 121398004.791 6        41.250    23101283.466 6  94595792.924 6        40.250  
G27  21981512.974 7 115513637.297 7        47.750    21981514.954 8  90010628.377 8        49.000  
G32  24872334.156 7 130705000.903 7        47.250    24872337.576 6 101848054.839 6        38.250  
> 2021 11 07 03 42  0.0000000  0 10                     
G08  22611232.830 7 118822824.832 7        45.000    22611235.430 7  92589214.232 7        46.000  
G10  21093318.500 8 110846128.664 8        51.250    21093320.680 8  86373606.661 8        53.750  
G13  23912480.962 6 125660956.853 6        41.750    23912482.022 3  97917596.573 3        23.500  
G14  25143347.134 6 132129175.286 6        40.000    25143348.214 3 102957801.170 3        21.250  
G15  21988163.094 7 115548543.242 7        47.250    21988163.614 6  90037826.781 6        37.750  
G18  22015569.514 7 115692589.647 7        45.250    22015570.894 5  90150061.374 5        35.000  
G23  20279564.626 8 106569840.816 8        49.750    20279565.166 7  83041436.090 7        45.000  
G24  23069074.188 6 121228763.943 6        41.000    23069077.888 6  94463916.998 6        40.500  
G27  21994702.634 7 115582949.297 7        47.250    21994704.634 8  90064637.693 8        49.000  
G32  24828718.716 7 130475800.558 7        44.750    24828722.056 5 101669456.966 5        34.250  
> 2021 11 07 03 43  0.0000000  0 10                     
G08  22600462.130 7 118766224.337 7        45.250    22600464.770 7  92545109.902 7        46.000  
G10  21072340.660 8 110735889.358 8        51.250    21072342.860 8  86287705.874 8        53.500  
G13  23952032.902 6 125868803.197 6        41.500    23952034.042 4  98079554.635 4        24.000  
G14  25120546.514 6 132009357.180 6        38.750    25120547.574 3 102864436.390 3        21.750  
G15  22019107.714 7 115711158.010 7        47.250    22019108.254 6  90164539.528 6        37.000  
G18  22050589.314 7 115876619.555 7        45.500    22050590.734 5  90293461.206 5        35.000  
G23  20285942.806 8 106603358.160 8        49.000    20285943.326 7  83067553.468 7        44.500  
G24  23037178.088 6 121061149.069 6        41.500    23037181.728 6  94333308.069 6        41.500  
G27  22008360.614 7 115654722.327 7        47.500    22008362.634 8  90120564.682 8        49.000  
G32  24785153.476 6 130246863.682 6        40.250    24785156.776 4 101491064.503 4        28.750  
> 2021 11 07 03 44  0.0000000  0 10                     
G08  22590150.730 7 118712037.438 7        46.000    22590153.390 7  92502886.320 7        46.250  
G10  21051658.360 8 110627202.964 8        51.750    21051660.540 9  86203015.145 9        54.000  
G13  23991787.140 6 126077712.591 6        41.000    23991788.340 3  98242341.031 3        23.500  
G14  25098094.514 6 131891371.142 6        40.000    25098095.534 3 102772499.209 3        21.250  
G15  22050389.154 7 115875542.806 7        47.250    22050389.694 6  90292631.536 6        37.000  
G18  22085861.634 7 116061976.440 7        45.750    22085863.094 6  90437895.049 6        36.000  
G23  20292690.946 8 106638819.715 8        48.750    20292691.466 7  83095185.815 7        44.250  
G24  23005596.468 6 120895186.911 6        41.750    23005600.108 7  94203986.985 7        42.750  
G27  22022485.194 7 115728947.259 7        47.250    22022487.234 8  90178402.245 8        48.750  
G32  24741641.936 5 130018208.893 5        33.250    24741645.256 4 101312892.231 4        28.500  
> 2021 11 07 03 45  0.0000000  0 10                     
G08  22580299.990 7 118660271.088 7        47.000    22580302.610 7  92462548.869 7        46.500  
G10  21031273.200 8 110520078.076 8        51.750    21031275.380 9  86119541.167 9        54.500  
G13  24031739.300 6 126287662.055 6        41.000    24031740.580 3  98405937.827 3        23.250  
G14  25075994.434 6 131775234.393 6        39.750    25075995.434 3 102682002.963 3        22.250  
G15  22082003.374 7 116041676.388 7        47.250    22082003.934 6  90422086.218 6        37.000  
G18  22121383.574 7 116248645.121 7        45.750    22121385.094 6  90583351.062 6        36.500  
G23  20299808.166 8 106676220.835 8        49.250    20299808.686 7  83124329.514 7        44.000  
G24  22974333.928 7 120730901.433 7        42.250    22974337.548 7  94075972.398 7        43.500  
G27  22037074.034 7 115805612.010 7        47.000    22037076.094 8  90238140.967 8        48.750  
G32  24698185.73616 129789844.62716        36.0001   24698190.75615 101134944.16215        34.7501 
> 2021 11 07 03 46  0.0000000  0 10                     
G08  22570910.310 7 118610927.663 7        46.250    22570912.870 7  92424099.445 7        46.500  
G10  21011185.840 8 110414518.110 8        51.250    21011188.020 9  86037286.628 9        54.500  
G13  24071884.460 6 126498625.695 6        41.000    24071885.800 3  98570324.910 3        22.250  
G14  25054248.734 6 131660959.950 6        39.250    25054249.714 3 102592957.957 3        21.250  
G15  22113945.314 7 116209532.174 7        45.750    22113945.874 6  90552882.883 6        36.250  
G18  22157151.454 7 116436606.245 7        44.750    22157153.014 5  90729814.160 5        35.750  
G23  20307292.746 8 106715552.487 8        48.250    20307293.286 7  83154977.520 7        43.250  
G24  22943394.188 7 120568312.136 7        42.250    22943397.748 7  93949279.491 7        43.250  
G27  22052123.974 7 115884699.865 7        46.500    22052126.054 8  90299767.828 8        48.500  
G32  24654789.796 6 129561796.446 6        41.500    24654793.976 6 100957244.780 6        41.250  
> 2021 11 07 03 47  0.0000000  0  8                     
G08  22561984.270 6 118564020.791 6        38.500    22561986.810 6  92387548.598 6        41.000  
G10  20991399.060 7 110310537.691 7        44.000    20991401.240 8  85956262.904 8        50.500  
G15  22146212.154 6 116379095.357 6        38.500    22146212.754 5  90685009.973 5        30.750  
G18  22193163.652 6 116625851.239 6        36.750    22193165.272 4  90877277.679 4        29.000  
G23  20315145.006 6 106756816.253 6        40.750    20315145.546 6  83187131.075 6        38.000  
G24  22912782.968 5 120407449.376 5        33.750    22912786.508 6  93823931.947 6        37.250  
G27  22067633.854 6 115966204.656 6        38.500    22067635.954 7  90363277.999 7        43.000  
G32  24611456.636 6 129334079.332 6        36.750    24611460.416 6 100779803.264 6        39.000  
> 2021 11 07 03 48  0.0000000  0  9                     
G08  22553522.470 6 118519553.595 6        38.250    22553525.010 6  92352898.813 6        40.750  
G10  20971913.782 7 110208141.716 7        44.500    20971915.982 8  85876473.815 8        51.000  
G13  24152739.440 5 126923520.303 5        34.250    24152740.960 3  98901411.294 3        18.250  
G15  22178799.194 6 116550341.159 6        38.750    22178799.814 5  90818448.178 5        31.250  
G18  22229416.672 6 116816361.809 6        36.750    22229418.372 4  91025727.335 4        29.000  
G23  20323363.406 6 106800004.086 6        41.250    20323363.946 6  83220783.908 6        38.500  
G24  22882504.208 5 120248333.689 5        33.750    22882507.728 6  93699945.771 6        36.750  
G27  22083600.574 6 116050110.186 6        39.250    22083602.694 7  90428658.873 7        43.750  
G32  24568188.678 6 129106706.102 6        38.250    24568192.238 6 100602629.585 6        39.250  
> 2021 11 07 03 49  0.0000000  0  7                     
G08  22545526.390 6 118477533.790 6        36.500    22545528.930 6  92320156.081 6        38.250  
G10  20952731.902 7 110107340.115 7        43.500    20952734.102 8  85797927.088 8        50.500  
G15  22211702.672 6 116723249.882 6        38.000    22211703.312 5  90953182.175 5        30.000  
G18  22265908.012 6 117008124.630 6        36.750    22265909.752 4  91175152.766 4        28.500  
G23  20331947.306 6 106845112.759 6        40.000    20331947.886 6  83255933.490 6        37.250  
G27  22100021.974 6 116136404.979 6        38.000    22100024.114 7  90495901.499 7        43.250  
G32  24524989.518 5 128879694.458 5        35.250    24524992.938 5 100425737.569 5        35.250  
> 2021 11 07 03 50  0.0000000  0 11                     
G08  22537997.330 7 118437968.431 7        43.250    22537999.890 7  92289325.894 7        43.000  
G10  20933855.022 8 110008141.436 8        51.750    20933857.242 9  85720629.399 9        55.250  
G13  24234319.480 6 127352224.951 6        41.000    24234321.140 3  99235466.530 3        22.750  
G14  24970883.434 6 131222871.892 6        39.250    24970884.434 3 102251590.475 3        22.000  
G15  22244918.632 7 116897800.672 7        45.250    22244919.312 5  91089195.692 5        35.750  
G18  22302634.912 7 117201125.327 7        45.000    22302636.712 5  91325542.791 5        34.500  
G21  25317084.432 6 133042176.215 6        40.750    25317082.992 3 103669231.587 3        21.000  
G23  20340895.886 8 106892137.883 8        48.000    20340896.486 7  83292576.407 7        42.250  
G24  22822963.168 7 119935443.966 7        42.000    22822966.628 7  93456135.771 7        42.500  
G27  22116895.614 7 116225076.285 7        47.500    22116897.794 8  90564995.943 8        49.500  
G32  24481862.498 6 128653061.434 6        38.750    24481865.778 5 100249140.553 5        35.000  
> 2021 11 07 03 51  0.0000000  0 11                     
G08  22530935.630 7 118400859.168 7        43.250    22530938.270 7  92260409.536 7        43.750  
G10  20915284.002 8 109910549.917 8        52.250    20915286.222 9  85644584.036 9        55.500  
G13  24275370.620 7 127567949.475 7        42.500    24275372.360 3  99403563.418 3        23.500  
G14  24950961.594 6 131118181.877 6        41.000    24950962.614 3 102170013.893 3        21.500  
G15  22278442.232 7 117073968.177 7        46.250    22278442.952 5  91226469.000 5        35.750  
G18  22339593.772 7 117395344.903 7        45.250    22339595.632 5  91476882.591 5        34.750  
G21  25280451.432 7 132849668.038 7        42.500    25280449.952 3 103519225.093 3        23.500  
G23  20350207.446 8 106941070.445 8        48.000    20350208.066 7  83330705.629 7        42.250  
G24  22793709.208 7 119781713.679 7        42.500    22793712.628 7  93336346.033 7        44.500  
G27  22134218.134 7 116316106.366 7        47.500    22134220.314 8  90635928.406 8        49.500  
G32  24438809.778 6 128426819.266 6        39.250    24438812.998 4 100072848.067 4        29.750  
> 2021 11 07 03 52  0.0000000  0 11                     
G08  22524343.010 7 118366214.789 7        44.500    22524345.710 7  92233413.835 7        45.250  
G10  20897020.982 8 109814576.994 8        52.250    20897023.222 9  85569799.911 9        55.000  
G13  24316590.658 6 127784561.577 6        40.750    24316592.478 3  99572351.907 3        22.000  
G14  24931414.074 6 131015458.614 6        40.750    24931415.074 4 102089969.721 4        24.000  
G15  22312269.992 7 117251734.038 7        45.250    22312270.752 5  91364987.760 5        35.750  
G18  22376782.352 7 117590771.679 7        44.500    22376784.252 5  91629163.055 5        33.500  
G21  25243887.532 6 132657523.202 6        41.250    25243886.132 3 103369501.848 3        22.500  
G23  20359881.606 7 106991908.591 7        47.750    20359882.266 7  83370319.730 7        42.000  
G24  22764805.970 7 119629826.369 7        43.750    22764809.350 7  93217992.365 7        45.750  
G27  22151987.494 7 116409484.649 7        47.500    22151989.714 8  90708690.627 8        48.750  
G32  24395835.358 6 128200987.861 6        41.750    24395838.498 5  99896875.575 5        35.000  
> 2021 11 07 03 53  0.0000000  0 11                     
G08  22518220.170 7 118334038.777 7        46.750    22518222.870 7  92208341.587 7        47.000  
G10  20879067.342 8 109720229.795 8        52.000    20879069.562 9  85496282.589 9        54.750  
G13  24357975.498 6 128002039.825 6        40.500    24357977.398 3  99741815.305 3        21.750  
G14  24912243.614 6 130914717.051 6        39.250    24912244.694 4 102011469.832 4        24.250  
G15  22346397.752 7 117431076.293 7        46.250    22346398.552 5  91504734.868 5        35.750  
G18  22414197.632 7 117787389.724 7        45.000    22414199.592 5  91782371.782 5        33.250  
G21  25207395.032 6 132465753.405 6        39.500    25207393.672 3 103220070.750 3        22.000  
G23  20369917.226 8 107044646.149 8        48.000    20369917.926 7  83411413.887 7        42.000  
G24  22736257.670 7 119479804.300 7        43.000    22736261.030 7  93101092.132 7        45.250  
G27  22170200.814 7 116505195.872 7        47.250    22170203.014 8  90783270.718 8        48.500  
G32  24352942.178 7 127975582.684 7        44.500    24352945.318 6  99721235.206 6        41.000  
> 2021 11 07 03 54  0.0000000  0 11                     
G08  22512567.970 7 118304335.843 7        47.250    22512570.630 7  92185196.439 7        47.750  
G10  20861424.442 8 109627515.798 8        52.000    20861426.682 9  85424037.895 9        54.750  
G13  24399521.018 6 128220362.363 6        40.750    24399522.978 3  99911936.685 3        21.500  
G14  24893453.154 6 130815972.467 6        40.500    24893454.274 3 101934526.034 3        23.250  
G15  22380821.292 7 117611972.754 7        46.750    22380822.112 5  91645693.070 5        35.500  
G18  22451836.632 7 117985183.434 7        44.500    22451838.632 5  91936496.605 5        33.250  
G21  25170976.514 6 132274372.710 6        40.750    25170975.214 3 103070942.880 3        21.000  
G23  20380313.186 8 107099277.250 8        48.250    20380313.926 7  83453983.532 7        42.000  
G24  22708068.570 6 119331670.003 6        41.750    22708071.910 7  92985662.897 7        43.500  
G27  22188855.192 7 116603225.024 7        47.250    22188857.432 8  90859656.983 8        48.250  
G32  24310133.218 7 127750619.645 7        44.750    24310136.538 7  99545939.363 7        45.000  
> 2021 11 07 03 55  0.0000000  0 11                     
G08  22507387.130 7 118277110.014 7        47.000    22507389.770 7  92163981.483 7        47.250  
G10  20844093.842 8 109536442.783 8        52.500    20844096.102 9  85353071.883 9        55.250  
G13  24441223.158 6 128439508.038 6        41.000    24441225.198 3 100082699.396 3        21.000  
G14  24875045.616 6 130719240.202 6        41.250    24875046.696 3 101859150.169 3        22.000  
G15  22415536.452 7 117794401.805 7        46.500    22415537.312 5  91787845.495 5        35.500  
G18  22489696.430 7 118184137.461 7        44.250    22489698.490 5  92091525.582 5        32.250  
G21  25134634.334 6 132083393.031 6        41.500    25134633.154 3 102922127.511 3        22.250  
G23  20391068.384 7 107155796.171 7        47.750    20391069.144 6  83498024.204 6        41.500  
G24  22680243.030 6 119185446.245 6        41.750    22680246.350 7  92871722.386 7        42.500  
G27  22207947.792 7 116703557.083 7        46.750    22207950.072 7  90937837.737 7        47.750  
G32  24267411.500 7 127526115.147 7        44.500    24267414.980 7  99371000.824 7        45.750  
> 2021 11 07 03 56  0.0000000  0 11                     
G08  22502678.310 7 118252364.824 7        44.500    22502680.970 7  92144699.478 7        45.500  
G10  20827076.982 8 109447018.386 8        52.750    20827079.222 9  85283390.508 9        55.500  
G13  24483077.658 6 128659454.389 6        41.500    24483079.778 3 100254086.042 3        22.250  
G14  24857023.916 6 130624535.343 6        39.500    24857024.956 3 101785354.130 3        22.000  
G15  22450539.232 7 117978342.106 7        46.250    22450540.112 5  91931175.481 5        35.750  
G18  22527774.150 7 118384236.537 7        44.250    22527776.230 5  92247446.825 5        32.500  
G21  25098371.094 6 131892828.182 6        41.000    25098369.954 3 102773635.349 3        23.250  
G23  20402181.704 7 107214197.125 7        47.750    20402182.504 6  83543531.392 6        41.500  
G24  22652785.370 7 119041155.577 7        43.000    22652788.610 7  92759288.139 7        43.250  
G27  22227475.712 7 116806176.793 7        46.750    22227477.992 7  91017801.094 7        47.250  
G32  24224780.080 7 127302085.591 7        42.750    24224783.640 7  99196432.448 7        43.500  
> 2021 11 07 03 57  0.0000000  0 11                     
G08  22498442.170 6 118230104.016 6        41.750    22498444.910 7  92127353.330 7        43.250  
G10  20810375.262 8 109359249.971 8        53.000    20810377.462 9  85214999.509 9        55.500  
G13  24525080.798 6 128880181.981 6        40.500    24525082.998 3 100426081.443 3        21.250  
G14  24839390.716 6 130531872.359 6        40.500    24839391.816 4 101713149.304 4        25.500  
G15  22485825.370 7 118163771.574 7        46.000    22485826.270 5  92075665.881 5        34.750  
G18  22566066.770 7 118585465.043 7        44.250    22566068.910 5  92404248.140 5        32.000  
G21  25062189.274 6 131702691.096 6        41.500    25062188.154 3 102625476.460 3        23.250  
G23  20413652.024 8 107274473.971 8        48.250    20413652.844 6  83590500.326 6        41.500  
G24  22625699.810 7 118898820.159 7        44.250    22625702.970 7  92648377.432 7        44.750  
G27  22247435.912 7 116911068.063 7        47.000    22247438.172 7  91099534.510 7        46.750  
G32  24182242.020 6 127078547.024 6        40.000    24182245.620 6  99022246.748 6        39.500  
> 2021 11 07 03 58  0.0000000  0 11                     
G08  22494679.230 7 118210329.811 7        44.250    22494682.030 7  92111944.794 7        45.000  
G10  20793990.062 8 109273145.038 8        52.750    20793992.282 9  85147904.731 9        55.750  
G13  24567228.518 6 129101669.192 6        40.500    24567230.778 3 100598668.758 3        20.500  
G14  24822148.936 7 130441265.897 7        42.250    24822150.016 4 101642546.853 4        24.250  
G15  22521390.870 7 118350669.049 7        45.250    22521391.790 5  92221300.169 5        34.500  
G18  22604571.350 7 118787807.485 7        44.500    22604573.550 5  92561917.458 5        33.500  
G21  25026091.334 6 131512994.894 6        41.500    25026090.254 3 102477661.161 3        22.500  
G23  20425478.184 8 107336620.675 8        48.500    20425478.984 6  83638926.297 6        41.750  
G24  22598990.530 7 118758462.053 7        43.250    22598993.670 7  92539007.491 7        45.000  
G27  22267825.352 7 117018215.039 7        46.250    22267827.572 7  91183025.610 7        47.250  
G32  24139800.460 6 126855515.727 6        39.750    24139804.060 6  98848456.338 6        40.500  
> 2021 11 07 03 59  0.0000000  0 11                     
G08  22491390.070 7 118193044.978 7        46.750    22491392.890 7  92098476.069 7        46.250  
G10  20777922.762 8 109188710.709 8        52.250    20777925.022 9  85082111.725 9        55.750  
G13  24609516.636 6 129323894.277 6        40.000    24609518.956 3 100771831.048 3        19.750  
G14  24805301.096 6 130352729.879 6        38.750    24805302.136 3 101573557.687 3        20.500  
G15  22557231.470 7 118539012.316 7        46.000    22557232.450 5  92368061.051 5        34.500  
G18  22643284.910 7 118991248.056 7        45.000    22643287.130 5  92720442.446 5        34.750  
G21  24990079.894 6 131323753.108 6        41.250    24990078.794 3 102330199.913 3        22.750  
G23  20437658.924 8 107400630.678 8        48.250    20437659.724 6  83688804.178 6        41.750  
G24  22572661.610 6 118620102.821 6        41.750    22572664.770 7  92431195.164 7        44.000  
G27  22288640.892 7 117127601.158 7        47.000    22288643.092 7  91268261.495 7        47.500  
G32  24097458.480 7 126633007.757 7        43.750    24097462.060 7  98675073.618 7        42.500  
> 2021 11 07 04 00  0.0000000  0 11                     
G08  22488575.090 7 118178251.882 7        45.250    22488577.890 7  92086948.955 7        45.500  
G10  20762174.842 8 109105954.684 8        52.500    20762177.102 9  85017626.490 9        55.750  
G13  24651941.476 6 129546837.848 6        40.250    24651943.856 3 100945553.222 3        20.250  
G14  24788849.936 6 130266278.544 6        38.500    24788851.016 4 101506193.064 4        24.750  
G15  22593343.210 7 118728780.310 7        45.250    22593344.210 5  92515932.127 5        34.500  
G18  22682204.550 7 119195771.680 7        45.250    22682206.830 5  92879811.364 5        35.000  
G21  24954157.634 6 131134979.942 6        41.000    24954156.574 3 102183103.846 3        23.000  
G23  20450193.124 8 107466498.112 8        48.500    20450193.904 7  83740129.406 7        42.250  
G24  22546717.270 6 118483764.615 6        41.750    22546720.450 7  92324957.676 7        44.000  
G27  22309879.432 7 117239210.311 7        46.750    22309881.632 7  91355229.610 7        47.500  
G32  24055219.300 7 126411039.840 7        46.000    24055222.780 7  98502111.643 7        43.250  
> 2021 11 07 04 01  0.0000000  0 11                     
G08  22486234.310 7 118165950.987 7        44.250    22486237.110 7  92077363.826 7        44.500  
G10  20746747.362 8 109024882.598 8        52.500    20746749.642 9  84954453.422 9        55.750  
G13  24694498.616 6 129770476.726 6        40.500    24694501.076 3 101119817.115 3        21.000  
G14  24772797.856 6 130181924.092 6        41.750    24772798.996 4 101440462.320 4        28.000  
G15  22629721.650 7 118919949.777 7        47.000    22629722.670 5  92664895.262 5        34.750  
G18  22721327.010 7 119401361.077 7        45.000    22721329.350 5  93040010.761 5        33.500  
G21  24918326.794 6 130946687.187 6        40.250    24918325.754 3 102036382.124 3        22.000  
G23  20463079.244 8 107534214.869 8        48.750    20463080.024 7  83792895.656 7        42.750  
G24  22521161.290 7 118349467.286 7        42.000    22521164.470 7  92220310.452 7        44.250  
G27  22331537.512 7 117353024.053 7        47.000    22331539.712 7  91443915.587 7        47.750  
G32  24013085.760 7 126189626.704 7        46.500    24013089.140 7  98329581.917 7        44.500  
> 2021 11 07 04 02  0.0000000  0 11                     
G08  22484368.352 7 118156145.414 7        45.250    22484371.172 7  92069723.081 7        44.250  
G10  20731642.022 8 108945503.553 8        52.250    20731644.342 9  84892599.600 9        55.000  
G13  24737184.636 6 129994792.873 6        39.000    24737187.156 3 101294608.838 3        18.250  
G14  24757147.716 6 130099681.910 6        40.000    24757148.836 3 101376377.502 3        21.250  
G15  22666363.110 7 119112501.399 7        45.500    22666364.130 5  92814935.400 5        33.250  
G18  22760649.710 7 119608002.688 7        44.000    22760652.110 5  93201030.067 5        31.000  
G21  24882590.316 6 130758890.380 6        40.750    24882589.336 3 101890046.870 3        21.750  
G23  20476316.444 8 107603776.391 8        49.000    20476317.224 7  83847099.386 7        42.750  
G24  22495998.090 7 118217233.956 7        43.500    22496001.270 7  92117271.545 7        43.750  
G27  22353612.212 7 117469027.261 7        46.500    22353614.452 7  91534307.628 7        47.500  
G32  23971061.282 7 125968786.689 7        46.250    23971064.622 7  98157498.738 7        44.750  
> 2021 11 07 04 03  0.0000000  0 11                     
G08  22482977.352 7 118148835.523 7        47.000    22482980.132 7  92064027.056 7        46.000  
G10  20716860.002 8 108867823.417 8        52.500    20716862.322 9  84832069.601 9        56.000  
G13  24779995.376 6 130219764.399 6        40.250    24779997.936 3 101469911.223 3        19.500  
G14  24741901.696 6 130019563.631 6        38.000    24741902.836 3 101313947.691 3        19.000  
G15  22703263.210 7 119306412.308 7        46.750    22703264.270 5  92966034.744 5        34.250  
G18  22800169.408 7 119815679.558 7        42.750    22800171.848 4  93362856.095 4        29.500  
G21  24846950.496 6 130571601.534 6        40.750    24846949.576 3 101744107.427 3        22.750  
G23  20489903.184 8 107675174.761 8        49.250    20489903.964 7  83902734.442 7        43.500  
G24  22471231.432 7 118087084.463 7        43.250    22471234.592 7  92015856.362 7        44.500  
G27  22376100.032 7 117587201.382 7        46.500    22376102.312 8  91626391.295 8        48.000  
G32  23929148.762 7 125748534.978 7        44.500    23929152.142 7  97985873.993 7        44.500  
> 2021 11 07 04 04  0.0000000  0 11                     
G08  22482061.292 7 118144021.432 7        46.750    22482064.012 7  92060275.831 7        46.250  
G10  20702402.502 8 108791848.657 8        52.750    20702404.842 9  84772868.473 9        56.250  
G13  24822927.016 6 130445371.223 6        40.750    24822929.616 3 101645708.656 3        19.750  
G14  24727062.276 6 129941581.940 6        41.250    24727063.436 4 101253182.653 4        26.250  
G15  22740417.810 7 119501660.576 7        45.750    22740418.890 5  93118176.157 5        34.500  
G18  22839883.048 7 120024375.630 7        42.250    22839885.548 4  93525476.247 4        29.500  
G21  24811409.996 6 130384834.749 6        40.750    24811409.136 3 101598574.820 3        23.000  
G23  20503838.084 8 107748402.729 8        49.500    20503838.844 7  83959795.155 7        43.250  
G24  22446865.172 7 117959039.013 7        42.750    22446868.312 7  91916080.721 7        45.250  
G27  22398997.512 7 117707528.372 7        46.000    22398999.852 8  91720152.542 8        48.000  
G32  23887351.222 6 125528887.499 6        41.500    23887354.662 7  97814720.163 7        42.000  
> 2021 11 07 04 05  0.0000000  0 11                     
G08  22481620.252 7 118141703.846 7        44.000    22481622.972 7  92058469.893 7        44.500  
G10  20688270.922 8 108717586.732 8        52.500    20688273.302 9  84715002.036 9        56.000  
G13  24865975.556 6 130671592.494 6        41.000    24865978.216 3 101821984.901 3        20.000  
G14  24712631.976 6 129865749.820 6        40.500    24712633.136 4 101194092.630 4        27.750  
G15  22777822.990 7 119698225.729 7        46.250    22777824.090 5  93271343.739 5        34.250  
G18  22879787.728 7 120234075.719 7        43.250    22879790.308 5  93688878.762 5        31.250  
G21  24775971.616 6 130198604.442 6        41.750    24775970.796 3 101453460.185 3        23.500  
G23  20518119.944 8 107823453.956 8        48.750    20518120.684 7  84018276.579 7        42.750  
G24  22422903.332 7 117833118.725 7        42.750    22422906.472 7  91817961.067 7        45.750  
G27  22422301.392 7 117829990.847 7        46.750    22422303.752 8  91815577.783 8        48.000  
G32  23845671.882 6 125309861.234 6        40.750    23845675.382 7  97644050.421 7        42.750  
> 2021 11 07 04 06  0.0000000  0 11                     
G08  22481654.172 7 118141882.310 7        44.750    22481656.932 7  92058608.892 7        42.250  
G10  20674466.464 8 108645043.826 8        52.000    20674468.864 8  84658475.086 8        53.250  
G13  24909137.174 6 130898407.943 6        40.750    24909139.874 2 101998724.155 2        17.750  
G14  24698612.876 5 129792078.845 5        35.250    24698614.096 3 101136686.784 3        20.750  
G15  22815474.468 7 119896085.264 7        45.750    22815475.608 5  93425519.902 5        31.750  
G18  22919880.388 7 120444763.386 7        45.000    22919883.008 5  93853050.852 5        32.000  
G21  24740637.836 7 130012923.983 7        42.250    24740637.096 3 101308774.054 3        22.000  
G23  20532747.284 8 107900320.820 8        48.750    20532748.024 6  84078172.799 6        40.250  
G24  22399349.592 7 117709343.186 7        43.250    22399352.752 7  91721512.691 7        43.500  
G27  22446008.072 7 117954570.112 7        46.000    22446010.472 7  91912652.476 7        44.500  
G32  23804113.882 7 125091472.186 7        45.500    23804117.342 7  97473877.119 7        43.250  
> 2021 11 07 04 07  0.0000000  0 11                     
G08  22482162.932 7 118144555.903 7        45.500    22482165.712 7  92060692.167 7        42.250  
G10  20660990.364 8 108574226.243 8        53.250    20660992.724 8  84603292.511 8        52.500  
G13  24952408.074 6 131125797.677 6        39.000    24952410.814 2 102175910.862 2        13.000  
G14  24685007.776 6 129720580.485 6        40.250                                                  
G15  22853368.128 7 120095217.400 7        45.250    22853369.288 5  93580687.706 5        30.500  
G18  22960157.908 7 120656422.557 7        45.250    22960160.568 5  94017979.914 5        32.000  
G21  24705411.256 6 129827806.706 6        41.750    24705410.536 3 101164526.702 3        20.500  
G23  20547718.664 7 107978995.732 7        47.250    20547719.404 6  84139477.878 6        37.250  
G24  22376207.712 7 117587732.027 7        42.750    22376210.872 7  91626750.823 7        42.000  
G27  22470113.992 7 118081247.346 7        44.750    22470116.412 7  92011361.947 7        42.000  
G32  23762680.082 7 124873736.039 7        46.250    23762683.522 7  97304212.603 7        42.750  
> 2021 11 07 04 08  0.0000000  0 11                     
G08  22483146.352 7 118149723.535 7        46.500    22483149.112 7  92064718.870 7        46.750  
G10  20647843.964 8 108505140.974 8        52.750    20647846.224 9  84549459.785 9        56.000  
G13  24995784.434 6 131353741.716 6        40.750    24995787.234 3 102353529.498 3        19.250  
G14  24671818.736 7 129651266.959 7        43.000                                                  
G15  22891500.008 7 120295601.327 7        46.250    22891501.188 5  93736830.923 5        33.750  
G18  23000617.368 7 120869037.726 7        46.250    23000620.048 6  94183653.933 6        36.750  
G21  24670294.576 6 129643267.000 6        41.250    24670293.876 4 101020729.434 4        24.000  
G23  20563032.764 7 108059471.887 7        46.750    20563033.544 6  84202186.519 6        39.500  
G24  22353481.512 7 117468305.222 7        43.250    22353484.632 7  91533691.036 7        44.750  
G27  22494615.670 7 118210004.328 7        46.000    22494618.090 7  92111692.013 7        46.500  
G32  23721373.782 7 124656669.731 7        46.250    23721377.182 7  97135070.003 7        47.000  
> 2021 11 07 04 09  0.0000000  0 11                     
G08  22484604.190 7 118157384.231 7        47.250    22484606.930 7  92070688.190 7        47.000  
G10  20635028.124 8 108437793.504 8        51.750    20635030.444 9  84496981.237 9        55.250  
G13  25039262.554 6 131582220.385 6        39.500    25039265.374 3 102531564.724 3        20.500  
G14  24659044.576 6 129584148.529 6        39.500                                                  
G15  22929865.888 7 120497214.930 7        46.750    22929867.108 5  93893932.342 5        33.750  
G18  23041255.548 7 121082592.157 7        44.000    23041258.288 5  94350059.811 5        35.750  
G21  24635290.276 6 129459317.812 6        41.750    24635289.596 4 100877392.311 4        24.000  
G23  20578688.024 7 108141740.954 7        46.250    20578688.864 6  84266292.220 6        39.000  
G24  22331174.512 7 117351081.306 7        44.250    22331177.552 7  91442347.770 7        45.000  
G27  22519509.350 7 118340821.265 7        46.750    22519511.770 7  92213627.203 7        47.000  
G32  23680197.864 8 124440288.627 8        48.000    23680201.204 7  96966461.298 7        47.250  
> 2021 11 07 04 10  0.0000000  0 11                     
G08  22486535.990 8 118167535.556 8        48.000    22486538.710 7  92078598.254 7        47.500  
G10  20622544.224 8 108372190.264 8        53.000    20622546.564 9  84445861.812 9        55.750  
G13  25082838.454 6 131811212.962 6        40.500    25082841.314 3 102710000.427 3        18.250  
G14  24646687.936 5 129519235.932 5        34.250                                                  
G15  22968461.708 7 120700036.978 7        45.500    22968462.968 5  94051975.347 5        33.750  
G18  23082069.428 6 121297070.024 6        41.750    23082072.248 5  94517185.233 5        32.500  
G21  24600401.296 6 129275974.601 6        41.250    24600400.656 3 100734527.369 3        22.750  
G23  20594683.044 7 108225795.441 7        46.750    20594683.944 6  84331789.163 6        39.250  
G24  22309290.332 7 117236079.368 7        44.250    22309293.332 7  91352735.926 7        45.500  
G27  22544791.410 7 118473679.014 7        46.750    22544793.810 7  92317152.663 7        47.000  
G32  23639155.444 7 124224609.058 7        46.250    23639158.744 7  96798399.264 7        46.500  
> 2021 11 07 04 11  0.0000000  0 11                     
G08  22488941.330 7 118180175.175 7        47.250    22488944.010 7  92088447.277 7        47.250  
G10  20610393.464 8 108308337.237 8        53.500    20610395.744 9  84396106.168 9        56.250  
G13  25126508.434 6 132040699.906 6        40.500    25126511.334 3 102888821.273 3        18.250  
G14  24634757.996 6 129456539.504 6        40.500    24634762.696 4 100875228.655 4        25.500  
G15  23007283.488 7 120904046.383 7        43.500    23007284.808 5  94210943.602 5        32.500  
G18  23123055.966 6 121512455.154 6        38.500    23123058.886 4  94685017.530 4        28.000  
G21  24565630.218 7 129093251.027 7        42.000    24565629.638 4 100592145.300 4        24.750  
G23  20611016.324 7 108311627.433 7        47.500    20611017.284 6  84398671.175 6        40.500  
G24  22287832.512 7 117123317.868 7        43.750    22287835.432 7  91264869.847 7        45.750  
G27  22570458.110 7 118608557.991 7        46.750    22570460.490 7  92422253.085 7        47.750  
G32  23598249.564 7 124009647.071 7        43.750    23598252.884 7  96630896.415 7        45.500  
> 2021 11 07 04 12  0.0000000  0 10                     
G08  22491819.730 7 118195301.035 7        46.000    22491822.410 7  92100233.619 7        45.750  
G10  20598576.804 8 108246240.054 8        52.250    20598579.064 9  84347718.708 9        56.000  
G14  24623254.056 7 129396069.338 7        42.750    24623256.796 4 100828109.057 4        27.750  
G15  23046326.968 7 121109220.820 7        46.000    23046328.328 5  94370819.663 5        32.750  
G18  23164212.046 6 121728731.052 6        39.750    23164215.066 4  94853543.966 4        27.250  
G21  24530979.538 6 128911160.034 6        40.500    24530978.958 3 100450256.122 3        23.250  
G23  20627686.344 8 108399228.725 8        48.500    20627687.304 6  84466931.875 6        41.000  
G24  22266804.432 7 117012814.870 7        43.500    22266807.392 7  91178763.676 7        46.750  
G27  22596505.590 7 118745438.057 7        46.750    22596507.970 7  92528912.795 7        47.250  
G32  23557483.224 7 123795418.526 7        43.000    23557486.604 7  96463965.109 7        45.250  
> 2021 11 07 04 13  0.0000000  0 10                     
G08  22495170.690 7 118212910.183 7        45.750    22495173.350 7  92113954.990 7        45.500  
G10  20587095.464 8 108185905.284 8        52.000    20587097.764 9  84300704.593 9        55.750  
G14  24612173.576 7 129337835.744 7        43.250    24612174.656 4 100782732.140 4        25.750  
G15  23085588.326 7 121315540.210 7        43.750    23085589.746 5  94531587.898 5        32.500  
G18  23205534.706 7 121945882.237 7        43.750    23205537.826 5  95022752.524 5        30.000  
G21  24496452.098 6 128729716.757 6        41.250    24496451.558 4 100308871.666 4        24.750  
G23  20644691.724 8 108488592.037 8        49.500    20644692.644 7  84536565.588 7        42.000  
G24  22246209.732 7 116904589.138 7        43.500    22246212.712 7  91094431.996 7        47.000  
G27  22622930.230 7 118884300.031 7        45.750    22622932.610 7  92637116.866 7        46.500  
G32  23516859.664 7 123581940.409 7        45.000    23516863.104 7  96297618.630 7        46.500  
> 2021 11 07 04 14  0.0000000  0 10                     
G08  22498993.450 7 118232998.781 7        44.750    22498996.130 7  92129608.422 7        44.750  
G10  20575950.484 8 108127338.074 8        51.750    20575952.824 9  84255067.781 9        55.750  
G14  24601519.496 6 129281847.419 6        40.000                                                  
G15  23125063.346 7 121522982.333 7        45.250    23125064.806 5  94693230.996 5        32.750  
G18  23247020.766 7 122163891.858 7        46.000    23247023.926 5  95192630.036 5        32.500  
G21  24462050.598 6 128548935.242 6        41.500    24462050.058 4 100168002.863 4        25.000  
G23  20662030.744 8 108579708.590 8        48.750    20662031.604 6  84607565.455 6        41.750  
G24  22226051.612 7 116798657.689 7        44.000    22226054.592 7  91011888.049 7        46.750  
G27  22649728.010 7 119025123.032 7        45.000    22649730.410 7  92746848.989 7        46.000  
G32  23476381.844 7 123369228.042 7        44.750    23476385.284 7  96131868.792 7        47.000  
> 2021 11 07 04 15  0.0000000  0  9                     
G08  22503287.210 6 118255562.526 6        41.250    22503289.910 7  92147190.490 7        42.000  
G10  20565142.944 8 108070543.916 8        50.500    20565145.284 9  84210812.560 9        54.750  
G15  23164748.086 7 121731526.584 7        42.000    23164749.606 5  94855732.867 5        30.750  
G18  23288667.066 7 122382743.677 7        43.750    23288670.266 5  95363163.774 5        33.000  
G21  24427777.638 6 128368829.156 6        39.000    24427777.118 3 100027660.352 3        23.000  
G23  20679701.744 7 108672570.025 7        46.250    20679702.604 6  84679924.973 6        39.500  
G24  22206333.372 6 116695037.738 6        40.750    22206336.332 7  90931145.238 7        44.250  
G27  22676895.050 7 119167886.467 7        42.000    22676897.490 7  92858093.142 7        43.750  
G32  23436052.764 7 123157297.433 7        44.000    23436056.164 7  95966728.119 7        45.250  
> 2021 11 07 04 16  0.0000000  0  9                     
G08  22508051.310 6 118280597.923 6        37.250    22508054.030 6  92166698.550 6        39.500  
G10  20554674.024 7 108015529.220 7        45.500    20554676.364 8  84167943.929 8        52.000  
G15  23204638.646 6 121941152.345 6        37.000    23204640.206 4  95019077.514 4        26.750  
G18  23330470.666 6 122602422.358 6        38.000    23330473.926 5  95534341.792 5        30.500  
G21  24393636.078 5 128189413.585 5        34.250    24393635.578 3  99887855.946 3        18.250  
G23  20697703.382 6 108767168.948 6        40.500    20697704.222 5  84753638.385 5        35.500  
G24  22187058.412 5 116593747.316 5        35.000    22187061.352 6  90852217.675 6        39.000  
G27  22704427.590 6 119312570.731 6        37.250    22704430.090 6  92970834.050 6        40.750  
G32  23395875.644 6 122946165.500 6        39.250    23395879.024 6  95802209.813 6        41.500  
> 2021 11 07 04 17  0.0000000  0  6                     
G08  22513284.830 5 118308100.033 5        34.250    22513287.550 6  92188128.722 6        38.000  
G10  20544544.504 7 107962297.902 7        42.000    20544546.784 8  84126464.943 8        49.750  
G15  23244730.726 5 122151837.190 5        35.500    23244732.366 4  95183247.384 4        24.500  
G23  20716033.722 6 108863495.377 6        36.500    20716034.582 5  84828697.883 5        32.000  
G27  22732321.430 5 119459153.472 5        33.500    22732323.950 6  93085054.293 6        38.250  
G32  23355853.286 5 122735846.744 5        35.000    23355856.606 6  95638325.113 6        38.500  
> 2021 11 07 04 18  0.0000000  0 10                     
G08  22518986.830 7 118338064.092 7        45.500    22518989.590 7  92211477.302 7        45.750  
G10  20534755.544 8 107910856.331 8        52.000    20534757.804 9  84086380.561 9        55.750  
G14  24563209.198 7 129080524.874 7        42.750    24563210.758 4 100582230.110 4        29.500  
G15  23285020.726 7 122363561.965 7        42.750    23285022.386 5  95348227.603 5        31.500  
G18  23414536.704 6 123044218.952 6        36.250    23414539.104 4  95878610.436 4        27.250  
G21  24325757.598 6 127832708.945 6        41.500    24325757.158 4  99609904.059 4        24.750  
G23  20734691.382 7 108961541.932 7        45.250    20734692.282 6  84905097.724 6        38.500  
G24  22149850.354 7 116398218.019 7        42.500    22149853.274 7  90699857.291 7        44.750  
G27  22760572.730 7 119607614.719 7        45.000    22760575.270 7  93200738.326 7        45.750  
G32  23315988.886 7 122526358.197 7        43.750    23315992.186 7  95475087.366 7        45.500  
> 2021 11 07 04 19  0.0000000  0 10                     
G08  22525156.390 7 118370485.031 7        46.500    22525159.150 7  92236740.340 7        46.750  
G10  20525308.024 8 107861209.212 8        52.500    20525310.284 9  84047694.473 9        56.500  
G14  24554716.098 7 129035892.815 7        42.750    24554717.298 4 100547451.876 4        28.000  
G15  23325504.366 7 122576304.346 7        46.250    23325506.066 5  95514000.725 5        33.000  
G18  23456792.384 6 123266278.069 6        38.750    23456795.944 4  96051643.185 4        28.750  
G21  24292026.378 6 127655449.873 6        39.750    24292025.978 4  99471780.055 4        24.000  
G23  20753674.582 7 109061299.474 7        46.000    20753675.562 6  84982830.804 6        39.000  
G24  22131923.594 7 116304012.314 7        44.250    22131926.474 7  90626450.264 7        45.500  
G27  22789177.388 7 119757932.838 7        46.250    22789179.948 7  93317869.261 7        46.250  
G32  23276285.426 7 122317715.475 7        45.500    23276288.706 7  95312508.718 7        46.750  
> 2021 11 07 04 20  0.0000000  0 10                     
G08  22531792.210 7 118405356.206 7        44.750    22531794.970 7  92263912.639 7        45.250  
G10  20516202.824 8 107813360.961 8        51.000    20516205.104 9  84010410.088 9        55.750  
G14  24546659.398 6 128993554.547 6        38.750    24546660.478 3 100514460.951 3        22.250  
G15  23366177.666 6 122790043.389 6        41.000    23366179.426 4  95680550.475 4        29.250  
G18  23499194.284 7 123489097.317 7        42.250    23499197.244 5  96225268.374 5        31.500  
G21  24258437.240 6 127478937.409 6        40.250    24258436.860 4  99334237.802 4        24.250  
G23  20772981.602 7 109162758.564 7        45.500    20772982.642 6  85061889.766 6        39.000  
G24  22114452.154 7 116212199.419 7        42.250    22114454.974 7  90554907.788 7        44.250  
G27  22818131.208 7 119910085.824 7        43.500    22818133.748 7  93436429.955 7        44.750  
G32  23236745.826 7 122109933.840 7        44.500    23236749.086 7  95150601.001 7        46.500  
> 2021 11 07 04 21  0.0000000  0 10                     
G08  22538893.150 7 118442671.677 7        46.500    22538895.930 7  92292989.589 7        46.500  
G10  20507440.904 8 107767316.661 8        52.500    20507443.204 9  83974531.380 9        56.500  
G14  24539040.518 6 128953517.291 6        37.500    24539041.558 3 100483263.087 3        22.000  
G15  23407036.724 7 123004758.549 7        44.750    23407038.524 5  95847860.862 5        31.750  
G18  23541737.624 7 123712660.591 7        45.500    23541740.244 5  96399473.371 5        33.750  
G21  24224993.080 6 127303186.926 6        39.000    24224992.740 3  99197289.345 3        22.000  
G23  20792610.822 8 109265910.570 8        48.500    20792611.882 6  85142267.891 6        41.250  
G24  22097438.994 7 116122794.794 7        44.500    22097441.794 7  90485241.916 7        46.250  
G27  22847430.088 7 120064052.202 7        45.000    22847432.648 7  93556403.709 7        45.250  
G32  23197373.166 7 121903029.388 7        46.000    23197376.406 7  94989376.800 7        47.500  
> 2021 11 07 04 22  0.0000000  0 10                     
G08  22546458.090 7 118482425.658 7        45.750    22546460.910 7  92323966.661 7        45.750  
G10  20499023.364 8 107723082.071 8        52.250    20499025.664 9  83940062.834 9        57.000  
G14  24531860.898 6 128915788.714 6        37.750    24531861.958 3 100453864.210 3        21.750  
G15  23448077.804 7 123220430.258 7        42.250    23448079.664 5  96015916.551 5        31.500  
G18  23584419.324 7 123936952.628 7        46.250    23584421.884 5  96574246.246 5        34.250  
G21  24191696.740 7 127128213.139 7        43.000    24191696.400 4  99060946.007 4        24.500  
G23  20812560.742 8 109370747.500 8        49.500    20812561.762 6  85223958.970 6        41.750  
G24  22080887.174 7 116035814.464 7        44.500    22080889.934 7  90417465.082 7        47.250  
G27  22877070.088 7 120219811.301 7        44.500    22877072.688 7  93677774.347 7        44.750  
G32  23158170.646 7 121697018.991 7        46.250    23158173.826 7  94828849.262 7        47.000  
> 2021 11 07 04 23  0.0000000  0 10                     
G08  22554485.470 7 118524609.701 7        45.750    22554488.310 7  92356837.315 7        45.750  
G10  20490950.764 8 107680660.177 8        52.500    20490953.104 9  83907006.790 9        57.000  
G14  24525121.478 6 128880373.188 6        39.750    24525122.498 3 100426267.696 3        23.000  
G15  23489296.604 6 123437035.857 6        41.250    23489298.524 5  96184700.005 5        31.750  
G18  23627236.144 7 124161955.280 7        44.500    23627238.724 5  96749572.815 5        33.000  
G21  24158550.780 6 126954029.767 6        40.750    24158550.460 4  98925218.701 4        24.000  
G23  20832829.242 8 109477258.674 8        48.750    20832830.222 6  85306954.639 6        41.250  
G24  22064799.114 7 115951271.209 7        43.250    22064801.854 7  90351587.254 7        45.750  
G27  22907046.728 7 120377339.397 7        44.000    22907049.348 7  93800523.405 7        44.250  
G32  23119140.966 7 121491916.739 7        45.250    23119144.066 7  94669029.361 7        46.500  
> 2021 11 07 04 24  0.0000000  0 10                     
G08  22562974.130 7 118569217.881 7        46.000    22562977.030 7  92391596.877 7        46.250  
G10  20483224.164 8 107640056.384 8        52.750    20483226.524 9  83875367.438 9        57.250  
G14  24518823.538 6 128847277.410 6        41.500    24518824.498 4 100400478.857 4        24.500  
G15  23530689.504 7 123654556.347 7        43.000    23530691.484 5  96354196.295 5        31.250  
G18  23670185.144 6 124387653.099 6        41.750    23670187.844 5  96925441.041 5        30.500  
G21  24125558.220 7 126780652.224 7        43.250    24125557.880 4  98790119.232 4        27.500  
G23  20853414.722 8 109585435.763 8        48.000    20853415.682 6  85391248.413 6        40.000  
G24  22049177.614 7 115869180.040 7        42.750    22049180.414 7  90287620.140 7        44.750  
G27  22937355.968 7 120536615.249 7        44.750    22937358.588 7  93924634.389 7        44.250  
G32  23080287.228 7 121287739.348 7        45.000    23080290.308 7  94509930.155 7        45.500  
> 2021 11 07 04 25  0.0000000  0 10                     
G08  22571922.650 7 118616242.459 7        46.500    22571925.550 7  92428239.356 7        46.250  
G10  20475844.384 8 107601275.260 8        52.750    20475846.784 9  83845148.349 9        57.250  
G14  24512968.138 6 128816507.094 6        41.250    24512968.898 4 100376501.974 4        24.000  
G15  23572252.624 6 123872971.278 6        41.000    23572254.644 5  96524389.611 5        30.250  
G18  23713263.342 6 124614029.937 6        37.000    23713266.162 4  97101838.314 4        26.000  
G21  24092721.620 7 126608094.574 7        42.750    24092721.300 4  98655658.750 4        27.250  
G23  20874315.402 7 109695269.798 7        47.000    20874316.482 6  85476833.285 6        39.750  
G24  22034025.414 7 115789555.047 7        44.250    22034028.214 7  90225574.705 7        45.750  
G27  22967993.608 7 120697616.866 7        45.250    22967996.248 7  94050090.106 7        44.250  
G32  23041612.528 7 121084502.751 7        45.750    23041615.588 7  94351564.023 7        45.250  
